[{"medal":"Gold","beer":"Coyote Amber Lager","brewery":"Seagram Beverages","city":"New York","state":"NY","style":"Amber Lager","year":1996,"coords":[-73.9249,40.6943],"lat":40.6943,"lng":-73.9249,"comp":"GABF"},{"medal":"Silver","beer":"Killian's Red","brewery":"Coors Brewing Co.","city":"Golden","state":"CO","style":"Amber Lager","year":1996,"coords":[-105.2118,39.7406],"lat":39.7406,"lng":-105.2118,"comp":"GABF"},{"medal":"Bronze","beer":"Augsburger Red","brewery":"Augsburger Brewing Co.","city":"Detroit","state":"MI","style":"Amber Lager","year":1996,"coords":[-83.1024,42.3834],"lat":42.3834,"lng":-83.1024,"comp":"GABF"},{"medal":"Gold","beer":"Twisted Amber","brewery":"Twisted Pine Brewing Co.","city":"Boulder","state":"CO","style":"American Amber Ale","year":1996,"coords":[-105.2523,40.0249],"lat":40.0249,"lng":-105.2523,"comp":"GABF"},{"medal":"Silver","beer":"Angel Creek Amber Ale","brewery":"Ruby Mountain Brewing Co. Inc","city":"Wells","state":"NV","style":"American Amber Ale","year":1996,"coords":[-114.9535,41.1132],"lat":41.1132,"lng":-114.9535,"comp":"GABF"},{"medal":"Bronze","beer":"Alaskan Frontier","brewery":"Alaskan Brewing and Bottling Co.","city":"Juneau","state":"AK","style":"American Amber Ale","year":1996,"coords":[-134.1739,58.4546],"lat":58.4546,"lng":-134.1739,"comp":"GABF"},{"medal":"Gold","beer":"Rio Grande Brown","brewery":"O'Ryans Tavern And Brewery","city":"Las Cruces","state":"NM","style":"American Brown Ale","year":1996,"coords":[-106.7893,32.3265],"lat":32.3265,"lng":-106.7893,"comp":"GABF"},{"medal":"Silver","beer":"Tenderfoot Brown Ale","brewery":"Il Vicino Brewing Co.","city":"Albuquerque","state":"NM","style":"American Brown Ale","year":1996,"coords":[-106.6464,35.1053],"lat":35.1053,"lng":-106.6464,"comp":"GABF"},{"medal":"Bronze","beer":"Buffalo Ale","brewery":"Hoffbrau Steaks Brewery","city":"Dallas","state":"TX","style":"American Brown Ale","year":1996,"coords":[-96.7662,32.7936],"lat":32.7936,"lng":-96.7662,"comp":"GABF"},{"medal":"Gold","beer":"Budweiser","brewery":"Anheuser-Busch, Inc","city":"Saint Louis","state":"MO","style":"American Lager","year":1996,"coords":null,"lat":null,"lng":null,"comp":"GABF"},{"medal":"Silver","beer":"Pabst Blue Ribbon","brewery":"Pabst Brewing Co.","city":"San Antonio","state":"TX","style":"American Lager","year":1996,"coords":[-98.5254,29.4658],"lat":29.4658,"lng":-98.5254,"comp":"GABF"},{"medal":"Silver","beer":"Scrimshaw Beer","brewery":"North Coast Brewing Co. Inc","city":"Ft. Bragg","state":"CA","style":"American Lager \/ Ale \/ Cream Ale","year":1996,"coords":null,"lat":null,"lng":null,"comp":"GABF"},{"medal":"Bronze","beer":"Lodgepole Light","brewery":"Prescott Brewing Co.","city":"Prescott","state":"AZ","style":"American Lager \/ Ale \/ Cream Ale","year":1996,"coords":[-112.4475,34.585],"lat":34.585,"lng":-112.4475,"comp":"GABF"},{"medal":"Gold","beer":"Pabst Genuine Draft Light","brewery":"Pabst Brewing Co.","city":"San Antonio","state":"TX","style":"American Light Lager","year":1996,"coords":[-98.5254,29.4658],"lat":29.4658,"lng":-98.5254,"comp":"GABF"},{"medal":"Silver","beer":"Coors Light","brewery":"Coors Brewing Co.","city":"Golden","state":"CO","style":"American Light Lager","year":1996,"coords":[-105.2118,39.7406],"lat":39.7406,"lng":-105.2118,"comp":"GABF"},{"medal":"Bronze","beer":"Bud Light","brewery":"Anheuser-Busch, Inc","city":"Saint Louis","state":"MO","style":"American Light Lager","year":1996,"coords":null,"lat":null,"lng":null,"comp":"GABF"},{"medal":"Gold","beer":"Mt. Whitney","brewery":"Butterfield Brewing Co.","city":"Fresno","state":"CA","style":"American Pale Ale","year":1996,"coords":[-119.7941,36.7831],"lat":36.7831,"lng":-119.7941,"comp":"GABF"},{"medal":"Silver","beer":"Snake River Pale Ale","brewery":"Snake River Brewing Co.","city":"Jackson","state":"WY","style":"American Pale Ale","year":1996,"coords":[-110.7745,43.4721],"lat":43.4721,"lng":-110.7745,"comp":"GABF"},{"medal":"Bronze","beer":"South Platte Pale Ale","brewery":"5280 Roadhouse & Brewery","city":"Denver","state":"CO","style":"American Pale Ale","year":1996,"coords":[-104.8759,39.7621],"lat":39.7621,"lng":-104.8759,"comp":"GABF"},{"medal":"Gold","beer":"Original Coors","brewery":"Coors Brewing Co.","city":"Golden","state":"CO","style":"American Premium Lager","year":1996,"coords":[-105.2118,39.7406],"lat":39.7406,"lng":-105.2118,"comp":"GABF"},{"medal":"Silver","beer":"Coors Extra Gold","brewery":"Coors Brewing Co.","city":"Golden","state":"CO","style":"American Premium Lager","year":1996,"coords":[-105.2118,39.7406],"lat":39.7406,"lng":-105.2118,"comp":"GABF"},{"medal":"Bronze","beer":"Point Special","brewery":"Barton Beers Ltd","city":"Chicago","state":"IL","style":"American Premium Lager","year":1996,"coords":[-87.6862,41.8373],"lat":41.8373,"lng":-87.6862,"comp":"GABF"},{"medal":"Gold","beer":"Rainier Ice","brewery":"G. Heileman Brewing Co.","city":"San Antonio","state":"TX","style":"American Specialty Lager","year":1996,"coords":[-98.5254,29.4658],"lat":29.4658,"lng":-98.5254,"comp":"GABF"},{"medal":"Silver","beer":"Mickey's Malt Liquor","brewery":"G. Heileman Brewing Co.","city":"San Antonio","state":"TX","style":"American Specialty Lager","year":1996,"coords":[-98.5254,29.4658],"lat":29.4658,"lng":-98.5254,"comp":"GABF"},{"medal":"Bronze","beer":"Eagle Malt Liquor","brewery":"Evansville Brewing Co.","city":"Evansville","state":"IN","style":"American Specialty Lager","year":1996,"coords":[-87.5341,37.9881],"lat":37.9881,"lng":-87.5341,"comp":"GABF"},{"medal":"Gold","beer":"Happy Valley Hefeweizen","brewery":"Desert Edge Brewery","city":"Salt Lake City","state":"UT","style":"American Wheat Ale Or Lager","year":1996,"coords":[-111.93,40.7774],"lat":40.7774,"lng":-111.93,"comp":"GABF"},{"medal":"Silver","beer":"New World Wheat","brewery":"Redwood Coast Brewing Co.","city":"Santa Cruz","state":"CA","style":"American Wheat Ale Or Lager","year":1996,"coords":[-122.0346,36.9789],"lat":36.9789,"lng":-122.0346,"comp":"GABF"},{"medal":"Bronze","beer":"Stoddards Kristall Weizen","brewery":"Stoddard's Brewhouse & Eatery","city":"Sunnyvale","state":"CA","style":"American Wheat Ale Or Lager","year":1996,"coords":[-122.0257,37.3836],"lat":37.3836,"lng":-122.0257,"comp":"GABF"},{"medal":"Gold","beer":"Big 12 Barley Wine","brewery":"Little Apple Brewing Co.","city":"Manhattan","state":"KS","style":"Barley Wine","year":1996,"coords":[-96.6047,39.1885],"lat":39.1885,"lng":-96.6047,"comp":"GABF"},{"medal":"Silver","beer":"Centurion Barleywine Ale","brewery":"Golden City Brewery","city":"Golden","state":"CO","style":"Barley Wine","year":1996,"coords":[-105.2118,39.7406],"lat":39.7406,"lng":-105.2118,"comp":"GABF"},{"medal":"Bronze","beer":"Old Weasel Barleywine","brewery":"Steelhead Brewery & Cafe","city":"Burlingame","state":"CA","style":"Barley Wine","year":1996,"coords":[-122.3669,37.586],"lat":37.586,"lng":-122.3669,"comp":"GABF"},{"medal":"Gold","beer":"Abbey Belgian Style Ale","brewery":"New Belgium Brewing Co.","city":"Fort Collins","state":"CO","style":"Belgian Style Ale","year":1996,"coords":[-105.0651,40.5475],"lat":40.5475,"lng":-105.0651,"comp":"GABF"},{"medal":"Silver","beer":"Blue Moon Honey Blonde","brewery":"Blue Moon Brewing Co.","city":"Golden","state":"CO","style":"Belgian Style Ale","year":1996,"coords":[-105.2118,39.7406],"lat":39.7406,"lng":-105.2118,"comp":"GABF"},{"medal":"Bronze","beer":"Celis Grand Cru","brewery":"Celis Brewery Inc","city":"Austin","state":"TX","style":"Belgian Style Ale","year":1996,"coords":[-97.7517,30.3006],"lat":30.3006,"lng":-97.7517,"comp":"GABF"},{"medal":"Gold","beer":"Little Red Raspberry","brewery":"Wynkoop Brewing Co.","city":"Denver","state":"CO","style":"Belgian Style Specialty Ales","year":1996,"coords":[-104.8759,39.7621],"lat":39.7621,"lng":-104.8759,"comp":"GABF"},{"medal":"Silver","beer":"Red Rock White","brewery":"Red Rock Brewing Co.","city":"Salt Lake City","state":"UT","style":"Belgian Style Specialty Ales","year":1996,"coords":[-111.93,40.7774],"lat":40.7774,"lng":-111.93,"comp":"GABF"},{"medal":"Bronze","beer":"Overland White","brewery":"Overland Stage Stop Brewery","city":"Longmont","state":"CO","style":"Belgian Style Specialty Ales","year":1996,"coords":[-105.0996,40.169],"lat":40.169,"lng":-105.0996,"comp":"GABF"},{"medal":"Gold","beer":"Jack Frost Doppelbock","brewery":"Saxer Brewing Co.","city":"Lake Oswego","state":"OR","style":"Bock","year":1996,"coords":[-122.7003,45.4129],"lat":45.4129,"lng":-122.7003,"comp":"GABF"},{"medal":"Silver","beer":"Stoudt's Honey Double Mai Bock","brewery":"Stoudt's Brewing Co.","city":"Adamstown","state":"PA","style":"Bock","year":1996,"coords":[-76.0608,40.2417],"lat":40.2417,"lng":-76.0608,"comp":"GABF"},{"medal":"Bronze","beer":"Samuel Adams Double Bock","brewery":"Boston Beer Co.","city":"Boulder","state":"CO","style":"Bock","year":1996,"coords":[-105.2523,40.0249],"lat":40.0249,"lng":-105.2523,"comp":"GABF"},{"medal":"Gold","beer":"Black Butte Porter","brewery":"Deschutes Brewery (No 2)","city":"Bend","state":"OR","style":"Brown Porter","year":1996,"coords":[-121.3087,44.0562],"lat":44.0562,"lng":-121.3087,"comp":"GABF"},{"medal":"Silver","beer":"Total Disorder Porter","brewery":"C.B. & Potts\/Big Horn Brewing","city":"Seattle","state":"WA","style":"Brown Porter","year":1996,"coords":[-122.3244,47.6211],"lat":47.6211,"lng":-122.3244,"comp":"GABF"},{"medal":"Bronze","beer":"St. Charles Porter","brewery":"Blackstone Restaurant","city":"Nashville","state":"TN","style":"Brown Porter","year":1996,"coords":[-86.7843,36.1715],"lat":36.1715,"lng":-86.7843,"comp":"GABF"},{"medal":"Silver","beer":"Custer's Last Ale","brewery":"Snake River Brewing Co.","city":"Jackson","state":"WY","style":"Classic English Style Pale Ale","year":1996,"coords":[-110.7745,43.4721],"lat":43.4721,"lng":-110.7745,"comp":"GABF"},{"medal":"Bronze","beer":"Brickhouse Extra Pale Ale","brewery":"SLO Brewing Co.","city":"San Luis Obispo","state":"CA","style":"Classic English Style Pale Ale","year":1996,"coords":[-120.6689,35.267],"lat":35.267,"lng":-120.6689,"comp":"GABF"},{"medal":"Gold","beer":"Latrobe Bavarian Black","brewery":"Latrobe Brewing Co.","city":"Latrobe","state":"PA","style":"Dark Lager","year":1996,"coords":[-79.3826,40.3125],"lat":40.3125,"lng":-79.3826,"comp":"GABF"},{"medal":"Silver","beer":"Uffda Bock","brewery":"New Glarus Brewing Co.","city":"New Glarus","state":"WI","style":"Dark Lager","year":1996,"coords":[-89.6337,42.813],"lat":42.813,"lng":-89.6337,"comp":"GABF"},{"medal":"Bronze","beer":"Thomas Kemper Bohemian Dumkel","brewery":"Thomas Kemper Brewery","city":"Seattle","state":"WA","style":"Dark Lager","year":1996,"coords":[-122.3244,47.6211],"lat":47.6211,"lng":-122.3244,"comp":"GABF"},{"medal":"Gold","beer":"Skookum Stout","brewery":"Captains City Brewery","city":"Coupeville","state":"WA","style":"Dry Stouts","year":1996,"coords":[-122.6775,48.2172],"lat":48.2172,"lng":-122.6775,"comp":"GABF"},{"medal":"Silver","beer":"Mambe Stout","brewery":"Mile High Brewing Co.","city":"Denver","state":"CO","style":"Dry Stouts","year":1996,"coords":[-104.8759,39.7621],"lat":39.7621,"lng":-104.8759,"comp":"GABF"},{"medal":"Bronze","beer":"Heart Of Darkness XXX Stout","brewery":"Twenty Tank Brewery","city":"San Francisco","state":"CA","style":"Dry Stouts","year":1996,"coords":[-122.443,37.7562],"lat":37.7562,"lng":-122.443,"comp":"GABF"},{"medal":"Gold","beer":"Midlands Mild","brewery":"Bradley's Restaurant","city":"Clearlake","state":"TX","style":"English Style Brown Ale","year":1996,"coords":null,"lat":null,"lng":null,"comp":"GABF"},{"medal":"Silver","beer":"Poppy Jasper Amber Ale","brewery":"El Toro Brewing Co.","city":"Morgan Hill","state":"CA","style":"English Style Brown Ale","year":1996,"coords":[-121.641,37.1324],"lat":37.1324,"lng":-121.641,"comp":"GABF"},{"medal":"Bronze","beer":"Golden Gate Nut Brown","brewery":"Golden Pacific Brewing Co.","city":"Berkeley","state":"CA","style":"English Syle Brown Ale","year":1996,"coords":[-122.276,37.8723],"lat":37.8723,"lng":-122.276,"comp":"GABF"},{"medal":"Gold","beer":"DeGroen's Pils","brewery":"Baltimore Brewing Co.","city":"Baltimore","state":"MD","style":"European Style Pilsener","year":1996,"coords":[-76.6144,39.3051],"lat":39.3051,"lng":-76.6144,"comp":"GABF"},{"medal":"Silver","beer":"Wild River Bohemian Pils","brewery":"Southern Oregon And Pacific","city":"Medford","state":"OR","style":"European Style Pilsener","year":1996,"coords":[-122.8537,42.3372],"lat":42.3372,"lng":-122.8537,"comp":"GABF"},{"medal":"Bronze","beer":"Pecks Pilsener","brewery":"Great Dane Pub & Brewing Co. (The)","city":"Madison","state":"WI","style":"European Style Pilsener","year":1996,"coords":[-89.3923,43.0827],"lat":43.0827,"lng":-89.3923,"comp":"GABF"},{"medal":"Gold","beer":"Belgian Red Wisconsin Cherry","brewery":"New Glarus Brewing Co.","city":"New Glarus","state":"WI","style":"Fruit Beer","year":1996,"coords":[-89.6337,42.813],"lat":42.813,"lng":-89.6337,"comp":"GABF"},{"medal":"Bronze","beer":"Wild Boar Honey Raspberry","brewery":"Wild Boar Brewing Co.","city":"Atlanta","state":"GA","style":"Fruit Beer","year":1996,"coords":[-84.4225,33.7627],"lat":33.7627,"lng":-84.4225,"comp":"GABF"},{"medal":"Silver","beer":"Cliffhanger Alt","brewery":"Copper Tank Brewing Co.","city":"Dallas","state":"TX","style":"German Style Brown \/ Dusseldorf Style Altbier","year":1996,"coords":[-96.7662,32.7936],"lat":32.7936,"lng":-96.7662,"comp":"GABF"},{"medal":"Bronze","beer":"Louisville Alt","brewery":"Bluegrass Brewing Co.","city":"Louisville","state":"KY","style":"German Style Brown \/ Dusseldorf Style Altbier","year":1996,"coords":[-85.6485,38.1663],"lat":38.1663,"lng":-85.6485,"comp":"GABF"},{"medal":"Gold","beer":"Heavenly Hefe Weizen","brewery":"Heavenly Daze Brewery & Grill","city":"Denver","state":"CO","style":"German Style Wheat Ale","year":1996,"coords":[-104.8759,39.7621],"lat":39.7621,"lng":-104.8759,"comp":"GABF"},{"medal":"Silver","beer":"Wixa Weiss","brewery":"Wynkoop Brewing Co.","city":"Denver","state":"CO","style":"German Style Wheat Ale","year":1996,"coords":[-104.8759,39.7621],"lat":39.7621,"lng":-104.8759,"comp":"GABF"},{"medal":"Bronze","beer":"Gudenteit Hefe Weizen","brewery":"Mickey Finn's Brewery","city":"Libertyville","state":"IL","style":"German Style Wheat Ale","year":1996,"coords":[-87.967,42.287],"lat":42.287,"lng":-87.967,"comp":"GABF"},{"medal":"Gold","beer":"Bacchanal Blonde","brewery":"Angelic Brewing Co.","city":"Madison","state":"WI","style":"Golden Ale \/ Canadian Style Ale","year":1996,"coords":[-89.3923,43.0827],"lat":43.0827,"lng":-89.3923,"comp":"GABF"},{"medal":"Silver","beer":"Alaskan Pale","brewery":"Alaskan Brewing and Bottling Co.","city":"Juneau","state":"AK","style":"Golden Ale \/ Canadian Style Ale","year":1996,"coords":[-134.1739,58.4546],"lat":58.4546,"lng":-134.1739,"comp":"GABF"},{"medal":"Bronze","beer":"Indpendence Gold","brewery":"Independence Brewing Co.","city":"Philadelphia","state":"PA","style":"Golden Ale \/ Canadian Style Ale","year":1996,"coords":[-75.1339,40.0077],"lat":40.0077,"lng":-75.1339,"comp":"GABF"},{"medal":"Gold","beer":"Bundaberg Ginger Beer","brewery":"Bardo Rodeo","city":"Arlington","state":"VA","style":"Herb \/ Spice Beers","year":1996,"coords":[-77.1011,38.8786],"lat":38.8786,"lng":-77.1011,"comp":"GABF"},{"medal":"Silver","beer":"Pancho Verde Chili","brewery":"Rikenjaks Brewing Co. Inc","city":"Albuquerque","state":"NM","style":"Herb \/ Spice Beers","year":1996,"coords":[-106.6464,35.1053],"lat":35.1053,"lng":-106.6464,"comp":"GABF"},{"medal":"Bronze","beer":"Belgian Wheat","brewery":"Beartooth Brewing Co.","city":"Cody","state":"WY","style":"Herb \/ Spice Beers","year":1996,"coords":[-109.055,44.5212],"lat":44.5212,"lng":-109.055,"comp":"GABF"},{"medal":"Gold","beer":"Ponderosa I.P.A.","brewery":"Prescott Brewing Co.","city":"Prescott","state":"AZ","style":"India Pale Ale","year":1996,"coords":[-112.4475,34.585],"lat":34.585,"lng":-112.4475,"comp":"GABF"},{"medal":"Silver","beer":"India Pale Ale","brewery":"Blind Pig Brewing Co.","city":"Temecula","state":"CA","style":"India Pale Ale","year":1996,"coords":[-117.1315,33.4928],"lat":33.4928,"lng":-117.1315,"comp":"GABF"},{"medal":"Bronze","beer":"India-Pendence Pale Ale","brewery":"Pacific Brewing Co.","city":"San Rafael","state":"CA","style":"India Pale Ale","year":1996,"coords":[-122.5222,37.9904],"lat":37.9904,"lng":-122.5222,"comp":"GABF"},{"medal":"Bronze","beer":"Kolsch","brewery":"Water Street Brewery","city":"Waltham","state":"MA","style":"Kolsch","year":1996,"coords":[-71.2423,42.3889],"lat":42.3889,"lng":-71.2423,"comp":"GABF"},{"medal":"Gold","beer":"Independence Franklinfest","brewery":"Independence Brewing Co.","city":"Philadelphia","state":"PA","style":"Marzen \/ Oktoberfeset","year":1996,"coords":[-75.1339,40.0077],"lat":40.0077,"lng":-75.1339,"comp":"GABF"},{"medal":"Silver","beer":"Garten Brau Octoberfest","brewery":"Capital Brewery Co. Inc","city":"Middleton","state":"WI","style":"Marzen \/ Oktoberfeset","year":1996,"coords":[-89.5058,43.1064],"lat":43.1064,"lng":-89.5058,"comp":"GABF"},{"medal":"Bronze","beer":"Dominion Octoberfest","brewery":"Old Dominion Brewing Co.","city":"Ashburn","state":"VA","style":"Marzen \/ Oktoberfeset","year":1996,"coords":[-77.4711,39.03],"lat":39.03,"lng":-77.4711,"comp":"GABF"},{"medal":"Gold","beer":"Munich Gold","brewery":"Brew Moon (No 2)","city":"Golden","state":"CO","style":"Munchener Helles And Export","year":1996,"coords":[-105.2118,39.7406],"lat":39.7406,"lng":-105.2118,"comp":"GABF"},{"medal":"Bronze","beer":"Garten Brau Lager","brewery":"Capital Brewery Co. Inc","city":"Middleton","state":"WI","style":"Munchener Helles And Export","year":1996,"coords":[-89.5058,43.1064],"lat":43.1064,"lng":-89.5058,"comp":"GABF"},{"medal":"Silver","beer":"Hubsch Lager","brewery":"Sudwerk Privatbrauerei Hubsch","city":"Davis","state":"CA","style":"Munchner Helles And Export","year":1996,"coords":[-121.7365,38.5552],"lat":38.5552,"lng":-121.7365,"comp":"GABF"},{"medal":"Gold","beer":"Kingsbury Red NA","brewery":"G. Heileman Brewing Co.","city":"San Antonio","state":"TX","style":"Non Alcoholic Malt Beverages","year":1996,"coords":[-98.5254,29.4658],"lat":29.4658,"lng":-98.5254,"comp":"GABF"},{"medal":"Silver","beer":"O'Doul's","brewery":"Anheuser-Busch, Inc","city":"Saint Louis","state":"MO","style":"Non Alcoholic Malt Beverages","year":1996,"coords":null,"lat":null,"lng":null,"comp":"GABF"},{"medal":"Gold","beer":"Makanudo Porter","brewery":"Cervecerias La Cruda","city":"San Diego","state":"CA","style":"Robust Porter","year":1996,"coords":[-117.1225,32.8312],"lat":32.8312,"lng":-117.1225,"comp":"GABF"},{"medal":"Silver","beer":"O Henry's Porter","brewery":"Waterloo Brewing Co.","city":"Austin","state":"TX","style":"Robust Porter","year":1996,"coords":[-97.7517,30.3006],"lat":30.3006,"lng":-97.7517,"comp":"GABF"},{"medal":"Bronze","beer":"Deep Enders Dark Porter","brewery":"Anderson Valley Brewing Co.","city":"Boonville","state":"CA","style":"Robust Porter","year":1996,"coords":[-123.374,39.0115],"lat":39.0115,"lng":-123.374,"comp":"GABF"},{"medal":"Gold","beer":"Scotch Ale","brewery":"Yegua Creek Brewing Co.","city":"San Antonio","state":"TX","style":"Scottish Style Ale","year":1996,"coords":[-98.5254,29.4658],"lat":29.4658,"lng":-98.5254,"comp":"GABF"},{"medal":"Silver","beer":"Laughing Lab Scottish Ale","brewery":"Bristol Brewing Co.","city":"Colorado Springs","state":"CO","style":"Scottish Style Ale","year":1996,"coords":[-104.7606,38.8674],"lat":38.8674,"lng":-104.7606,"comp":"GABF"},{"medal":"Bronze","beer":"Arapahoe Amber Ale","brewery":"Great Divide Brewing Co.","city":"Denver","state":"CO","style":"Scottish Style Ale","year":1996,"coords":[-104.8759,39.7621],"lat":39.7621,"lng":-104.8759,"comp":"GABF"},{"medal":"Gold","beer":"Smoke","brewery":"Rogue Ales","city":"Newport","state":"OR","style":"Smoke Flavored Beers","year":1996,"coords":[-124.0524,44.6231],"lat":44.6231,"lng":-124.0524,"comp":"GABF"},{"medal":"Silver","beer":"Alaskan Smoked Porter","brewery":"Alaskan Brewing and Bottling Co.","city":"Juneau","state":"AK","style":"Smoke Flavored Beers","year":1996,"coords":[-134.1739,58.4546],"lat":58.4546,"lng":-134.1739,"comp":"GABF"},{"medal":"Bronze","beer":"VBC Smoked Beer","brewery":"Virginia Beverage Co.","city":"Alexandria","state":"VA","style":"Smoke Flavored Beers","year":1996,"coords":[-77.0861,38.8185],"lat":38.8185,"lng":-77.0861,"comp":"GABF"},{"medal":"Gold","beer":"Powderfinger","brewery":"Big Time Brewing Co.","city":"Seattle","state":"WA","style":"Specialty","year":1996,"coords":[-122.3244,47.6211],"lat":47.6211,"lng":-122.3244,"comp":"GABF"},{"medal":"Silver","beer":"Naked Aspen Honey Wheat","brewery":"Aspen Beer Co.","city":"Littleton","state":"CO","style":"Specialty","year":1996,"coords":[-105.0188,39.5915],"lat":39.5915,"lng":-105.0188,"comp":"GABF"},{"medal":"Bronze","beer":"Maple Nut Brown Ale","brewery":"Tommyknocker Brewery","city":"Idaho Springs","state":"CO","style":"Specialty","year":1996,"coords":[-105.5,39.7445],"lat":39.7445,"lng":-105.5,"comp":"GABF"},{"medal":"Gold","beer":"Kinnikinich Old Scout Stout","brewery":"Twenty Tank Brewery","city":"San Francisco","state":"CA","style":"Specialty Stouts","year":1996,"coords":[-122.443,37.7562],"lat":37.7562,"lng":-122.443,"comp":"GABF"},{"medal":"Silver","beer":"Rodeo Stout","brewery":"Idle Spur","city":"Crested Butte","state":"CO","style":"Specialty Stouts","year":1996,"coords":[-106.9772,38.8676],"lat":38.8676,"lng":-106.9772,"comp":"GABF"},{"medal":"Bronze","beer":"Holy Cow! Stout","brewery":"Holy Cow!","city":"Las Vegas","state":"NV","style":"Specialty Stouts","year":1996,"coords":[-115.2654,36.2333],"lat":36.2333,"lng":-115.2654,"comp":"GABF"},{"medal":"Gold","beer":"Imperial Stout","brewery":"Valley Forge Brewing Co.","city":"Wayne","state":"PA","style":"Strong Ale","year":1996,"coords":null,"lat":null,"lng":null,"comp":"GABF"},{"medal":"Silver","beer":"Jeremiah Red","brewery":"Chicago Pizza\/BJ's Brewery","city":"Chandler","state":"AZ","style":"Strong Ale","year":1996,"coords":[-111.8517,33.2827],"lat":33.2827,"lng":-111.8517,"comp":"GABF"},{"medal":"Bronze","beer":"Auld Lang Syne Holiday Ale","brewery":"Coast Range Brewing Co.","city":"Gilroy","state":"CA","style":"Strong Ale","year":1996,"coords":[-121.5856,37.0047],"lat":37.0047,"lng":-121.5856,"comp":"GABF"},{"medal":"Gold","beer":"English Extra Special Bitter","brewery":"Blind Pig Brewing Co.","city":"Temecula","state":"CA","style":"Traditional English Style Bitter","year":1996,"coords":[-117.1315,33.4928],"lat":33.4928,"lng":-117.1315,"comp":"GABF"},{"medal":"Silver","beer":"Jackson's ESB","brewery":"Snake River Brewing Co.","city":"Jackson","state":"WY","style":"Traditional English Style Bitter","year":1996,"coords":[-110.7745,43.4721],"lat":43.4721,"lng":-110.7745,"comp":"GABF"},{"medal":"Bronze","beer":"Belk's Extra Special Bitter","brewery":"Anderson Valley Brewing Co.","city":"Boonville","state":"CA","style":"Traditional English Style Bitter","year":1996,"coords":[-123.374,39.0115],"lat":39.0115,"lng":-123.374,"comp":"GABF"}]