[{"medal":"Gold","beer":"Bachelor ESB","brewery":"Deschutes Brewery","city":"Bend","state":"OR","style":"(Extra Special) Strong Bitter","year":2001,"coords":[-121.3087,44.0562],"lat":44.0562,"lng":-121.3087,"comp":"GABF"},{"medal":"Silver","beer":"The Tower ESB","brewery":"Bull and Bush Pub and Brewery","city":"Denver","state":"CO","style":"(Extra Special) Strong Bitter","year":2001,"coords":[-104.8759,39.7621],"lat":39.7621,"lng":-104.8759,"comp":"GABF"},{"medal":"Bronze","beer":"Alaskan ESB","brewery":"Alaskan Brewing and Bottling Co.","city":"Juneau","state":"AK","style":"(Extra Special) Strong Bitter","year":2001,"coords":[-134.1739,58.4546],"lat":58.4546,"lng":-134.1739,"comp":"GABF"},{"medal":"Gold","beer":"Calico Copper Ale","brewery":"Ballast Point Brewing Co.","city":"San Diego","state":"CA","style":"American-Style Amber \/ Red Ale","year":2001,"coords":[-117.1225,32.8312],"lat":32.8312,"lng":-117.1225,"comp":"GABF"},{"medal":"Silver","beer":"Hoppus Maximus","brewery":"Thirsty Dog Grille and Brewery","city":"N. Canton","state":"OH","style":"American-Style Amber \/ Red Ale","year":2001,"coords":null,"lat":null,"lng":null,"comp":"GABF"},{"medal":"Bronze","beer":"Woody's Hophead Red","brewery":"Elk Grove Brewery and Restaurant","city":"Elk Grove","state":"CA","style":"American-Style Amber \/ Red Ale","year":2001,"coords":[-121.384,38.416],"lat":38.416,"lng":-121.384,"comp":"GABF"},{"medal":"Gold","beer":"Killians Irish Red","brewery":"Coors Brewing Co.","city":"Golden","state":"CO","style":"American-Style Amber Lager","year":2001,"coords":[-105.2118,39.7406],"lat":39.7406,"lng":-105.2118,"comp":"GABF"},{"medal":"Silver","beer":"OKT-OBER-FEST","brewery":"Big Horn Brewing Co.","city":"Dallas","state":"TX","style":"American-Style Amber Lager","year":2001,"coords":[-96.7662,32.7936],"lat":32.7936,"lng":-96.7662,"comp":"GABF"},{"medal":"Bronze","beer":"Pete's Wicked Red Rush","brewery":"Pete's Brewing Co.","city":"San Antonio","state":"TX","style":"American-Style Amber Lager","year":2001,"coords":[-98.5254,29.4658],"lat":29.4658,"lng":-98.5254,"comp":"GABF"},{"medal":"Gold","beer":"American Brown","brewery":"Hub City Brewery","city":"Lubbock","state":"TX","style":"American-Style Brown Ale","year":2001,"coords":[-101.8871,33.5642],"lat":33.5642,"lng":-101.8871,"comp":"GABF"},{"medal":"Silver","beer":"Nut Brown","brewery":"Red Rock Brewing Co.","city":"Salt Lake City","state":"UT","style":"American-Style Brown Ale","year":2001,"coords":[-111.93,40.7774],"lat":40.7774,"lng":-111.93,"comp":"GABF"},{"medal":"Bronze","beer":"Midtown Brown","brewery":"Boscos Brewing Co.","city":"Memphis","state":"TN","style":"American-Style Brown Ale","year":2001,"coords":[-89.9773,35.1046],"lat":35.1046,"lng":-89.9773,"comp":"GABF"},{"medal":"Gold","beer":"Henry Weinhard's Dark","brewery":"Blitz-Weinhard Brewing Co.","city":"Tumwater","state":"WA","style":"American-Style Dark Lager","year":2001,"coords":[-122.9173,46.989],"lat":46.989,"lng":-122.9173,"comp":"GABF"},{"medal":"Silver","beer":"Freidobrau Oktoberfest","brewery":"Big Horn Brewing Co.","city":"Dallas","state":"TX","style":"American-Style Dark Lager","year":2001,"coords":[-96.7662,32.7936],"lat":32.7936,"lng":-96.7662,"comp":"GABF"},{"medal":"Bronze","beer":"Shiner Bock","brewery":"Spoetzl Brewery (The)","city":"San Antonio","state":"TX","style":"American-Style Dark Lager","year":2001,"coords":[-98.5254,29.4658],"lat":29.4658,"lng":-98.5254,"comp":"GABF"},{"medal":"Gold","beer":"Tumbleweed IPA","brewery":"Sleeping Giant Brewing Co.","city":"Billings","state":"MT","style":"American-Style India Pale Ale","year":2001,"coords":[-108.5509,45.7889],"lat":45.7889,"lng":-108.5509,"comp":"GABF"},{"medal":"Silver","beer":"Wipeout IPA","brewery":"Pizza Port - Carlsbad","city":"Carlsbad","state":"CA","style":"American-Style India Pale Ale","year":2001,"coords":[-117.2837,33.1247],"lat":33.1247,"lng":-117.2837,"comp":"GABF"},{"medal":"Bronze","beer":"India Pelican Ale","brewery":"Pelican Pub & Brewery","city":"Pacific City","state":"OR","style":"American-Style India Pale Ale","year":2001,"coords":[-123.9536,45.2054],"lat":45.2054,"lng":-123.9536,"comp":"GABF"},{"medal":"Gold","beer":"Gold: Stag Bee","brewery":"Pearl Brewing Co.","city":"Fort Worth","state":"TX","style":"American-Style Lager","year":2001,"coords":[-97.3472,32.7812],"lat":32.7812,"lng":-97.3472,"comp":"GABF"},{"medal":"Silver","beer":"Red Dog","brewery":"Plank Road Brewery","city":"Milwaukee","state":"WI","style":"American-Style Lager","year":2001,"coords":[-87.9673,43.0642],"lat":43.0642,"lng":-87.9673,"comp":"GABF"},{"medal":"Bronze","beer":"Pearl Lager","brewery":"Pearl Brewing Co.","city":"Fort Worth","state":"TX","style":"American-Style Lager","year":2001,"coords":[-97.3472,32.7812],"lat":32.7812,"lng":-97.3472,"comp":"GABF"},{"medal":"Gold","beer":"Taps Cream Ale","brewery":"TAPS Fish House and Brewery","city":"Brea","state":"CA","style":"American-Style Lager\/Ale or Cream Ale","year":2001,"coords":[-117.8654,33.9254],"lat":33.9254,"lng":-117.8654,"comp":"GABF"},{"medal":"Silver","beer":"Holy Cow's Cream Ale","brewery":"Holy Cow!","city":"Las Vegas","state":"NV","style":"American-Style Lager\/Ale or Cream Ale","year":2001,"coords":[-115.2654,36.2333],"lat":36.2333,"lng":-115.2654,"comp":"GABF"},{"medal":"Bronze","beer":"Iowa City Light","brewery":"Fitzpatrick's","city":"Iowa City","state":"IA","style":"American-Style Lager\/Ale or Cream Ale","year":2001,"coords":[-91.5304,41.6559],"lat":41.6559,"lng":-91.5304,"comp":"GABF"},{"medal":"Gold","beer":"Schaefer Light","brewery":"Schaefer Brewing Co.","city":"Fogelsville","state":"PA","style":"American-Style Light Lager","year":2001,"coords":null,"lat":null,"lng":null,"comp":"GABF"},{"medal":"Silver","beer":"Stroh Light","brewery":"Stroh Brewery Co. (The)","city":"Fogelsville","state":"PA","style":"American-Style Light Lager","year":2001,"coords":null,"lat":null,"lng":null,"comp":"GABF"},{"medal":"Bronze","beer":"Lone Star Light","brewery":"Lone Star Brewing Co.","city":"Milwaukee","state":"WI","style":"American-Style Light Lager","year":2001,"coords":[-87.9673,43.0642],"lat":43.0642,"lng":-87.9673,"comp":"GABF"},{"medal":"Gold","beer":"SLO Brewing Co Extra Pale Ale","brewery":"SLO Brewing Co. - Paso Robles","city":"Paso Robles","state":"CA","style":"American-Style Pale Ale","year":2001,"coords":null,"lat":null,"lng":null,"comp":"GABF"},{"medal":"Silver","beer":"Emmett's Pale Ale","brewery":"Emmett's Tavern & Brewing Co.","city":"West Dundee","state":"IL","style":"American-Style Pale Ale","year":2001,"coords":[-88.3072,42.0984],"lat":42.0984,"lng":-88.3072,"comp":"GABF"},{"medal":"Bronze","beer":"Mad Hatter Ale","brewery":"New Holland Brewing Co.","city":"Holland","state":"MI","style":"American-Style Pale Ale","year":2001,"coords":[-86.0984,42.7677],"lat":42.7677,"lng":-86.0984,"comp":"GABF"},{"medal":"Gold","beer":"Empire Lager","brewery":"P.H. Woods Restaurant & Brewery","city":"Moreno Valley","state":"CA","style":"American-Style Premium Lager","year":2001,"coords":[-117.2045,33.9244],"lat":33.9244,"lng":-117.2045,"comp":"GABF"},{"medal":"Silver","beer":"Original Coors","brewery":"Coors Brewing Co.","city":"Golden","state":"CO","style":"American-Style Premium Lager","year":2001,"coords":[-105.2118,39.7406],"lat":39.7406,"lng":-105.2118,"comp":"GABF"},{"medal":"Bronze","beer":"Stroh","brewery":"Stroh Brewery Co. (The)","city":"Fogelsville","state":"PA","style":"American-Style Premium Lager","year":2001,"coords":null,"lat":null,"lng":null,"comp":"GABF"},{"medal":"Gold","beer":"New South Lager","brewery":"New South Brewing","city":"Myrtle Beach","state":"SC","style":"American-Style Specialty Lager","year":2001,"coords":[-78.8842,33.7096],"lat":33.7096,"lng":-78.8842,"comp":"GABF"},{"medal":"Silver","beer":"Old Milwaukee Ice","brewery":"Stroh Brewery Co. (The)","city":"Fogelsville","state":"PA","style":"American-Style Specialty Lager","year":2001,"coords":null,"lat":null,"lng":null,"comp":"GABF"},{"medal":"Bronze","beer":"St. Ides Malt Liquor","brewery":"St. Ides Brewing Co.","city":"Fogelsville","state":"PA","style":"American-Style Specialty Lager","year":2001,"coords":null,"lat":null,"lng":null,"comp":"GABF"},{"medal":"Gold","beer":"Grassfire Wheat","brewery":"Hook & Ladder Brewing Co.","city":"Oakland","state":"CA","style":"American-Style Wheat Ale or Lager","year":2001,"coords":[-122.2165,37.7903],"lat":37.7903,"lng":-122.2165,"comp":"GABF"},{"medal":"Silver","beer":"Shiner Winter Ale","brewery":"Spoetzl Brewery (The)","city":"San Antonio","state":"TX","style":"American-Style Wheat Ale or Lager","year":2001,"coords":[-98.5254,29.4658],"lat":29.4658,"lng":-98.5254,"comp":"GABF"},{"medal":"Bronze","beer":"Widmer Hefeweizen","brewery":"Widmer Brothers Brewing Co.","city":"Portland","state":"OR","style":"American-Style Wheat Ale or Lager","year":2001,"coords":[-122.65,45.5371],"lat":45.5371,"lng":-122.65,"comp":"GABF"},{"medal":"Gold","beer":"Lost Coast Barleywine","brewery":"Lost Coast Brewery and Caf\u00e9","city":"Eureka","state":"CA","style":"Barley Wine-Style Ale","year":2001,"coords":[-124.1568,40.7941],"lat":40.7941,"lng":-124.1568,"comp":"GABF"},{"medal":"Silver","beer":"Bombshell Barleywine","brewery":"Pizza Port - Carlsbad","city":"Carlsbad","state":"CA","style":"Barley Wine-Style Ale","year":2001,"coords":[-117.2837,33.1247],"lat":33.1247,"lng":-117.2837,"comp":"GABF"},{"medal":"Bronze","beer":"Barley Wine","brewery":"Rohrbach Brewing Co.","city":"Rochester","state":"NY","style":"Barley Wine-Style Ale","year":2001,"coords":[-77.6162,43.168],"lat":43.168,"lng":-77.6162,"comp":"GABF"},{"medal":"Gold","beer":"La Folie","brewery":"New Belgium Brewing Co.","city":"Fort Collins","state":"CO","style":"Belgian- & French-Style Specialty Ales","year":2001,"coords":[-105.0651,40.5475],"lat":40.5475,"lng":-105.0651,"comp":"GABF"},{"medal":"Silver","beer":"Liquid Sunshine","brewery":"Rock Bottom Brewery - Westminster","city":"Westminster","state":"CO","style":"Belgian- & French-Style Specialty Ales","year":2001,"coords":[-105.0624,39.8837],"lat":39.8837,"lng":-105.0624,"comp":"GABF"},{"medal":"Bronze","beer":"Artisian Saison","brewery":"Rocky River Brewing Co. - Ohio","city":"Rocky River","state":"OH","style":"Belgian- & French-Style Specialty Ales","year":2001,"coords":[-81.8526,41.4703],"lat":41.4703,"lng":-81.8526,"comp":"GABF"},{"medal":"Gold","beer":"Trippel Belgian Style Ale","brewery":"New Belgium Brewing Co.","city":"Fort Collins","state":"CO","style":"Belgian-Style Ale","year":2001,"coords":[-105.0651,40.5475],"lat":40.5475,"lng":-105.0651,"comp":"GABF"},{"medal":"Silver","beer":"Damnation","brewery":"Russian River Brewing Co.","city":"Guerneville","state":"CA","style":"Belgian-Style Ale","year":2001,"coords":[-122.9894,38.5137],"lat":38.5137,"lng":-122.9894,"comp":"GABF"},{"medal":"Bronze","beer":"Abbey Belgian Style Ale","brewery":"New Belgium Brewing Co.","city":"Fort Collins","state":"CO","style":"Belgian-Style Ale","year":2001,"coords":[-105.0651,40.5475],"lat":40.5475,"lng":-105.0651,"comp":"GABF"},{"medal":"Gold","beer":"Full Suspension Pale Ale","brewery":"Utah Brewers Cooperative","city":"Salt Lake City","state":"UT","style":"Bitter","year":2001,"coords":[-111.93,40.7774],"lat":40.7774,"lng":-111.93,"comp":"GABF"},{"medal":"Silver","beer":"Dostal's Best Bitter","brewery":"Dostal Alley BrewPub & Casino","city":"Central City","state":"CO","style":"Bitter","year":2001,"coords":[-105.5151,39.7963],"lat":39.7963,"lng":-105.5151,"comp":"GABF"},{"medal":"Bronze","beer":"Cascade Ale","brewery":"Deschutes Brewery","city":"Bend","state":"OR","style":"Bitter","year":2001,"coords":[-121.3087,44.0562],"lat":44.0562,"lng":-121.3087,"comp":"GABF"},{"medal":"Gold","beer":"Dunkles Bock","brewery":"Boundary Bay Brewery","city":"Bellingham","state":"WA","style":"Bock","year":2001,"coords":[-122.4687,48.7543],"lat":48.7543,"lng":-122.4687,"comp":"GABF"},{"medal":"Silver","beer":"Hell's Bock","brewery":"Big Horn Brewing Co.","city":"Denver","state":"CO","style":"Bock","year":2001,"coords":[-104.8759,39.7621],"lat":39.7621,"lng":-104.8759,"comp":"GABF"},{"medal":"Bronze","beer":"Mad Brewer Maibock","brewery":"Church Brew Works","city":"Pittsburgh","state":"PA","style":"Bock","year":2001,"coords":[-79.9763,40.4396],"lat":40.4396,"lng":-79.9763,"comp":"GABF"},{"medal":"Gold","beer":"Cleveland Chophouse Bohemian Pilsner","brewery":"ChopHouse and Brewery-Cleveland","city":"Cleveland","state":"OH","style":"Bohemian Style Pilsener","year":2001,"coords":[-81.6805,41.4767],"lat":41.4767,"lng":-81.6805,"comp":"GABF"},{"medal":"Silver","beer":"Pillage Pilsner","brewery":"Valhalla Microbrewery & Restaurant","city":"Pittsburgh","state":"PA","style":"Bohemian Style Pilsener","year":2001,"coords":[-79.9763,40.4396],"lat":40.4396,"lng":-79.9763,"comp":"GABF"},{"medal":"Bronze","beer":"Czech Mate Pils","brewery":"Brew Moon Restaurant & Microbrewery","city":"Brookline","state":"MA","style":"Bohemian Style Pilsener","year":2001,"coords":null,"lat":null,"lng":null,"comp":"GABF"},{"medal":"Gold","beer":"MacTarnahan's Black Watch Cream Porter","brewery":"Portland Brewing Co.","city":"Portland","state":"OR","style":"Brown Porter","year":2001,"coords":[-122.65,45.5371],"lat":45.5371,"lng":-122.65,"comp":"GABF"},{"medal":"Silver","beer":"Molly's Titanic Brown Ale","brewery":"Rock Bottom Brewery - South Denver","city":"Denver","state":"CO","style":"Brown Porter","year":2001,"coords":[-104.8759,39.7621],"lat":39.7621,"lng":-104.8759,"comp":"GABF"},{"medal":"Bronze","beer":"Paradise Lost Porter","brewery":"Angelic Brewing Co.","city":"Madison","state":"WI","style":"Brown Porter","year":2001,"coords":[-89.3923,43.0827],"lat":43.0827,"lng":-89.3923,"comp":"GABF"},{"medal":"Gold","beer":"Darth Delirium","brewery":"Moose's Tooth Brewing Co.","city":"Anchorage","state":"AK","style":"Chocolate \/ Cocoa Flavored Beer","year":2001,"coords":[-149.1091,61.1508],"lat":61.1508,"lng":-149.1091,"comp":"GABF"},{"medal":"Silver","beer":"Chocolate Stout","brewery":"Rogue Ales","city":"Newport","state":"OR","style":"Chocolate \/ Cocoa Flavored Beer","year":2001,"coords":[-124.0524,44.6231],"lat":44.6231,"lng":-124.0524,"comp":"GABF"},{"medal":"Bronze","beer":"Oompa Loompa","brewery":"Rocky River Brewing Co. - Ohio","city":"Rocky River","state":"OH","style":"Chocolate \/ Cocoa Flavored Beer","year":2001,"coords":[-81.8526,41.4703],"lat":41.4703,"lng":-81.8526,"comp":"GABF"},{"medal":"Gold","beer":"Custer's Last Ale","brewery":"Snake River Brewing Co.","city":"Jackson","state":"WY","style":"Classic English Style Pale Ale","year":2001,"coords":[-110.7745,43.4721],"lat":43.4721,"lng":-110.7745,"comp":"GABF"},{"medal":"Silver","beer":"Breckenridge Pale Ale","brewery":"Breckenridge Brewery","city":"Denver","state":"CO","style":"Classic English Style Pale Ale","year":2001,"coords":[-104.8759,39.7621],"lat":39.7621,"lng":-104.8759,"comp":"GABF"},{"medal":"Bronze","beer":"Annadel Pale Ale","brewery":"Third Street AleWorks","city":"Santa Rosa","state":"CA","style":"Classic English Style Pale Ale","year":2001,"coords":[-122.7067,38.4458],"lat":38.4458,"lng":-122.7067,"comp":"GABF"},{"medal":"Gold","beer":"Lord Stanley","brewery":"Steelhead Brewing Co.","city":"Irvine","state":"CA","style":"Classic Irish-Style Dry Stout","year":2001,"coords":[-117.7738,33.6772],"lat":33.6772,"lng":-117.7738,"comp":"GABF"},{"medal":"Silver","beer":"Celtic Stout","brewery":"Fitzpatrick's","city":"Iowa City","state":"IA","style":"Classic Irish-Style Dry Stout","year":2001,"coords":[-91.5304,41.6559],"lat":41.6559,"lng":-91.5304,"comp":"GABF"},{"medal":"Bronze","beer":"Dark Starr Stout","brewery":"Starr Hill Brewing Co.","city":"Charlottesville","state":"VA","style":"Classic Irish-Style Dry Stout","year":2001,"coords":[-78.4855,38.0375],"lat":38.0375,"lng":-78.4855,"comp":"GABF"},{"medal":"Gold","beer":"Sweet Georgia Brown","brewery":"Sweetwater Brewing Co.","city":"Atlanta","state":"GA","style":"English-Style Brown Ale","year":2001,"coords":[-84.4225,33.7627],"lat":33.7627,"lng":-84.4225,"comp":"GABF"},{"medal":"Silver","beer":"Nut Brown Ale","brewery":"Blackstone Restaurant & Brewery","city":"Nashville","state":"TN","style":"English-Style Brown Ale","year":2001,"coords":[-86.7843,36.1715],"lat":36.1715,"lng":-86.7843,"comp":"GABF"},{"medal":"Bronze","beer":"Thunderbolt Brown","brewery":"Pony Express Brewing Co.","city":"Olathe","state":"KS","style":"English-Style Brown Ale","year":2001,"coords":[-94.8198,38.8832],"lat":38.8832,"lng":-94.8198,"comp":"GABF"},{"medal":"Gold","beer":"SLO Progress","brewery":"SLO Brewing Co. - San Luis Obispo","city":"San Luis Obispo","state":"CA","style":"English-Style India Pale Ale","year":2001,"coords":[-120.6689,35.267],"lat":35.267,"lng":-120.6689,"comp":"GABF"},{"medal":"Silver","beer":"Hoppyhour IPA","brewery":"Mash House Restaurant & Brewing Co. (The)","city":"Fayetteville","state":"NC","style":"English-Style India Pale Ale","year":2001,"coords":[-78.9776,35.0846],"lat":35.0846,"lng":-78.9776,"comp":"GABF"},{"medal":"Bronze","beer":"India Pale Ale","brewery":"Goose Island Beer Co.","city":"Chicago","state":"IL","style":"English-Style India Pale Ale","year":2001,"coords":[-87.6862,41.8373],"lat":41.8373,"lng":-87.6862,"comp":"GABF"},{"medal":"Gold","beer":"Damsel in Distress Dunkel","brewery":"Mammoth Brewing","city":"Mammoth Lakes","state":"CA","style":"European-Style Dark \/ Munchner Dunkel","year":2001,"coords":[-118.99,37.6273],"lat":37.6273,"lng":-118.99,"comp":"GABF"},{"medal":"Silver","beer":"Dunkles","brewery":"Powerhouse Restaurant & Brewery","city":"Sebastopol","state":"CA","style":"European-Style Dark \/ Munchner Dunkel","year":2001,"coords":[-122.8277,38.4],"lat":38.4,"lng":-122.8277,"comp":"GABF"},{"medal":"Bronze","beer":"Pious Monk Dunkel","brewery":"Church Brew Works","city":"Pittsburgh","state":"PA","style":"European-Style Dark \/ Munchner Dunkel","year":2001,"coords":[-79.9763,40.4396],"lat":40.4396,"lng":-79.9763,"comp":"GABF"},{"medal":"Gold","beer":"Michelob","brewery":"Anheuser-Busch, Inc","city":"Saint Louis","state":"MO","style":"European-Style Pilsener","year":2001,"coords":[-90.2451,38.6358],"lat":38.6358,"lng":-90.2451,"comp":"GABF"},{"medal":"Silver","beer":"Import\/Export Buis","brewery":"Brewzzi","city":"Boca Raton","state":"FL","style":"European-Style Pilsener","year":2001,"coords":[-80.1077,26.3749],"lat":26.3749,"lng":-80.1077,"comp":"GABF"},{"medal":"Bronze","beer":"Pinch Hit Pilsner","brewery":"Sandlot Brewery at Coors Field","city":"Denver","state":"CO","style":"European-Style Pilsener","year":2001,"coords":[-104.8759,39.7621],"lat":39.7621,"lng":-104.8759,"comp":"GABF"},{"medal":"Gold","beer":"Czar Jack Bourbon Barrel Imperial Stout","brewery":"Minneapolis Town Hall Brewery","city":"Minneapolis","state":"MN","style":"Experimental Beer","year":2001,"coords":[-93.2678,44.9635],"lat":44.9635,"lng":-93.2678,"comp":"GABF"},{"medal":"Silver","beer":"Cuvee de Tomme","brewery":"Pizza Port - Solana Beach","city":"Solana Beach","state":"CA","style":"Experimental Beer","year":2001,"coords":[-117.2575,32.9942],"lat":32.9942,"lng":-117.2575,"comp":"GABF"},{"medal":"Bronze","beer":"Special Brew Lemon Lime","brewery":"St. Ides Brewing Co.","city":"Milwaukee","state":"WI","style":"Experimental Beer","year":2001,"coords":[-87.9673,43.0642],"lat":43.0642,"lng":-87.9673,"comp":"GABF"},{"medal":"Gold","beer":"Sofa King Stout","brewery":"West Bros Brewery","city":"Eugene","state":"OR","style":"Foreign Style Stout","year":2001,"coords":[-123.1173,44.0563],"lat":44.0563,"lng":-123.1173,"comp":"GABF"},{"medal":"Silver","beer":"Irish Stout","brewery":"Bellows Brew Crew (The)","city":"Watertown","state":"WI","style":"Foreign Style Stout","year":2001,"coords":[-88.7285,43.1893],"lat":43.1893,"lng":-88.7285,"comp":"GABF"},{"medal":"Bronze","beer":"Space Stout","brewery":"Laurelwood Public House & Brewery","city":"Portland","state":"OR","style":"Foreign Style Stout","year":2001,"coords":[-122.65,45.5371],"lat":45.5371,"lng":-122.65,"comp":"GABF"},{"medal":"Gold","beer":"Raspberry Tart","brewery":"New Glarus Brewing Co.","city":"New Glarus","state":"WI","style":"Fruit Beer","year":2001,"coords":[-89.6337,42.813],"lat":42.813,"lng":-89.6337,"comp":"GABF"},{"medal":"Silver","beer":"Belgian Style Red","brewery":"New Glarus Brewing Co.","city":"New Glarus","state":"WI","style":"Fruit Beer","year":2001,"coords":[-89.6337,42.813],"lat":42.813,"lng":-89.6337,"comp":"GABF"},{"medal":"Bronze","beer":"Railway Razz","brewery":"Willoughby Brewing Co. (The)","city":"Willoughby","state":"OH","style":"Fruit Beer","year":2001,"coords":[-81.4084,41.646],"lat":41.646,"lng":-81.4084,"comp":"GABF"},{"medal":"Gold","beer":"Boca Alt","brewery":"Brewzzi","city":"Boca Raton","state":"FL","style":"German-Style Brown Ale \/ Dusseldorf-Style Altbier","year":2001,"coords":[-80.1077,26.3749],"lat":26.3749,"lng":-80.1077,"comp":"GABF"},{"medal":"Silver","beer":"Otis Alt","brewery":"Elk Grove Brewery and Restaurant","city":"Elk Grove","state":"CA","style":"German-Style Brown Ale \/ Dusseldorf-Style Altbier","year":2001,"coords":[-121.384,38.416],"lat":38.416,"lng":-121.384,"comp":"GABF"},{"medal":"Bronze","beer":"Dusseldorf Altbier","brewery":"Gilded Otter Brewing Co.","city":"New Paltz","state":"NY","style":"German-Style Brown Ale \/ Dusseldorf-Style Altbier","year":2001,"coords":[-74.0809,41.7495],"lat":41.7495,"lng":-74.0809,"comp":"GABF"},{"medal":"Gold","beer":"Scapegoat Doppelbock","brewery":"Mickey Finn's Brewery","city":"Libertyville","state":"IL","style":"German-Style Doppelbock","year":2001,"coords":[-87.967,42.287],"lat":42.287,"lng":-87.967,"comp":"GABF"},{"medal":"Silver","beer":"Liberator Doppelbock","brewery":"Angelic Brewing Co.","city":"Madison","state":"WI","style":"German-Style Doppelbock","year":2001,"coords":[-89.3923,43.0827],"lat":43.0827,"lng":-89.3923,"comp":"GABF"},{"medal":"Bronze","beer":"Bell's Consecrator Dopplebock","brewery":"Kalamazoo Brewing","city":"Kalamazoo","state":"MI","style":"German-Style Doppelbock","year":2001,"coords":[-85.5882,42.2749],"lat":42.2749,"lng":-85.5882,"comp":"GABF"},{"medal":"Gold","beer":"Pete's Wicked Helles Lager","brewery":"Pete's Brewing Co.","city":"San Antonio","state":"TX","style":"German-Style Kolsch \/ Koln-Style Kolsch","year":2001,"coords":[-98.5254,29.4658],"lat":29.4658,"lng":-98.5254,"comp":"GABF"},{"medal":"Silver","beer":"Capitol Kolsch","brewery":"Capitol City Brewing Co.","city":"Arlington","state":"VA","style":"German-Style Kolsch \/ Koln-Style Kolsch","year":2001,"coords":[-77.1011,38.8786],"lat":38.8786,"lng":-77.1011,"comp":"GABF"},{"medal":"Bronze","beer":"Skinny Atlas Light","brewery":"Empire Brewing Co.","city":"Rochester","state":"NY","style":"German-Style Kolsch \/ Koln-Style Kolsch","year":2001,"coords":[-77.6162,43.168],"lat":43.168,"lng":-77.6162,"comp":"GABF"},{"medal":"Gold","beer":"Uncle Otto's Oktoberfest","brewery":"Portland Brewing Co.","city":"Portland","state":"OR","style":"German-Style Maerzen \/ Oktoberfest","year":2001,"coords":[-122.65,45.5371],"lat":45.5371,"lng":-122.65,"comp":"GABF"},{"medal":"Silver","beer":"Mueller Marzen","brewery":"Springfield Brewing Co.","city":"Springfield","state":"MO","style":"German-Style Maerzen \/ Oktoberfest","year":2001,"coords":[-93.2915,37.1943],"lat":37.1943,"lng":-93.2915,"comp":"GABF"},{"medal":"Bronze","beer":"Tabernash Oktoberfest","brewery":"Tabernash Brewing Co.","city":"Longmont","state":"CO","style":"German-Style Maerzen \/ Oktoberfest","year":2001,"coords":[-105.0996,40.169],"lat":40.169,"lng":-105.0996,"comp":"GABF"},{"medal":"Gold","beer":"Tuppers' Hop Pocket Pils","brewery":"Old Dominion Brewing Co.","city":"Ashburn","state":"VA","style":"German-Style Pilsener","year":2001,"coords":[-77.4711,39.03],"lat":39.03,"lng":-77.4711,"comp":"GABF"},{"medal":"Silver","beer":"Hanalei Lager","brewery":"Honolulu Brewing Co.","city":"Honolulu","state":"HI","style":"German-Style Pilsener","year":2001,"coords":[-157.846,21.3294],"lat":21.3294,"lng":-157.846,"comp":"GABF"},{"medal":"Bronze","beer":"Blue Paddle Pilsner","brewery":"New Belgium Brewing Co.","city":"Fort Collins","state":"CO","style":"German-Style Pilsener","year":2001,"coords":[-105.0651,40.5475],"lat":40.5475,"lng":-105.0651,"comp":"GABF"},{"medal":"Gold","beer":"Black Forest Schwarzbier","brewery":"Squatters Pub Brewery","city":"Salt Lake City","state":"UT","style":"German-Style Schwarzbier","year":2001,"coords":[-111.93,40.7774],"lat":40.7774,"lng":-111.93,"comp":"GABF"},{"medal":"Silver","beer":"Springfield Schwarz Beer","brewery":"John Harvard\u2019s Brew House","city":"Wayne","state":"PA","style":"German-Style Schwarzbier","year":2001,"coords":null,"lat":null,"lng":null,"comp":"GABF"},{"medal":"Bronze","beer":"King's Peak","brewery":"Uinta Brewing Co.","city":"Salt Lake City","state":"UT","style":"German-Style Schwarzbier","year":2001,"coords":[-111.93,40.7774],"lat":40.7774,"lng":-111.93,"comp":"GABF"},{"medal":"Gold","beer":"Gudenteit Hefe-Weizen","brewery":"Mickey Finn's Brewery","city":"Libertyville","state":"IL","style":"German-Style Wheat Ale","year":2001,"coords":[-87.967,42.287],"lat":42.287,"lng":-87.967,"comp":"GABF"},{"medal":"Silver","beer":"Glockenspiel Weizenbock","brewery":"Great Lakes Brewing Co\/Ohio","city":"Cleveland","state":"OH","style":"German-Style Wheat Ale","year":2001,"coords":[-81.6805,41.4767],"lat":41.4767,"lng":-81.6805,"comp":"GABF"},{"medal":"Bronze","beer":"Heidelberg Hefeweizen","brewery":"Rocky River Brewing Co. - Tennessee","city":"Sevierville","state":"TN","style":"German-Style Wheat Ale","year":2001,"coords":[-83.5678,35.8873],"lat":35.8873,"lng":-83.5678,"comp":"GABF"},{"medal":"Gold","beer":"Golden Wheat Ale","brewery":"Russian River Brewing Co.","city":"Guerneville","state":"CA","style":"Golden or Blonde Ale","year":2001,"coords":[-122.9894,38.5137],"lat":38.5137,"lng":-122.9894,"comp":"GABF"},{"medal":"Silver","beer":"Old Faithful Ale","brewery":"Grand Teton Brewing Co.","city":"Victor","state":"ID","style":"Golden or Blonde Ale","year":2001,"coords":[-111.1107,43.6014],"lat":43.6014,"lng":-111.1107,"comp":"GABF"},{"medal":"Bronze","beer":"Kiwanda Cream Ale","brewery":"Pelican Pub & Brewery","city":"Pacific City","state":"OR","style":"Golden or Blonde Ale","year":2001,"coords":[-123.9536,45.2054],"lat":45.2054,"lng":-123.9536,"comp":"GABF"},{"medal":"Gold","beer":"Orange Infusion","brewery":"Elliott Bay Brewery Pub","city":"Seattle","state":"WA","style":"Herb and Spice Beer","year":2001,"coords":[-122.3244,47.6211],"lat":47.6211,"lng":-122.3244,"comp":"GABF"},{"medal":"Silver","beer":"Holiday Spiced Ale","brewery":"21st Amendment Brewery Caf\u00e9","city":"San Francisco","state":"CA","style":"Herb and Spice Beer","year":2001,"coords":[-122.443,37.7562],"lat":37.7562,"lng":-122.443,"comp":"GABF"},{"medal":"Bronze","beer":"Cambridge Espresso Stout","brewery":"John Harvard\u2019s Brew House","city":"Braintree","state":"MA","style":"Herb and Spice Beer","year":2001,"coords":null,"lat":null,"lng":null,"comp":"GABF"},{"medal":"Gold","beer":"Raven Maniac Stout","brewery":"Prescott Brewing Co.","city":"Prescott","state":"AZ","style":"Imperial Stout","year":2001,"coords":[-112.4475,34.585],"lat":34.585,"lng":-112.4475,"comp":"GABF"},{"medal":"Silver","beer":"High Desert Imperial Stout","brewery":"Sweetwater Tavern & Brewery","city":"Centreville","state":"VA","style":"Imperial Stout","year":2001,"coords":[-77.4388,38.8391],"lat":38.8391,"lng":-77.4388,"comp":"GABF"},{"medal":"Bronze","beer":"Old Rasputin","brewery":"North Coast Brewing Co. Inc","city":"Ft. Bragg","state":"CA","style":"Imperial Stout","year":2001,"coords":[-123.8013,39.44],"lat":39.44,"lng":-123.8013,"comp":"GABF"},{"medal":"Gold","beer":"3A - Abigail Adams Amber","brewery":"Quincy Ships Brewing Co.","city":"Quincy","state":"MA","style":"Irish-Style Red Ale","year":2001,"coords":[-71.0183,42.2516],"lat":42.2516,"lng":-71.0183,"comp":"GABF"},{"medal":"Silver","beer":"Thoroughbred Red","brewery":"Aiken Brewing Co.","city":"Aiken","state":"SC","style":"Irish-Style Red Ale","year":2001,"coords":[-81.727,33.5304],"lat":33.5304,"lng":-81.727,"comp":"GABF"},{"medal":"Bronze","beer":"Starr Hill Amber Ale","brewery":"Starr Hill Brewing Co.","city":"Charlottesville","state":"VA","style":"Irish-Style Red Ale","year":2001,"coords":[-78.4855,38.0375],"lat":38.0375,"lng":-78.4855,"comp":"GABF"},{"medal":"Gold","beer":"Penn Gold","brewery":"Pennsylvania Brewing Co.","city":"Pittsburgh","state":"PA","style":"Munchner-Style Helles","year":2001,"coords":[-79.9763,40.4396],"lat":40.4396,"lng":-79.9763,"comp":"GABF"},{"medal":"Silver","beer":"Lucknow Munich-Style Lager","brewery":"Castle Springs Brewing Co.","city":"Moultonborough","state":"NH","style":"Munchner-Style Helles","year":2001,"coords":null,"lat":null,"lng":null,"comp":"GABF"},{"medal":"Bronze","beer":"Ghost Pony Helles","brewery":"Trap Rock Restaurant and Brewery","city":"Berekely Heights","state":"NJ","style":"Munchner-Style Helles","year":2001,"coords":null,"lat":null,"lng":null,"comp":"GABF"},{"medal":"Gold","beer":"O'Doul's Amber","brewery":"Anheuser-Busch, Inc","city":"Saint Louis","state":"MO","style":"Non-Alcoholic (Beer) Malt Beverage","year":2001,"coords":[-90.2451,38.6358],"lat":38.6358,"lng":-90.2451,"comp":"GABF"},{"medal":"Silver","beer":"Kingsbury NA","brewery":"Rainier Brewing Co. Inc","city":"Tumwater","state":"WA","style":"Non-Alcoholic (Beer) Malt Beverage","year":2001,"coords":[-122.9173,46.989],"lat":46.989,"lng":-122.9173,"comp":"GABF"},{"medal":"Bronze","beer":"Pigs Eye NA","brewery":"Minnesota Brewing","city":"Saint Paul","state":"MN","style":"Non-Alcoholic (Beer) Malt Beverage","year":2001,"coords":null,"lat":null,"lng":null,"comp":"GABF"},{"medal":"Gold","beer":"Lasto's Oatmeal Stout","brewery":"BJ's Grill & Brewery","city":"Portland","state":"OR","style":"Oatmeal Stout","year":2001,"coords":[-122.65,45.5371],"lat":45.5371,"lng":-122.65,"comp":"GABF"},{"medal":"Silver","beer":"Oatmeal Stout","brewery":"SLO Brewing Co. - San Luis Obispo","city":"San Luis Obispo","state":"CA","style":"Oatmeal Stout","year":2001,"coords":[-120.6689,35.267],"lat":35.267,"lng":-120.6689,"comp":"GABF"},{"medal":"Gold","beer":"Southampton Old Ale","brewery":"Southampton Publick House","city":"Southampton","state":"NY","style":"Old Ale\/Strong Ale","year":2001,"coords":[-72.4004,40.8778],"lat":40.8778,"lng":-72.4004,"comp":"GABF"},{"medal":"Silver","beer":"Old Stock Ale","brewery":"North Coast Brewing Co. Inc","city":"Ft. Bragg","state":"CA","style":"Old Ale\/Strong Ale","year":2001,"coords":[-123.8013,39.44],"lat":39.44,"lng":-123.8013,"comp":"GABF"},{"medal":"Bronze","beer":"Wee Huey's Heavy","brewery":"Big Horn Brewing Co.","city":"Tacoma","state":"WA","style":"Old Ale\/Strong Ale","year":2001,"coords":[-122.4531,47.2431],"lat":47.2431,"lng":-122.4531,"comp":"GABF"},{"medal":"Gold","beer":"Hopasaurus Rex Imperial IPA","brewery":"Steelhead Brewing Co. - Eugene","city":"Eugene","state":"OR","style":"Other Strong Ale or Lager","year":2001,"coords":[-123.1173,44.0563],"lat":44.0563,"lng":-123.1173,"comp":"GABF"},{"medal":"Silver","beer":"Hearthside Wheatwine","brewery":"Steelhead Brewing Co. - Eugene","city":"Eugene","state":"OR","style":"Other Strong Ale or Lager","year":2001,"coords":[-123.1173,44.0563],"lat":44.0563,"lng":-123.1173,"comp":"GABF"},{"medal":"Bronze","beer":"Cardiff","brewery":"Glenwood Canyon Brewing Co.","city":"Glenwood Springs","state":"CO","style":"Other Strong Ale or Lager","year":2001,"coords":[-107.3347,39.5455],"lat":39.5455,"lng":-107.3347,"comp":"GABF"},{"medal":"Gold","beer":"Robust Porter","brewery":"Smuttynose Brewing Co.","city":"Portsmouth","state":"NH","style":"Robust Porter","year":2001,"coords":[-70.7826,43.058],"lat":43.058,"lng":-70.7826,"comp":"GABF"},{"medal":"Silver","beer":"Total Eclipse Black Ale","brewery":"Hoppy Brewing Co.","city":"Sacramento","state":"CA","style":"Robust Porter","year":2001,"coords":[-121.4683,38.5667],"lat":38.5667,"lng":-121.4683,"comp":"GABF"},{"medal":"Bronze","beer":"Mocha Porter","brewery":"Rogue Ales","city":"Newport","state":"OR","style":"Robust Porter","year":2001,"coords":[-124.0524,44.6231],"lat":44.6231,"lng":-124.0524,"comp":"GABF"},{"medal":"Gold","beer":"Road Rage Rye","brewery":"Desert Edge Brewery","city":"Salt Lake City","state":"UT","style":"Rye Beer","year":2001,"coords":[-111.93,40.7774],"lat":40.7774,"lng":-111.93,"comp":"GABF"},{"medal":"Silver","beer":"Chazz Cat Rye","brewery":"Mountain Sun Pub and Brewery","city":"Boulder","state":"CO","style":"Rye Beer","year":2001,"coords":[-105.2523,40.0249],"lat":40.0249,"lng":-105.2523,"comp":"GABF"},{"medal":"Bronze","beer":"Catcher in the Rye","brewery":"Rock Bottom Brewery - South Denver","city":"Englewood","state":"CO","style":"Rye Beer","year":2001,"coords":[-104.9942,39.6468],"lat":39.6468,"lng":-104.9942,"comp":"GABF"},{"medal":"Gold","beer":"Caber Tossing Scottish Ale","brewery":"Fox River Brewing Co.\/Fratellos","city":"Oshkosh","state":"WI","style":"Scottish-Style Ale","year":2001,"coords":[-88.5617,44.0228],"lat":44.0228,"lng":-88.5617,"comp":"GABF"},{"medal":"Silver","beer":"Laughing Lab Scottish Ale","brewery":"Bristol Brewing Co.","city":"Colorado Springs","state":"CO","style":"Scottish-Style Ale","year":2001,"coords":[-104.7606,38.8674],"lat":38.8674,"lng":-104.7606,"comp":"GABF"},{"medal":"Bronze","beer":"Saint Arnold Oktoberfest","brewery":"Saint Arnold Brewing Co.","city":"Houston","state":"TX","style":"Scottish-Style Ale","year":2001,"coords":[-95.3905,29.7869],"lat":29.7869,"lng":-95.3905,"comp":"GABF"},{"medal":"Silver","beer":"Smokey the Beer","brewery":"Blind Tiger Brewery & Restaurant","city":"Topeka","state":"KS","style":"Smoke-Flavored Beer","year":2001,"coords":[-95.6955,39.0346],"lat":39.0346,"lng":-95.6955,"comp":"GABF"},{"medal":"Bronze","beer":"Stewart's Smoked Porter","brewery":"Stewart's Brewing Co.","city":"Bear","state":"DE","style":"Smoke-Flavored Beer","year":2001,"coords":[-75.6804,39.6188],"lat":39.6188,"lng":-75.6804,"comp":"GABF"},{"medal":"Gold","beer":"Big Bad Bourbon Brown","brewery":"Big Horn Brewing Co.","city":"Dallas","state":"TX","style":"Specialty Beer","year":2001,"coords":[-96.7662,32.7936],"lat":32.7936,"lng":-96.7662,"comp":"GABF"},{"medal":"Silver","beer":"Pullman Brown Ale","brewery":"Flossmoor Station Brewing Co.","city":"Flossmoor","state":"IL","style":"Specialty Beer","year":2001,"coords":[-87.6857,41.5391],"lat":41.5391,"lng":-87.6857,"comp":"GABF"},{"medal":"Bronze","beer":"Ginger Shandy","brewery":"McCoys Public House & BrewKitchen","city":"Kansas City","state":"MO","style":"Specialty Beer","year":2001,"coords":[-94.5541,39.1239],"lat":39.1239,"lng":-94.5541,"comp":"GABF"},{"medal":"Gold","beer":"Countdown Honey Brown","brewery":"Thunder Canyon Brewery","city":"Tucson","state":"AZ","style":"Specialty Honey Beer","year":2001,"coords":[-110.8782,32.1545],"lat":32.1545,"lng":-110.8782,"comp":"GABF"},{"medal":"Silver","beer":"Jarre Creek Ranch Brewery Honey Brown Ale","brewery":"Jarre Creek Ranch Brewery","city":"Castle Rock","state":"CO","style":"Specialty Honey Beer","year":2001,"coords":[-104.8535,39.3762],"lat":39.3762,"lng":-104.8535,"comp":"GABF"},{"medal":"Bronze","beer":"Honey Rye Dopplebock","brewery":"Flossmoor Station Brewing Co.","city":"Flossmoor","state":"IL","style":"Specialty Honey Beer","year":2001,"coords":[-87.6857,41.5391],"lat":41.5391,"lng":-87.6857,"comp":"GABF"},{"medal":"Silver","beer":"Wee Heavy Ale","brewery":"Capitol City Brewing Co.","city":"Arlington","state":"VA","style":"Strong Scotch Ale","year":2001,"coords":[-77.1011,38.8786],"lat":38.8786,"lng":-77.1011,"comp":"GABF"},{"medal":"Bronze","beer":"Wee Heavy","brewery":"Iron Hill Brewery & Restaurant - Media","city":"Media","state":"PA","style":"Strong Scotch Ale","year":2001,"coords":[-75.3888,39.9198],"lat":39.9198,"lng":-75.3888,"comp":"GABF"},{"medal":"Gold","beer":"Sweetness Stout","brewery":"Americas Brewing Co\/Walter Paytons Roundhouse","city":"Aurora","state":"IL","style":"Sweet Stout","year":2001,"coords":[-88.2901,41.7637],"lat":41.7637,"lng":-88.2901,"comp":"GABF"},{"medal":"Silver","beer":"Chocolate Stout","brewery":"H.C. Berger Brewing","city":"Fort Collins","state":"CO","style":"Sweet Stout","year":2001,"coords":[-105.0651,40.5475],"lat":40.5475,"lng":-105.0651,"comp":"GABF"},{"medal":"Bronze","beer":"Chelsea Cream Stout","brewery":"Chelsea Brewing Co.","city":"New York","state":"NY","style":"Sweet Stout","year":2001,"coords":[-73.9249,40.6943],"lat":40.6943,"lng":-73.9249,"comp":"GABF"},{"medal":"Gold","beer":"Snake River Lager","brewery":"Snake River Brewing Co.","city":"Jackson","state":"WY","style":"Vienna-Style Lager","year":2001,"coords":[-110.7745,43.4721],"lat":43.4721,"lng":-110.7745,"comp":"GABF"},{"medal":"Silver","beer":"Dam Straight Lager","brewery":"Dillon Dam Brewery","city":"Dillon","state":"CO","style":"Vienna-Style Lager","year":2001,"coords":[-106.0386,39.621],"lat":39.621,"lng":-106.0386,"comp":"GABF"},{"medal":"Bronze","beer":"Sunset Amber","brewery":"Coast Brewing Co.","city":"Biloxi","state":"MS","style":"Vienna-Style Lager","year":2001,"coords":[-88.9512,30.4422],"lat":30.4422,"lng":-88.9512,"comp":"GABF"}]