[{"medal":"Gold","beer":"Alaskan Smoked Porter 2006","brewery":"Alaskan Brewing Co.","city":"Juneau","state":"AK","style":"Aged Beer","year":2008,"coords":[-134.1739,58.4546],"lat":58.4546,"lng":-134.1739,"comp":"GABF"},{"medal":"Silver","beer":"Vintage Speedway Stout","brewery":"AleSmith Brewing Co.","city":"San Diego","state":"CA","style":"Aged Beer","year":2008,"coords":[-117.1225,32.8312],"lat":32.8312,"lng":-117.1225,"comp":"GABF"},{"medal":"Bronze","beer":"Samuel Adams Utopias 2003","brewery":"Boston Beer Co.","city":"Boston","state":"MA","style":"Aged Beer","year":2008,"coords":[-71.0846,42.3188],"lat":42.3188,"lng":-71.0846,"comp":"GABF"},{"medal":"Gold","beer":"Coors Light","brewery":"MillerCoors","city":"Milwaukee","state":"WI","style":"America-Style Light Lager","year":2008,"coords":[-87.9673,43.0642],"lat":43.0642,"lng":-87.9673,"comp":"GABF"},{"medal":"Silver","beer":"Old Milwaukee Light","brewery":"Pabst Brewing Co.","city":"Woodridge","state":"IL","style":"America-Style Light Lager","year":2008,"coords":[-88.0408,41.7368],"lat":41.7368,"lng":-88.0408,"comp":"GABF"},{"medal":"Bronze","beer":"Keystone Light","brewery":"MillerCoors","city":"Milwaukee","state":"WI","style":"America-Style Light Lager","year":2008,"coords":[-87.9673,43.0642],"lat":43.0642,"lng":-87.9673,"comp":"GABF"},{"medal":"Gold","beer":"Xtra Gold","brewery":"Captain Lawrence Brewing Co.","city":"Pleasantville","state":"NY","style":"American-Belgo Style Ale","year":2008,"coords":[-73.7827,41.1378],"lat":41.1378,"lng":-73.7827,"comp":"GABF"},{"medal":"Silver","beer":"Brush Fire Ale","brewery":"Pump House Restaurant & Brewery","city":"Longmont","state":"CO","style":"American-Belgo Style Ale","year":2008,"coords":[-105.0996,40.169],"lat":40.169,"lng":-105.0996,"comp":"GABF"},{"medal":"Bronze","beer":"Big Wednesday","brewery":"Pizza Port - Solana Beach","city":"Solana Beach","state":"CA","style":"American-Belgo Style Ale","year":2008,"coords":[-117.2575,32.9942],"lat":32.9942,"lng":-117.2575,"comp":"GABF"},{"medal":"Gold","beer":"BJ's Oktoberfest","brewery":"BJ's Restaurant & Brewery - Chandler","city":"Huntington Beach","state":"CA","style":"American-Style Amber Lager","year":2008,"coords":[-118.0025,33.696],"lat":33.696,"lng":-118.0025,"comp":"GABF"},{"medal":"Silver","beer":"Old Scratch Amber Lager","brewery":"Flying Dog Brewery","city":"Frederick","state":"MD","style":"American-Style Amber Lager","year":2008,"coords":[-77.4157,39.4336],"lat":39.4336,"lng":-77.4157,"comp":"GABF"},{"medal":"Bronze","beer":"El Oso","brewery":"Bear Republic Brewing Co.","city":"Healdsburg","state":"CA","style":"American-Style Amber Lager","year":2008,"coords":[-122.8651,38.6229],"lat":38.6229,"lng":-122.8651,"comp":"GABF"},{"medal":"Gold","beer":"Dry Hopped Red","brewery":"Rogue Ales","city":"Portland","state":"OR","style":"American-Style Amber\/Red Ale","year":2008,"coords":[-122.65,45.5371],"lat":45.5371,"lng":-122.65,"comp":"GABF"},{"medal":"Silver","beer":"CascaZilla","brewery":"Ithaca Beer Co.","city":"Ithaca","state":"NY","style":"American-Style Amber\/Red Ale","year":2008,"coords":[-76.5032,42.4442],"lat":42.4442,"lng":-76.5032,"comp":"GABF"},{"medal":"Bronze","beer":"American Amber","brewery":"Rogue Ales","city":"Portland","state":"OR","style":"American-Style Amber\/Red Ale","year":2008,"coords":[-122.65,45.5371],"lat":45.5371,"lng":-122.65,"comp":"GABF"},{"medal":"Gold","beer":"Kick-Ass Brown","brewery":"C.H. Evans Brewing Co. at the Albany Pump Station","city":"Albany","state":"NY","style":"American-Style Brown Ale","year":2008,"coords":[-73.7987,42.6664],"lat":42.6664,"lng":-73.7987,"comp":"GABF"},{"medal":"Silver","beer":"Bitch Creek ESB","brewery":"Grand Teton Brewing Co.","city":"Victor","state":"ID","style":"American-Style Brown Ale","year":2008,"coords":[-111.1107,43.6014],"lat":43.6014,"lng":-111.1107,"comp":"GABF"},{"medal":"Bronze","beer":"Bad Dog Brown Ale","brewery":"Elk Grove Brewery and Restaurant","city":"Elk Grove","state":"CA","style":"American-Style Brown Ale","year":2008,"coords":[-121.384,38.416],"lat":38.416,"lng":-121.384,"comp":"GABF"},{"medal":"Gold","beer":"Lone Star","brewery":"Pabst Brewing Co.","city":"Woodridge","state":"IL","style":"American-Style Cream Ale or Lager","year":2008,"coords":[-88.0408,41.7368],"lat":41.7368,"lng":-88.0408,"comp":"GABF"},{"medal":"Silver","beer":"Hamm's","brewery":"MillerCoors","city":"Milwaukee","state":"WI","style":"American-Style Cream Ale or Lager","year":2008,"coords":[-87.9673,43.0642],"lat":43.0642,"lng":-87.9673,"comp":"GABF"},{"medal":"Bronze","beer":"Henry Weinhard's Blue Boar Pale Ale","brewery":"MillerCoors","city":"Milwaukee","state":"WI","style":"American-Style Cream Ale or Lager","year":2008,"coords":[-87.9673,43.0642],"lat":43.0642,"lng":-87.9673,"comp":"GABF"},{"medal":"Silver","beer":"Leinenkugel's Creamy Dark","brewery":"Jacob Leinenkugel Brewing Co.","city":"Chippewa Falls","state":"WI","style":"American-Style Dark Lager","year":2008,"coords":[-91.3902,44.9359],"lat":44.9359,"lng":-91.3902,"comp":"GABF"},{"medal":"Bronze","beer":"Henry Weinhard's Classic Dark","brewery":"MillerCoors","city":"Milwaukee","state":"WI","style":"American-Style Dark Lager","year":2008,"coords":[-87.9673,43.0642],"lat":43.0642,"lng":-87.9673,"comp":"GABF"},{"medal":"Gold","beer":"Henry Weinhard's Hefeweizen","brewery":"MillerCoors","city":"Milwaukee","state":"WI","style":"American-Style Hefeweizen","year":2008,"coords":[-87.9673,43.0642],"lat":43.0642,"lng":-87.9673,"comp":"GABF"},{"medal":"Silver","beer":"Hefeweizen","brewery":"Widmer Brothers Brewing Co.","city":"Portland","state":"OR","style":"American-Style Hefeweizen","year":2008,"coords":[-122.65,45.5371],"lat":45.5371,"lng":-122.65,"comp":"GABF"},{"medal":"Bronze","beer":"Whitetail Wheat","brewery":"Montana Brewing Co.","city":"Billings","state":"MT","style":"American-Style Hefeweizen","year":2008,"coords":[-108.5509,45.7889],"lat":45.7889,"lng":-108.5509,"comp":"GABF"},{"medal":"Gold","beer":"Union Jack IPA","brewery":"Firestone Walker Brewing Co.","city":"Paso Robles","state":"CA","style":"American-Style India Pale Ale","year":2008,"coords":null,"lat":null,"lng":null,"comp":"GABF"},{"medal":"Silver","beer":"Blind Pig IPA","brewery":"Russian River Brewing Co.","city":"Santa Rosa","state":"CA","style":"American-Style India Pale Ale","year":2008,"coords":[-122.7067,38.4458],"lat":38.4458,"lng":-122.7067,"comp":"GABF"},{"medal":"Bronze","beer":"Hop Head","brewery":"Bend Brewing Co.","city":"Bend","state":"OR","style":"American-Style India Pale Ale","year":2008,"coords":[-121.3087,44.0562],"lat":44.0562,"lng":-121.3087,"comp":"GABF"},{"medal":"Gold","beer":"Olympia","brewery":"Pabst Brewing Co.","city":"Woodridge","state":"IL","style":"American-Style Lager or Premium Lager","year":2008,"coords":[-88.0408,41.7368],"lat":41.7368,"lng":-88.0408,"comp":"GABF"},{"medal":"Silver","beer":"Blatz","brewery":"Pabst Brewing Co.","city":"Woodridge","state":"IL","style":"American-Style Lager or Premium Lager","year":2008,"coords":[-88.0408,41.7368],"lat":41.7368,"lng":-88.0408,"comp":"GABF"},{"medal":"Bronze","beer":"Henry Weinhard's Private Reserve","brewery":"MillerCoors","city":"Milwaukee","state":"WI","style":"American-Style Lager or Premium Lager","year":2008,"coords":[-87.9673,43.0642],"lat":43.0642,"lng":-87.9673,"comp":"GABF"},{"medal":"Gold","beer":"The Dissident","brewery":"Deschutes Brewery","city":"Bend","state":"OR","style":"American-Style or German-Style Sour Ale","year":2008,"coords":[-121.3087,44.0562],"lat":44.0562,"lng":-121.3087,"comp":"GABF"},{"medal":"Silver","beer":"Brute","brewery":"Ithaca Beer Co.","city":"Ithaca","state":"NY","style":"American-Style or German-Style Sour Ale","year":2008,"coords":[-76.5032,42.4442],"lat":42.4442,"lng":-76.5032,"comp":"GABF"},{"medal":"Bronze","beer":"Fifth Element","brewery":"Squatters Pub Brewery","city":"Salt Lake City","state":"UT","style":"American-Style or German-Style Sour Ale","year":2008,"coords":[-111.93,40.7774],"lat":40.7774,"lng":-111.93,"comp":"GABF"},{"medal":"Gold","beer":"Mission Street Pale","brewery":"Firestone Walker Brewing Co.","city":"Paso Robles","state":"CA","style":"American-Style Pale Ale","year":2008,"coords":null,"lat":null,"lng":null,"comp":"GABF"},{"medal":"Silver","beer":"Drake's 1500 Pale","brewery":"Drake's Brewing Co.","city":"San Leandro","state":"CA","style":"American-Style Pale Ale","year":2008,"coords":[-122.1601,37.7071],"lat":37.7071,"lng":-122.1601,"comp":"GABF"},{"medal":"Bronze","beer":"Firestone Pale 31","brewery":"Firestone Walker Brewing Co.","city":"Paso Robles","state":"CA","style":"American-Style Pale Ale","year":2008,"coords":null,"lat":null,"lng":null,"comp":"GABF"},{"medal":"Gold","beer":"Hurricane High Gravity","brewery":"Anheuser-Busch, Inc","city":"St. Louis","state":"MO","style":"American-Style Specialty Lager","year":2008,"coords":[-90.2451,38.6358],"lat":38.6358,"lng":-90.2451,"comp":"GABF"},{"medal":"Silver","beer":"Natural Ice","brewery":"Anheuser-Busch, Inc","city":"St. Louis","state":"MO","style":"American-Style Specialty Lager","year":2008,"coords":[-90.2451,38.6358],"lat":38.6358,"lng":-90.2451,"comp":"GABF"},{"medal":"Bronze","beer":"Busch Ice","brewery":"Anheuser-Busch, Inc","city":"St. Louis","state":"MO","style":"American-Style Specialty Lager","year":2008,"coords":[-90.2451,38.6358],"lat":38.6358,"lng":-90.2451,"comp":"GABF"},{"medal":"Gold","beer":"Terminal Stout","brewery":"Rock Bottom Breweries","city":"Louisville","state":"CO","style":"American-Style Stout","year":2008,"coords":[-105.1441,39.9709],"lat":39.9709,"lng":-105.1441,"comp":"GABF"},{"medal":"Silver","beer":"Black Mocha Stout","brewery":"Highland Brewing Co.","city":"Asheville","state":"NC","style":"American-Style Stout","year":2008,"coords":[-82.5537,35.5704],"lat":35.5704,"lng":-82.5537,"comp":"GABF"},{"medal":"Bronze","beer":"Troegs Dead Reckoning","brewery":"Tr\u00f6egs Brewing Co.","city":"Harrisburg","state":"PA","style":"American-Style Stout","year":2008,"coords":[-76.8843,40.2752],"lat":40.2752,"lng":-76.8843,"comp":"GABF"},{"medal":"Gold","beer":"Hop Bomb","brewery":"Rock Bottom Breweries","city":"Louisville","state":"CO","style":"American-Style Strong Pale Ale","year":2008,"coords":[-105.1441,39.9709],"lat":39.9709,"lng":-105.1441,"comp":"GABF"},{"medal":"Silver","beer":"Nectar Pale","brewery":"Firestone Walker Brewing Co.","city":"Paso Robles","state":"CA","style":"American-Style Strong Pale Ale","year":2008,"coords":null,"lat":null,"lng":null,"comp":"GABF"},{"medal":"Bronze","beer":"Organic IPA","brewery":"Hopworks Urban Brewery","city":"Portland","state":"OR","style":"American-Style Strong Pale Ale","year":2008,"coords":[-122.65,45.5371],"lat":45.5371,"lng":-122.65,"comp":"GABF"},{"medal":"Gold","beer":"Pyramid Crystal Wheat Ale","brewery":"Pyramid Breweries Inc","city":"Seattle","state":"WA","style":"American-Style Wheat Beer","year":2008,"coords":[-122.3244,47.6211],"lat":47.6211,"lng":-122.3244,"comp":"GABF"},{"medal":"Silver","beer":"Spanish Peak Crystal Weiss","brewery":"Spanish Peaks Brewing Co.","city":"Stamford","state":"CT","style":"American-Style Wheat Beer","year":2008,"coords":[-73.5583,41.1035],"lat":41.1035,"lng":-73.5583,"comp":"GABF"},{"medal":"Bronze","beer":"American Wheat","brewery":"Gella's Diner and Lb. Brewing Co.","city":"Hays","state":"KS","style":"American-Style Wheat Beer","year":2008,"coords":[-99.3219,38.8816],"lat":38.8816,"lng":-99.3219,"comp":"GABF"},{"medal":"Gold","beer":"Kick in the Baltic Porter","brewery":"Bluegrass Brewing Co.","city":"Louisville","state":"KY","style":"Baltic-Style Porter","year":2008,"coords":[-85.6485,38.1663],"lat":38.1663,"lng":-85.6485,"comp":"GABF"},{"medal":"Silver","beer":"Killer Kowalski","brewery":"Flossmoor Station Brewing Co.","city":"Flossmoor","state":"IL","style":"Baltic-Style Porter","year":2008,"coords":[-87.6857,41.5391],"lat":41.5391,"lng":-87.6857,"comp":"GABF"},{"medal":"Bronze","beer":"SMP","brewery":"Sixpoint Craft Ales","city":"Brooklyn","state":"NY","style":"Baltic-Style Porter","year":2008,"coords":[-73.9496,40.6501],"lat":40.6501,"lng":-73.9496,"comp":"GABF"},{"medal":"Gold","beer":"Treblehook","brewery":"Redhook Ale Brewery","city":"Portland","state":"OR","style":"Barley Wine-Style Ale","year":2008,"coords":[-122.65,45.5371],"lat":45.5371,"lng":-122.65,"comp":"GABF"},{"medal":"Silver","beer":"AleSmith Old Numbskull","brewery":"AleSmith Brewing Co.","city":"San Diego","state":"CA","style":"Barley Wine-Style Ale","year":2008,"coords":[-117.1225,32.8312],"lat":32.8312,"lng":-117.1225,"comp":"GABF"},{"medal":"Bronze","beer":"Scratch # 4 \"The Flying Mouflan\"","brewery":"Tr\u00f6egs Brewing Co.","city":"Harrisburg","state":"PA","style":"Barley Wine-Style Ale","year":2008,"coords":[-76.8843,40.2752],"lat":40.2752,"lng":-76.8843,"comp":"GABF"},{"medal":"Gold","beer":"Redemption","brewery":"Russian River Brewing Co.","city":"Santa Rosa","state":"CA","style":"Belgian- and French-Style Ale","year":2008,"coords":[-122.7067,38.4458],"lat":38.4458,"lng":-122.7067,"comp":"GABF"},{"medal":"Silver","beer":"Pride","brewery":"Midnight Sun Brewing Co.","city":"Anchorage","state":"AK","style":"Belgian- and French-Style Ale","year":2008,"coords":[-149.1091,61.1508],"lat":61.1508,"lng":-149.1091,"comp":"GABF"},{"medal":"Bronze","beer":"Rare Vos","brewery":"Brewery Ommegang","city":"Cooperstown","state":"NY","style":"Belgian- and French-Style Ale","year":2008,"coords":[-74.93,42.6996],"lat":42.6996,"lng":-74.93,"comp":"GABF"},{"medal":"Gold","beer":"Bishop's Tipple Trippel","brewery":"Main Street Brewery","city":"Corona","state":"CA","style":"Belgian-Style Abbey Ale","year":2008,"coords":[-117.5641,33.862],"lat":33.862,"lng":-117.5641,"comp":"GABF"},{"medal":"Silver","beer":"Abbey Dubbel","brewery":"Flying Fish Brewing Co.","city":"Cherry Hill","state":"NJ","style":"Belgian-Style Abbey Ale","year":2008,"coords":null,"lat":null,"lng":null,"comp":"GABF"},{"medal":"Bronze","beer":"6th Glass","brewery":"Boulevard Brewing Co.","city":"Kansas City","state":"MO","style":"Belgian-Style Abbey Ale","year":2008,"coords":[-94.5541,39.1239],"lat":39.1239,"lng":-94.5541,"comp":"GABF"},{"medal":"Gold","beer":"Lambic de Hill","brewery":"Iron Hill Brewery & Restaurant - Media","city":"Wilmington","state":"DE","style":"Belgian-Style Lambic or Sour Ale","year":2008,"coords":[-75.5413,39.7415],"lat":39.7415,"lng":-75.5413,"comp":"GABF"},{"medal":"Silver","beer":"Upstream Gueuze-Lambic","brewery":"Upstream Brewing Co.","city":"Omaha","state":"NE","style":"Belgian-Style Lambic or Sour Ale","year":2008,"coords":[-96.0498,41.2628],"lat":41.2628,"lng":-96.0498,"comp":"GABF"},{"medal":"Bronze","beer":"Cassis de Hill","brewery":"Iron Hill Brewery & Restaurant - Newark","city":"Wilmington","state":"DE","style":"Belgian-Style Lambic or Sour Ale","year":2008,"coords":[-75.5413,39.7415],"lat":39.7415,"lng":-75.5413,"comp":"GABF"},{"medal":"Gold","beer":"Darth Delirium","brewery":"Moose's Tooth Brewing Co.","city":"Anchorage","state":"AK","style":"Belgian-Style Strong Specialty Ale","year":2008,"coords":[-149.1091,61.1508],"lat":61.1508,"lng":-149.1091,"comp":"GABF"},{"medal":"Silver","beer":"Brother Davids Double","brewery":"Anderson Valley Brewing Co.","city":"Boonville","state":"CA","style":"Belgian-Style Strong Specialty Ale","year":2008,"coords":[-123.374,39.0115],"lat":39.0115,"lng":-123.374,"comp":"GABF"},{"medal":"Bronze","beer":"Golden Armor","brewery":"CB & Potts Restaurant & Brewery - Highlands Ranch","city":"Highlands Ranch","state":"CO","style":"Belgian-Style Strong Specialty Ale","year":2008,"coords":[-104.9708,39.5419],"lat":39.5419,"lng":-104.9708,"comp":"GABF"},{"medal":"Gold","beer":"Mothership Wit \/ Organic Wheat Beer","brewery":"New Belgium Brewing Co.","city":"Fort Collins","state":"CO","style":"Belgian-Style Witbier","year":2008,"coords":[-105.0651,40.5475],"lat":40.5475,"lng":-105.0651,"comp":"GABF"},{"medal":"Silver","beer":"Belgian Wit","brewery":"Redrock Brewing Co.","city":"Salt Lake City","state":"UT","style":"Belgian-Style Witbier","year":2008,"coords":[-111.93,40.7774],"lat":40.7774,"lng":-111.93,"comp":"GABF"},{"medal":"Bronze","beer":"Squatters Wit","brewery":"Utah Brewers Cooperative","city":"Salt Lake City","state":"UT","style":"Belgian-Style Witbier","year":2008,"coords":[-111.93,40.7774],"lat":40.7774,"lng":-111.93,"comp":"GABF"},{"medal":"Gold","beer":"Drop Top","brewery":"Widmer Brothers Brewing Co.","city":"Portland","state":"OR","style":"Bitter or Pale Mild Ale","year":2008,"coords":[-122.65,45.5371],"lat":45.5371,"lng":-122.65,"comp":"GABF"},{"medal":"Silver","beer":"Hopsmith Pale Ale","brewery":"Bull & Bush Brewery","city":"Denver","state":"CO","style":"Bitter or Pale Mild Ale","year":2008,"coords":[-104.8759,39.7621],"lat":39.7621,"lng":-104.8759,"comp":"GABF"},{"medal":"Bronze","beer":"Sawtooth Ale","brewery":"Left Hand Brewing Co.","city":"Longmont","state":"CO","style":"Bitter or Pale Mild Ale","year":2008,"coords":[-105.0996,40.169],"lat":40.169,"lng":-105.0996,"comp":"GABF"},{"medal":"Gold","beer":"Goat Rancher","brewery":"SandLot (The)","city":"Denver","state":"CO","style":"Bock","year":2008,"coords":[-104.8759,39.7621],"lat":39.7621,"lng":-104.8759,"comp":"GABF"},{"medal":"Silver","beer":"Bock Lager","brewery":"Elk Grove Brewery and Restaurant","city":"Elk Grove","state":"CA","style":"Bock","year":2008,"coords":[-121.384,38.416],"lat":38.416,"lng":-121.384,"comp":"GABF"},{"medal":"Bronze","beer":"Butt Head Bock","brewery":"Tommyknocker Brewery","city":"Idaho Springs","state":"CO","style":"Bock","year":2008,"coords":[-105.5,39.7445],"lat":39.7445,"lng":-105.5,"comp":"GABF"},{"medal":"Gold","beer":"Pleasantville Pils","brewery":"Durango Brewing Co.","city":"Durango","state":"CO","style":"Bohemian-Style Pilsener","year":2008,"coords":[-107.8703,37.2744],"lat":37.2744,"lng":-107.8703,"comp":"GABF"},{"medal":"Silver","beer":"Pallavicini Pilsner","brewery":"Pug Ryan's Brewery","city":"Dillon","state":"CO","style":"Bohemian-Style Pilsener","year":2008,"coords":[-106.0386,39.621],"lat":39.621,"lng":-106.0386,"comp":"GABF"},{"medal":"Bronze","beer":"Double Aught","brewery":"Bear Republic Brewing Co.","city":"Healdsburg","state":"CA","style":"Bohemian-Style Pilsener","year":2008,"coords":[-122.8651,38.6229],"lat":38.6229,"lng":-122.8651,"comp":"GABF"},{"medal":"Gold","beer":"BlackWatch Cream Porter","brewery":"Pyramid Breweries Inc","city":"Seattle","state":"WA","style":"Brown Porter","year":2008,"coords":[-122.3244,47.6211],"lat":47.6211,"lng":-122.3244,"comp":"GABF"},{"medal":"Silver","beer":"FireHouse Porter","brewery":"FireHouse Grill & Brewery","city":"Sunnyvale","state":"CA","style":"Brown Porter","year":2008,"coords":[-122.0257,37.3836],"lat":37.3836,"lng":-122.0257,"comp":"GABF"},{"medal":"Bronze","beer":"Prospector Porter","brewery":"Tommyknocker Brewery","city":"Idaho Springs","state":"CO","style":"Brown Porter","year":2008,"coords":[-105.5,39.7445],"lat":39.7445,"lng":-105.5,"comp":"GABF"},{"medal":"Gold","beer":"Full Sail Pale Ale","brewery":"Full Sail Brewing Co.","city":"Hood River","state":"OR","style":"Classic English-Style Pale Ale","year":2008,"coords":[-121.5258,45.7092],"lat":45.7092,"lng":-121.5258,"comp":"GABF"},{"medal":"Silver","beer":"Clipper City Pale Ale","brewery":"Clipper City Brewing Co.","city":"Baltimore","state":"MD","style":"Classic English-Style Pale Ale","year":2008,"coords":[-76.6144,39.3051],"lat":39.3051,"lng":-76.6144,"comp":"GABF"},{"medal":"Bronze","beer":"Summit Extra Pale Ale","brewery":"Summit Brewing Co.","city":"Saint Paul","state":"MN","style":"Classic English-Style Pale Ale","year":2008,"coords":null,"lat":null,"lng":null,"comp":"GABF"},{"medal":"Gold","beer":"Blarney Sisters Dry Irish Stout","brewery":"Third Street AleWorks","city":"Santa Rosa","state":"CA","style":"Classic Irish-Style Dry Stout","year":2008,"coords":[-122.7067,38.4458],"lat":38.4458,"lng":-122.7067,"comp":"GABF"},{"medal":"Silver","beer":"Shaft House Stout","brewery":"Dostal Alley Brewpub & Casino","city":"Central City","state":"CO","style":"Classic Irish-Style Dry Stout","year":2008,"coords":[-105.5151,39.7963],"lat":39.7963,"lng":-105.5151,"comp":"GABF"},{"medal":"Bronze","beer":"Port Truck Stout","brewery":"Pizza Port - Carlsbad","city":"Carlsbad","state":"CA","style":"Classic Irish-Style Dry Stout","year":2008,"coords":[-117.2837,33.1247],"lat":33.1247,"lng":-117.2837,"comp":"GABF"},{"medal":"Gold","beer":"Java the Hut","brewery":"CB & Potts Restaurant & Brewery - Flatirons\/Westminster","city":"Broomfield","state":"CO","style":"Coffee Flavored Beer","year":2008,"coords":[-105.0527,39.9541],"lat":39.9541,"lng":-105.0527,"comp":"GABF"},{"medal":"Silver","beer":"Big Shot Espresso Stout","brewery":"Twisted Pine Brewing Co.","city":"Boulder","state":"CO","style":"Coffee Flavored Beer","year":2008,"coords":[-105.2523,40.0249],"lat":40.0249,"lng":-105.2523,"comp":"GABF"},{"medal":"Bronze","beer":"Double Espresso Stout","brewery":"Barley Brothers Brewery & Grill","city":"Lake Havasu City","state":"AZ","style":"Coffee Flavored Beer","year":2008,"coords":[-114.3113,34.5006],"lat":34.5006,"lng":-114.3113,"comp":"GABF"},{"medal":"Gold","beer":"Rolling Thunder Dortmunder","brewery":"Snake River Brewing Jackson","city":"Jackson","state":"WY","style":"Dortmunder or German-Style Oktoberfest","year":2008,"coords":[-110.7745,43.4721],"lat":43.4721,"lng":-110.7745,"comp":"GABF"},{"medal":"Silver","beer":"Westy Export","brewery":"CB & Potts Restaurant & Brewery - Flatirons\/Westminster","city":"Broomfield","state":"CO","style":"Dortmunder or German-Style Oktoberfest","year":2008,"coords":[-105.0527,39.9541],"lat":39.9541,"lng":-105.0527,"comp":"GABF"},{"medal":"Bronze","beer":"Penn Oktoberfest","brewery":"Pennsylvania Brewing Co.","city":"Pittsburgh","state":"PA","style":"Dortmunder or German-Style Oktoberfest","year":2008,"coords":[-79.9763,40.4396],"lat":40.4396,"lng":-79.9763,"comp":"GABF"},{"medal":"Gold","beer":"Sweet George's Brown","brewery":"Dillon DAM Brewery","city":"Dillon","state":"CO","style":"English-Style Dark Mild Ale or Brown Ale","year":2008,"coords":[-106.0386,39.621],"lat":39.621,"lng":-106.0386,"comp":"GABF"},{"medal":"Silver","beer":"Old Elk Brown Ale","brewery":"Walnut Brewery","city":"Boulder","state":"CO","style":"English-Style Dark Mild Ale or Brown Ale","year":2008,"coords":[-105.2523,40.0249],"lat":40.0249,"lng":-105.2523,"comp":"GABF"},{"medal":"Bronze","beer":"OB-1","brewery":"Snake River Brewing Jackson","city":"Jackson","state":"WY","style":"English-Style Dark Mild Ale or Brown Ale","year":2008,"coords":[-110.7745,43.4721],"lat":43.4721,"lng":-110.7745,"comp":"GABF"},{"medal":"Bronze","beer":"Hop Daddy IPA","brewery":"Main Street Brewery","city":"Corona","state":"CA","style":"English-Style India Pale Ale","year":2008,"coords":[-117.5641,33.862],"lat":33.862,"lng":-117.5641,"comp":"GABF"},{"medal":"Gold","beer":"Surfer's Summer Ale","brewery":"Pelican Pub & Brewery","city":"Pacific City","state":"OR","style":"English-Style Summer Ale","year":2008,"coords":[-123.9536,45.2054],"lat":45.2054,"lng":-123.9536,"comp":"GABF"},{"medal":"Silver","beer":"Montgomery Blonde","brewery":"Montgomery Brewing Co.","city":"Montgomery","state":"AL","style":"English-Style Summer Ale","year":2008,"coords":[-86.2666,32.3473],"lat":32.3473,"lng":-86.2666,"comp":"GABF"},{"medal":"Bronze","beer":"312 'Urban Wheat Ale'","brewery":"Goose Island Beer Co.","city":"Chicago","state":"IL","style":"English-Style Summer Ale","year":2008,"coords":[-87.6862,41.8373],"lat":41.8373,"lng":-87.6862,"comp":"GABF"},{"medal":"Gold","beer":"Munich Dark","brewery":"Redwood Brewing Co.","city":"Flint","state":"MI","style":"European-Style Dunkel","year":2008,"coords":[-83.6922,43.0235],"lat":43.0235,"lng":-83.6922,"comp":"GABF"},{"medal":"Silver","beer":"Bastone M\u00fcnchner Dunkel","brewery":"Bastone Brewery","city":"Royal Oak","state":"MI","style":"European-Style Dunkel","year":2008,"coords":[-83.1539,42.5084],"lat":42.5084,"lng":-83.1539,"comp":"GABF"},{"medal":"Bronze","beer":"Michelob Amberbock","brewery":"Michelob Brewing Co.","city":"St. Louis","state":"MO","style":"European-Style Dunkel","year":2008,"coords":[-90.2451,38.6358],"lat":38.6358,"lng":-90.2451,"comp":"GABF"},{"medal":"Gold","beer":"Arquebus","brewery":"Cambridge Brewing Co.","city":"Cambridge","state":"MA","style":"Experimental Beer","year":2008,"coords":[-71.1185,42.3759],"lat":42.3759,"lng":-71.1185,"comp":"GABF"},{"medal":"Silver","beer":"Fifteen Avery Anniversary Ale","brewery":"Avery Brewing Co.","city":"Boulder","state":"CO","style":"Experimental Beer","year":2008,"coords":[-105.2523,40.0249],"lat":40.0249,"lng":-105.2523,"comp":"GABF"},{"medal":"Bronze","beer":"Le Pelican Brun","brewery":"Pelican Pub & Brewery","city":"Pacific City","state":"OR","style":"Experimental Beer","year":2008,"coords":[-123.9536,45.2054],"lat":45.2054,"lng":-123.9536,"comp":"GABF"},{"medal":"Gold","beer":"Bachelor ESB","brewery":"Deschutes Brewery","city":"Bend","state":"OR","style":"Extra Special Bitter or Strong Bitter","year":2008,"coords":[-121.3087,44.0562],"lat":44.0562,"lng":-121.3087,"comp":"GABF"},{"medal":"Silver","beer":"Sweetwater Motorboat ESB","brewery":"Sweetwater Brewing Co.","city":"Atlanta","state":"GA","style":"Extra Special Bitter or Strong Bitter","year":2008,"coords":[-84.4225,33.7627],"lat":33.7627,"lng":-84.4225,"comp":"GABF"},{"medal":"Bronze","beer":"Standing Wave Pale Ale","brewery":"Kannah Creek Brewing Co.","city":"Grand Junction","state":"CO","style":"Extra Special Bitter or Strong Bitter","year":2008,"coords":[-108.5673,39.0877],"lat":39.0877,"lng":-108.5673,"comp":"GABF"},{"medal":"Gold","beer":"Whiteface Black Diamond Stout","brewery":"Great Adirondack Brewing Co.","city":"Lake Placid","state":"NY","style":"Foreign-Style Stout","year":2008,"coords":[-73.9855,44.2837],"lat":44.2837,"lng":-73.9855,"comp":"GABF"},{"medal":"Silver","beer":"Black Bear XX Stout","brewery":"Alameda Brewhouse","city":"Portland","state":"OR","style":"Foreign-Style Stout","year":2008,"coords":[-122.65,45.5371],"lat":45.5371,"lng":-122.65,"comp":"GABF"},{"medal":"Bronze","beer":"Black Hole XXX Stout","brewery":"Chelsea Brewing Co.","city":"New York","state":"NY","style":"Foreign-Style Stout","year":2008,"coords":[-73.9249,40.6943],"lat":40.6943,"lng":-73.9249,"comp":"GABF"},{"medal":"Gold","beer":"Saison","brewery":"Iron Hill Brewery & Restaurant - West Chester","city":"Wilmington","state":"DE","style":"French- and Belgian-Style Saison","year":2008,"coords":[-75.5413,39.7415],"lat":39.7415,"lng":-75.5413,"comp":"GABF"},{"medal":"Silver","beer":"Saison","brewery":"Nodding Head Brewing Co.","city":"Philadelphia","state":"PA","style":"French- and Belgian-Style Saison","year":2008,"coords":[-75.1339,40.0077],"lat":40.0077,"lng":-75.1339,"comp":"GABF"},{"medal":"Bronze","beer":"Luciernaga","brewery":"Jolly Pumpkin Artisan Ales","city":"Dexter","state":"MI","style":"French- and Belgian-Style Saison","year":2008,"coords":[-83.8802,42.332],"lat":42.332,"lng":-83.8802,"comp":"GABF"},{"medal":"Gold","beer":"Pyramid Apricot Ale","brewery":"Pyramid Breweries Inc","city":"Seattle","state":"WA","style":"Fruit or Vegetable Beer","year":2008,"coords":[-122.3244,47.6211],"lat":47.6211,"lng":-122.3244,"comp":"GABF"},{"medal":"Silver","beer":"Alaskan Raspberry Wheat Beer","brewery":"Alaskan Brewing Co.","city":"Juneau","state":"AK","style":"Fruit or Vegetable Beer","year":2008,"coords":[-134.1739,58.4546],"lat":58.4546,"lng":-134.1739,"comp":"GABF"},{"medal":"Bronze","beer":"Sangre de Frambuesa","brewery":"Santa Fe Brewing Co.","city":"Santa Fe","state":"NM","style":"Fruit or Vegetable Beer","year":2008,"coords":[-105.9819,35.6619],"lat":35.6619,"lng":-105.9819,"comp":"GABF"},{"medal":"Gold","beer":"The Detroit Dwarf","brewery":"Detroit Beer Co. (The)","city":"Detroit","state":"MI","style":"German-Style Altbier","year":2008,"coords":[-83.1024,42.3834],"lat":42.3834,"lng":-83.1024,"comp":"GABF"},{"medal":"Silver","beer":"Railyard Ale","brewery":"Titletown Brewing Co.","city":"Green Bay","state":"WI","style":"German-Style Altbier","year":2008,"coords":[-87.9896,44.515],"lat":44.515,"lng":-87.9896,"comp":"GABF"},{"medal":"Bronze","beer":"All The Way Alt","brewery":"Desert Edge Brewery","city":"Salt Lake City","state":"UT","style":"German-Style Altbier","year":2008,"coords":[-111.93,40.7774],"lat":40.7774,"lng":-111.93,"comp":"GABF"},{"medal":"Gold","beer":"Wind Blown Blonde","brewery":"Stewart's Brewing Co.","city":"Bear","state":"DE","style":"German-Style K\u00f6lsch","year":2008,"coords":[-75.6804,39.6188],"lat":39.6188,"lng":-75.6804,"comp":"GABF"},{"medal":"Silver","beer":"Sierra Nevada Kolsch Style Ale","brewery":"Sierra Nevada Brewing Co.","city":"Chico","state":"CA","style":"German-Style K\u00f6lsch","year":2008,"coords":[-121.8152,39.7575],"lat":39.7575,"lng":-121.8152,"comp":"GABF"},{"medal":"Bronze","beer":"Guido's Kolner Brau","brewery":"Snake River Brewing Jackson","city":"Jackson","state":"WY","style":"German-Style K\u00f6lsch","year":2008,"coords":[-110.7745,43.4721],"lat":43.4721,"lng":-110.7745,"comp":"GABF"},{"medal":"Gold","beer":"Dogtoberfest","brewery":"Flying Dog Brewery","city":"Frederick","state":"MD","style":"German-Style M\u00e4rzen","year":2008,"coords":[-77.4157,39.4336],"lat":39.4336,"lng":-77.4157,"comp":"GABF"},{"medal":"Silver","beer":"Saratoga Lager","brewery":"Olde Saratoga Brewing Co.","city":"Saratoga Springs","state":"NY","style":"German-Style M\u00e4rzen","year":2008,"coords":[-73.7775,43.0674],"lat":43.0674,"lng":-73.7775,"comp":"GABF"},{"medal":"Bronze","beer":"Munsterfest","brewery":"Three Floyds Brewing Co. LLC","city":"Munster","state":"IN","style":"German-Style M\u00e4rzen","year":2008,"coords":[-87.504,41.5469],"lat":41.5469,"lng":-87.504,"comp":"GABF"},{"medal":"Gold","beer":"Kaiser Pilsner","brewery":"Pennsylvania Brewing Co.","city":"Pittsburgh","state":"PA","style":"German-Style Pilsener","year":2008,"coords":[-79.9763,40.4396],"lat":40.4396,"lng":-79.9763,"comp":"GABF"},{"medal":"Silver","beer":"Party Pants Pilsener","brewery":"Pizza Port - Carlsbad","city":"Carlsbad","state":"CA","style":"German-Style Pilsener","year":2008,"coords":[-117.2837,33.1247],"lat":33.1247,"lng":-117.2837,"comp":"GABF"},{"medal":"Bronze","beer":"Prima Pils","brewery":"Victory Brewing Co.","city":"Downingtown","state":"PA","style":"German-Style Pilsener","year":2008,"coords":[-75.7019,40.0076],"lat":40.0076,"lng":-75.7019,"comp":"GABF"},{"medal":"Gold","beer":"B3K","brewery":"Wynkoop Brewing Co.","city":"Denver","state":"CO","style":"German-Style Schwarzbier","year":2008,"coords":[-104.8759,39.7621],"lat":39.7621,"lng":-104.8759,"comp":"GABF"},{"medal":"Silver","beer":"Cherny Bock","brewery":"Bohemian Brewery","city":"Midvale","state":"UT","style":"German-Style Schwarzbier","year":2008,"coords":[-111.8928,40.6148],"lat":40.6148,"lng":-111.8928,"comp":"GABF"},{"medal":"Bronze","beer":"Black Noddy Lager","brewery":"Buckbean Brewing Co.","city":"Reno","state":"NV","style":"German-Style Schwarzbier","year":2008,"coords":[-119.8483,39.5497],"lat":39.5497,"lng":-119.8483,"comp":"GABF"},{"medal":"Gold","beer":"Capital Autumnal Fire","brewery":"Capital Brewery Co. Inc","city":"Middleton","state":"WI","style":"German-Style Strong Bock","year":2008,"coords":[-89.5058,43.1064],"lat":43.1064,"lng":-89.5058,"comp":"GABF"},{"medal":"Silver","beer":"Deep Water Dopplebock","brewery":"Thomas Creek Brewery","city":"Greenville","state":"SC","style":"German-Style Strong Bock","year":2008,"coords":[-82.3649,34.8362],"lat":34.8362,"lng":-82.3649,"comp":"GABF"},{"medal":"Bronze","beer":"Red Cock Doppel Bock","brewery":"Maui Brewing Co.","city":"Lahaina","state":"HI","style":"German-Style Strong Bock","year":2008,"coords":[-156.6618,20.8848],"lat":20.8848,"lng":-156.6618,"comp":"GABF"},{"medal":"Gold","beer":"I'm Half the Beer I Used to Be","brewery":"BJ's Restaurant & Brewery - Chandler","city":"Huntington Beach","state":"CA","style":"German-Style Wheat Ale","year":2008,"coords":[-118.0025,33.696],"lat":33.696,"lng":-118.0025,"comp":"GABF"},{"medal":"Silver","beer":"Dark-n-Curvy Dunkelweizen","brewery":"Piece Brewery","city":"Chicago","state":"IL","style":"German-Style Wheat Ale","year":2008,"coords":[-87.6862,41.8373],"lat":41.8373,"lng":-87.6862,"comp":"GABF"},{"medal":"Bronze","beer":"Wasatch Hefeweizen","brewery":"Wasatch Brew Pub","city":"Park City","state":"UT","style":"German-Style Wheat Ale","year":2008,"coords":[-111.502,40.6505],"lat":40.6505,"lng":-111.502,"comp":"GABF"},{"medal":"Gold","beer":"Redbridge","brewery":"Anheuser-Busch, Inc","city":"St. Louis","state":"MO","style":"Gluten Free Beer","year":2008,"coords":[-90.2451,38.6358],"lat":38.6358,"lng":-90.2451,"comp":"GABF"},{"medal":"Silver","beer":"New Grist","brewery":"Lakefront Brewery Inc","city":"Milwaukee","state":"WI","style":"Gluten Free Beer","year":2008,"coords":[-87.9673,43.0642],"lat":43.0642,"lng":-87.9673,"comp":"GABF"},{"medal":"Bronze","beer":"Chinquapin Butte Golden Ale","brewery":"Deschutes Brewery","city":"Bend","state":"OR","style":"Gluten Free Beer","year":2008,"coords":[-121.3087,44.0562],"lat":44.0562,"lng":-121.3087,"comp":"GABF"},{"medal":"Gold","beer":"Steelhead Extra Pale Ale","brewery":"Mad River Brewing Co.","city":"Blue Lake","state":"CA","style":"Golden or Blonde Ale","year":2008,"coords":[-123.9931,40.8813],"lat":40.8813,"lng":-123.9931,"comp":"GABF"},{"medal":"Silver","beer":"Alaskan Summer Ale","brewery":"Alaskan Brewing Co.","city":"Juneau","state":"AK","style":"Golden or Blonde Ale","year":2008,"coords":[-134.1739,58.4546],"lat":58.4546,"lng":-134.1739,"comp":"GABF"},{"medal":"Bronze","beer":"All Nighter","brewery":"Chicago Brewing Co.","city":"Las Vegas","state":"NV","style":"Golden or Blonde Ale","year":2008,"coords":[-115.2654,36.2333],"lat":36.2333,"lng":-115.2654,"comp":"GABF"},{"medal":"Gold","beer":"Russian Roulette","brewery":"Minneapolis Town Hall Brewery","city":"Minneapolis","state":"MN","style":"Herb and Spice or Chocolate Beer","year":2008,"coords":[-93.2678,44.9635],"lat":44.9635,"lng":-93.2678,"comp":"GABF"},{"medal":"Silver","beer":"Pangaea","brewery":"Dogfish Head Craft Brewery","city":"Milton","state":"DE","style":"Herb and Spice or Chocolate Beer","year":2008,"coords":[-75.3104,38.7751],"lat":38.7751,"lng":-75.3104,"comp":"GABF"},{"medal":"Bronze","beer":"State Beach Blonde","brewery":"Pizza Port - Carlsbad","city":"Carlsbad","state":"CA","style":"Herb and Spice or Chocolate Beer","year":2008,"coords":[-117.2837,33.1247],"lat":33.1247,"lng":-117.2837,"comp":"GABF"},{"medal":"Gold","beer":"Hopnotic 2X IPA","brewery":"San Diego Brewing Co.","city":"San Diego","state":"CA","style":"Imperial or Double India Pale Ale","year":2008,"coords":[-117.1225,32.8312],"lat":32.8312,"lng":-117.1225,"comp":"GABF"},{"medal":"Silver","beer":"Hip Hop Double IPA","brewery":"Hollister Brewing Co.","city":"Goleta","state":"CA","style":"Imperial or Double India Pale Ale","year":2008,"coords":[-119.8595,34.436],"lat":34.436,"lng":-119.8595,"comp":"GABF"},{"medal":"Bronze","beer":"Hop 15","brewery":"Port Brewing & The Lost Abbey","city":"San Marcos","state":"CA","style":"Imperial or Double India Pale Ale","year":2008,"coords":[-117.1743,33.135],"lat":33.135,"lng":-117.1743,"comp":"GABF"},{"medal":"Gold","beer":"Rock Hopera Imperial IPA","brewery":"Vino's Pizza*Pub*Brewery","city":"Little Rock","state":"AR","style":"Imperial or Double Red Ale","year":2008,"coords":[-92.358,34.7255],"lat":34.7255,"lng":-92.358,"comp":"GABF"},{"medal":"Silver","beer":"Alpha Dog Double Red Ale","brewery":"Big Dog's Brewing Co.","city":"Las Vegas","state":"NV","style":"Imperial or Double Red Ale","year":2008,"coords":[-115.2654,36.2333],"lat":36.2333,"lng":-115.2654,"comp":"GABF"},{"medal":"Bronze","beer":"Weekender Red Ale","brewery":"Amicas","city":"Salida","state":"CO","style":"Imperial or Double Red Ale","year":2008,"coords":[-105.9984,38.53],"lat":38.53,"lng":-105.9984,"comp":"GABF"},{"medal":"Gold","beer":"BORIS The Crusher Oatmeal-Imperial Stout","brewery":"Hoppin' Frog Brewing Co.","city":"Akron","state":"OH","style":"Imperial Stout","year":2008,"coords":[-81.5219,41.0798],"lat":41.0798,"lng":-81.5219,"comp":"GABF"},{"medal":"Silver","beer":"Night Rider Imperial Stout","brewery":"Pizza Port - Carlsbad","city":"Carlsbad","state":"CA","style":"Imperial Stout","year":2008,"coords":[-117.2837,33.1247],"lat":33.1247,"lng":-117.2837,"comp":"GABF"},{"medal":"Bronze","beer":"Yeti Imperial Stout","brewery":"Great Divide Brewing Co.","city":"Denver","state":"CO","style":"Imperial Stout","year":2008,"coords":[-104.8759,39.7621],"lat":39.7621,"lng":-104.8759,"comp":"GABF"},{"medal":"Gold","beer":"Session Premium Lager","brewery":"Full Sail Brewing Co.","city":"Hood River","state":"OR","style":"International-Style Pilsener","year":2008,"coords":[-121.5258,45.7092],"lat":45.7092,"lng":-121.5258,"comp":"GABF"},{"medal":"Silver","beer":"Yep, Still Boneheads","brewery":"SandLot (The)","city":"Denver","state":"CO","style":"International-Style Pilsener","year":2008,"coords":[-104.8759,39.7621],"lat":39.7621,"lng":-104.8759,"comp":"GABF"},{"medal":"Bronze","beer":"OE 800","brewery":"MillerCoors","city":"Milwaukee","state":"WI","style":"International-Style Pilsener","year":2008,"coords":[-87.9673,43.0642],"lat":43.0642,"lng":-87.9673,"comp":"GABF"},{"medal":"Gold","beer":"Red Rocks Red Ale","brewery":"Rock Bottom Breweries","city":"Louisville","state":"CO","style":"Irish-Style Red Ale","year":2008,"coords":[-105.1441,39.9709],"lat":39.9709,"lng":-105.1441,"comp":"GABF"},{"medal":"Silver","beer":"Ragtop Red","brewery":"Rock Bottom Brewery - La Jolla","city":"La Jolla","state":"CA","style":"Irish-Style Red Ale","year":2008,"coords":null,"lat":null,"lng":null,"comp":"GABF"},{"medal":"Bronze","beer":"Eric The Red","brewery":"Rock Bottom Brewery - Orland Park","city":"Orland Park","state":"IL","style":"Irish-Style Red Ale","year":2008,"coords":[-87.8619,41.6075],"lat":41.6075,"lng":-87.8619,"comp":"GABF"},{"medal":"Gold","beer":"Helles Keller","brewery":"Fredericksburg Brewing Co.","city":"Fredericksburg","state":"TX","style":"Kellerbier\/Zwickelbier","year":2008,"coords":[-98.8757,30.2671],"lat":30.2671,"lng":-98.8757,"comp":"GABF"},{"medal":"Silver","beer":"Hell In Keller","brewery":"Uncle Billy's Brew & Que","city":"Austin","state":"TX","style":"Kellerbier\/Zwickelbier","year":2008,"coords":[-97.7517,30.3006],"lat":30.3006,"lng":-97.7517,"comp":"GABF"},{"medal":"Bronze","beer":"Zwickel","brewery":"Chama River Brewing Co.","city":"Albuquerque","state":"NM","style":"Kellerbier\/Zwickelbier","year":2008,"coords":[-106.6464,35.1053],"lat":35.1053,"lng":-106.6464,"comp":"GABF"},{"medal":"Gold","beer":"Himmelbrau Helles","brewery":"Laurelwood Brewing Co.","city":"Portland","state":"OR","style":"Munich-Style Helles","year":2008,"coords":[-122.65,45.5371],"lat":45.5371,"lng":-122.65,"comp":"GABF"},{"medal":"Silver","beer":"Saint Arnold Summer Pils","brewery":"Saint Arnold Brewing Co.","city":"Houston","state":"TX","style":"Munich-Style Helles","year":2008,"coords":[-95.3905,29.7869],"lat":29.7869,"lng":-95.3905,"comp":"GABF"},{"medal":"Bronze","beer":"BS Helles","brewery":"SandLot (The)","city":"Denver","state":"CO","style":"Munich-Style Helles","year":2008,"coords":[-104.8759,39.7621],"lat":39.7621,"lng":-104.8759,"comp":"GABF"},{"medal":"Gold","beer":"Oatmeal Stout","brewery":"Gella's Diner and Lb. Brewing Co.","city":"Hays","state":"KS","style":"Oatmeal Stout","year":2008,"coords":[-99.3219,38.8816],"lat":38.8816,"lng":-99.3219,"comp":"GABF"},{"medal":"Silver","beer":"Velvet Merkin","brewery":"Firestone Walker Brewing Co.","city":"Paso Robles","state":"CA","style":"Oatmeal Stout","year":2008,"coords":null,"lat":null,"lng":null,"comp":"GABF"},{"medal":"Bronze","beer":"Oatmeal Stout","brewery":"Morgan Territory Brewing","city":"Antioch","state":"CA","style":"Oatmeal Stout","year":2008,"coords":[-121.7957,37.9789],"lat":37.9789,"lng":-121.7957,"comp":"GABF"},{"medal":"Gold","beer":"AleSmith Decadence Old Ale","brewery":"AleSmith Brewing Co.","city":"San Diego","state":"CA","style":"Old Ale or Strong Ale","year":2008,"coords":[-117.1225,32.8312],"lat":32.8312,"lng":-117.1225,"comp":"GABF"},{"medal":"Silver","beer":"Old Scrooge","brewery":"Silver City Restaurant & Brewery","city":"Silverdale","state":"WA","style":"Old Ale or Strong Ale","year":2008,"coords":[-122.6828,47.6663],"lat":47.6663,"lng":-122.6828,"comp":"GABF"},{"medal":"Bronze","beer":"Old Scratch Barley Wine '99","brewery":"Great Dane Pub & Brewing Co. (The)","city":"Madison","state":"WI","style":"Old Ale or Strong Ale","year":2008,"coords":[-89.3923,43.0827],"lat":43.0827,"lng":-89.3923,"comp":"GABF"},{"medal":"Gold","beer":"Derail Ale","brewery":"Durango Brewing Co.","city":"Durango","state":"CO","style":"Other Strong Beer","year":2008,"coords":[-107.8703,37.2744],"lat":37.2744,"lng":-107.8703,"comp":"GABF"},{"medal":"Silver","beer":"Imperial Oatmeal Stout","brewery":"Boundary Bay Brewery","city":"Bellingham","state":"WA","style":"Other Strong Beer","year":2008,"coords":[-122.4687,48.7543],"lat":48.7543,"lng":-122.4687,"comp":"GABF"},{"medal":"Bronze","beer":"FiftyFifty Imperial Stout","brewery":"FiftyFifty Brewing Co.","city":"Truckee","state":"CA","style":"Other Strong Beer","year":2008,"coords":[-120.1848,39.3454],"lat":39.3454,"lng":-120.1848,"comp":"GABF"},{"medal":"Gold","beer":"Barking Dog Scottish Ale","brewery":"Big Time Brewing Co.","city":"Seattle","state":"WA","style":"Pro-Am Competition","year":2008,"coords":[-122.3244,47.6211],"lat":47.6211,"lng":-122.3244,"comp":"GABF"},{"medal":"Silver","beer":"Bamberg Hellerbock","brewery":"Starr Hill Brewing Co.","city":"Crozet","state":"VA","style":"Pro-Am Competition","year":2008,"coords":[-78.6962,38.0645],"lat":38.0645,"lng":-78.6962,"comp":"GABF"},{"medal":"Bronze","beer":"Irish Red","brewery":"Odell Brewing Co.","city":"Fort Collins","state":"CO","style":"Pro-Am Competition","year":2008,"coords":[-105.0651,40.5475],"lat":40.5475,"lng":-105.0651,"comp":"GABF"},{"medal":"Gold","beer":"Nolan's Porter","brewery":"Barrio Brewing Co.","city":"Tucson","state":"AZ","style":"Robust Porter","year":2008,"coords":[-110.8782,32.1545],"lat":32.1545,"lng":-110.8782,"comp":"GABF"},{"medal":"Silver","beer":"Sweet Sanderine Porter","brewery":"Il Vicino Brewing Co.","city":"Albuquerque","state":"NM","style":"Robust Porter","year":2008,"coords":[-106.6464,35.1053],"lat":35.1053,"lng":-106.6464,"comp":"GABF"},{"medal":"Bronze","beer":"Pacemaker Porter","brewery":"Flyers Restaurant and Brewery","city":"Oak Harbor","state":"WA","style":"Robust Porter","year":2008,"coords":[-122.6331,48.2965],"lat":48.2965,"lng":-122.6331,"comp":"GABF"},{"medal":"Gold","beer":"Roggenbier","brewery":"Iron Hill Brewery & Restaurant - Media","city":"Wilmington","state":"DE","style":"Rye Beer","year":2008,"coords":[-75.5413,39.7415],"lat":39.7415,"lng":-75.5413,"comp":"GABF"},{"medal":"Silver","beer":"Right On Rye","brewery":"Rock Bottom Brewery - Bethesda","city":"Bethesda","state":"MD","style":"Rye Beer","year":2008,"coords":[-77.1188,38.9866],"lat":38.9866,"lng":-77.1188,"comp":"GABF"},{"medal":"Bronze","beer":"Ryeteous Red","brewery":"Amherst Brewing Co.","city":"Amherst","state":"MA","style":"Rye Beer","year":2008,"coords":null,"lat":null,"lng":null,"comp":"GABF"},{"medal":"Gold","beer":"Highland Courage","brewery":"Rock Bottom Brewery - Bethesda","city":"Bethesda","state":"MD","style":"Scottish-Style Ale","year":2008,"coords":[-77.1188,38.9866],"lat":38.9866,"lng":-77.1188,"comp":"GABF"},{"medal":"Silver","beer":"Dells Chief Amber Ale","brewery":"Dells Brewing Co.","city":"Wisconsin Dells","state":"WI","style":"Scottish-Style Ale","year":2008,"coords":[-89.7752,43.6336],"lat":43.6336,"lng":-89.7752,"comp":"GABF"},{"medal":"Bronze","beer":"Railbender Ale","brewery":"Erie Brewing Co.","city":"Erie","state":"PA","style":"Scottish-Style Ale","year":2008,"coords":[-80.0733,42.1168],"lat":42.1168,"lng":-80.0733,"comp":"GABF"},{"medal":"Gold","beer":"3.2 Unfiltered Wheat Beer","brewery":"Boulevard Brewing Co.","city":"Kansas City","state":"MO","style":"Session Beer","year":2008,"coords":[-94.5541,39.1239],"lat":39.1239,"lng":-94.5541,"comp":"GABF"},{"medal":"Silver","beer":"USS Minnow Mild Ale","brewery":"Dry Dock Brewing Co.","city":"Aurora","state":"CO","style":"Session Beer","year":2008,"coords":[-104.7274,39.7084],"lat":39.7084,"lng":-104.7274,"comp":"GABF"},{"medal":"Bronze","beer":"Blonde Bombshell","brewery":"Cascade Lakes Brewing Co.","city":"Redmond","state":"OR","style":"Session Beer","year":2008,"coords":[-121.1798,44.2631],"lat":44.2631,"lng":-121.1798,"comp":"GABF"},{"medal":"Gold","beer":"Rauch Bier","brewery":"Sly Fox Brewing Co.","city":"Royersford","state":"PA","style":"Smoke-Flavored Beer","year":2008,"coords":[-75.5382,40.1862],"lat":40.1862,"lng":-75.5382,"comp":"GABF"},{"medal":"Silver","beer":"Alaskan Smoked Porter 2007","brewery":"Alaskan Brewing Co.","city":"Juneau","state":"AK","style":"Smoke-Flavored Beer","year":2008,"coords":[-134.1739,58.4546],"lat":58.4546,"lng":-134.1739,"comp":"GABF"},{"medal":"Bronze","beer":"Second Hand Smoke","brewery":"SandLot (The)","city":"Denver","state":"CO","style":"Smoke-Flavored Beer","year":2008,"coords":[-104.8759,39.7621],"lat":39.7621,"lng":-104.8759,"comp":"GABF"},{"medal":"Gold","beer":"Wixa Weiss","brewery":"Wynkoop Brewing Co.","city":"Denver","state":"CO","style":"South German-Style Hefeweizen","year":2008,"coords":[-104.8759,39.7621],"lat":39.7621,"lng":-104.8759,"comp":"GABF"},{"medal":"Silver","beer":"The Love","brewery":"Starr Hill Brewing Co.","city":"Crozet","state":"VA","style":"South German-Style Hefeweizen","year":2008,"coords":[-78.6962,38.0645],"lat":38.0645,"lng":-78.6962,"comp":"GABF"},{"medal":"Bronze","beer":"Mueller Hefeweizen","brewery":"Springfield Brewing Co.","city":"Springfield","state":"MO","style":"South German-Style Hefeweizen","year":2008,"coords":[-93.2915,37.1943],"lat":37.1943,"lng":-93.2915,"comp":"GABF"},{"medal":"Gold","beer":"Red & White","brewery":"Dogfish Head Craft Brewery","city":"Milton","state":"DE","style":"Specialty Beer","year":2008,"coords":[-75.3104,38.7751],"lat":38.7751,"lng":-75.3104,"comp":"GABF"},{"medal":"Silver","beer":"Hazelnut Brown Nectar","brewery":"Rogue Ales","city":"Portland","state":"OR","style":"Specialty Beer","year":2008,"coords":[-122.65,45.5371],"lat":45.5371,"lng":-122.65,"comp":"GABF"},{"medal":"Bronze","beer":"Palo Santo Marron","brewery":"Dogfish Head Craft Brewery","city":"Milton","state":"DE","style":"Specialty Beer","year":2008,"coords":[-75.3104,38.7751],"lat":38.7751,"lng":-75.3104,"comp":"GABF"},{"medal":"Gold","beer":"Honey Lager","brewery":"Capitol City Brewing Co. - Capitol Hill","city":"Washington","state":"DC","style":"Specialty Honey Beer","year":2008,"coords":[-77.0163,38.9047],"lat":38.9047,"lng":-77.0163,"comp":"GABF"},{"medal":"Silver","beer":"Eye of the Storm","brewery":"Minneapolis Town Hall Brewery","city":"Minneapolis","state":"MN","style":"Specialty Honey Beer","year":2008,"coords":[-93.2678,44.9635],"lat":44.9635,"lng":-93.2678,"comp":"GABF"},{"medal":"Bronze","beer":"Honey Moon Summer Ale","brewery":"Blue Moon Brewing Co.","city":"Golden","state":"CO","style":"Specialty Honey Beer","year":2008,"coords":[-105.2118,39.7406],"lat":39.7406,"lng":-105.2118,"comp":"GABF"},{"medal":"Gold","beer":"AleSmith Wee Heavy","brewery":"AleSmith Brewing Co.","city":"San Diego","state":"CA","style":"Strong Scotch Ale","year":2008,"coords":[-117.1225,32.8312],"lat":32.8312,"lng":-117.1225,"comp":"GABF"},{"medal":"Silver","beer":"Way Heavy","brewery":"Pizza Port - San Clemente","city":"Carlsbad","state":"CA","style":"Strong Scotch Ale","year":2008,"coords":[-117.2837,33.1247],"lat":33.1247,"lng":-117.2837,"comp":"GABF"},{"medal":"Bronze","beer":"Bag Pipe's Scotch Ale","brewery":"Allentown & Bethlehem Brew Works","city":"Allentown","state":"PA","style":"Strong Scotch Ale","year":2008,"coords":[-75.4755,40.5961],"lat":40.5961,"lng":-75.4755,"comp":"GABF"},{"medal":"Gold","beer":"Cream Stout","brewery":"Redwood Brewing Co.","city":"Flint","state":"MI","style":"Sweet Stout","year":2008,"coords":[-83.6922,43.0235],"lat":43.0235,"lng":-83.6922,"comp":"GABF"},{"medal":"Silver","beer":"Milk Stout","brewery":"Left Hand Brewing Co.","city":"Longmont","state":"CO","style":"Sweet Stout","year":2008,"coords":[-105.0996,40.169],"lat":40.169,"lng":-105.0996,"comp":"GABF"},{"medal":"Bronze","beer":"Cow Stout","brewery":"Pizza Port - Carlsbad","city":"Carlsbad","state":"CA","style":"Sweet Stout","year":2008,"coords":[-117.2837,33.1247],"lat":33.1247,"lng":-117.2837,"comp":"GABF"},{"medal":"Gold","beer":"Vienna Red Lager","brewery":"Iron Hill Brewery & Restaurant - West Chester","city":"Wilmington","state":"DE","style":"Vienna-Style Lager","year":2008,"coords":[-75.5413,39.7415],"lat":39.7415,"lng":-75.5413,"comp":"GABF"},{"medal":"Silver","beer":"Oaktoberfest","brewery":"Firestone Walker Brewing Co.","city":"Paso Robles","state":"CA","style":"Vienna-Style Lager","year":2008,"coords":null,"lat":null,"lng":null,"comp":"GABF"},{"medal":"Bronze","beer":"Clipper City MarzHon","brewery":"Clipper City Brewing Co.","city":"Baltimore","state":"MD","style":"Vienna-Style Lager","year":2008,"coords":[-76.6144,39.3051],"lat":39.3051,"lng":-76.6144,"comp":"GABF"},{"medal":"Gold","beer":"Old Jack","brewery":"Ram Restaurant & Brewery (Indianapolis)","city":"Indianapolis","state":"IN","style":"Wood- and Barrel-Aged Beer","year":2008,"coords":[-86.1458,39.7771],"lat":39.7771,"lng":-86.1458,"comp":"GABF"},{"medal":"Silver","beer":"Buffalo Bock","brewery":"Ram Restaurant & Brewery (Indianapolis)","city":"Indianapolis","state":"IN","style":"Wood- and Barrel-Aged Beer","year":2008,"coords":[-86.1458,39.7771],"lat":39.7771,"lng":-86.1458,"comp":"GABF"},{"medal":"Bronze","beer":"Beastie Barrel Stout","brewery":"Barley Island Brewing Co.","city":"Fishers","state":"IN","style":"Wood- and Barrel-Aged Beer","year":2008,"coords":[-85.9665,39.9589],"lat":39.9589,"lng":-85.9665,"comp":"GABF"},{"medal":"Gold","beer":"Beekeeper","brewery":"Bullfrog Brewery","city":"Williamsport","state":"PA","style":"Wood- and Barrel-Aged Sour Beer","year":2008,"coords":[-77.0371,41.2398],"lat":41.2398,"lng":-77.0371,"comp":"GABF"},{"medal":"Silver","beer":"Cherry Dubbel","brewery":"Iron Hill Brewery & Restaurant - Newark","city":"Wilmington","state":"DE","style":"Wood- and Barrel-Aged Sour Beer","year":2008,"coords":[-75.5413,39.7415],"lat":39.7415,"lng":-75.5413,"comp":"GABF"},{"medal":"Bronze","beer":"Cascade Kriek Ale","brewery":"Cascade Brewery Co. LLC","city":"Portland","state":"OR","style":"Wood- and Barrel-Aged Sour Beer","year":2008,"coords":[-122.65,45.5371],"lat":45.5371,"lng":-122.65,"comp":"GABF"},{"medal":"Gold","beer":"Bourbon Barrel Barleywine","brewery":"Central Waters Brewing Co.","city":"Amherst","state":"WI","style":"Wood- and Barrel-Aged Strong Beer","year":2008,"coords":[-89.2832,44.4475],"lat":44.4475,"lng":-89.2832,"comp":"GABF"},{"medal":"Silver","beer":"The Legend of the Liquid Brain Imperial Stout","brewery":"Bull & Bush Brewery","city":"Denver","state":"CO","style":"Wood- and Barrel-Aged Strong Beer","year":2008,"coords":[-104.8759,39.7621],"lat":39.7621,"lng":-104.8759,"comp":"GABF"},{"medal":"Bronze","beer":"Golden Delicious","brewery":"Captain Lawrence Brewing Co.","city":"Pleasantville","state":"NY","style":"Wood- and Barrel-Aged Strong Beer","year":2008,"coords":[-73.7827,41.1378],"lat":41.1378,"lng":-73.7827,"comp":"GABF"}]