[{"_id":{"state":"CA","city":"San Francisco"},"count":5,"lat":37.7562,"lng":-122.443},{"_id":{"state":"NY","city":"New York"},"count":2,"lat":40.6943,"lng":-73.9249},{"_id":{"state":"GA","city":"Kennesaw"},"count":1,"lat":34.0262,"lng":-84.6177},{"_id":{"state":"MO","city":"Saint Louis"},"count":6,"lat":38.6358,"lng":-90.2451},{"_id":{"state":"CA","city":"Oakland"},"count":1,"lat":37.7903,"lng":-122.2165},{"_id":{"state":"PA","city":"Adamstown"},"count":1,"lat":40.2417,"lng":-76.0608},{"_id":{"state":"OR","city":"Hood River"},"count":2,"lat":45.7092,"lng":-121.5258},{"_id":{"state":"GA","city":"Atlanta"},"count":1,"lat":33.7627,"lng":-84.4225},{"_id":{"state":"CA","city":"Fresno"},"count":1,"lat":36.7831,"lng":-119.7941},{"_id":{"state":"IL","city":"Chicago"},"count":1,"lat":41.8373,"lng":-87.6862},{"_id":{"state":"CO","city":"Golden"},"count":2,"lat":39.7406,"lng":-105.2118},{"_id":{"state":"MT","city":"Helena"},"count":1,"lat":46.5965,"lng":-112.0199},{"_id":{"state":"WI","city":"Monroe"},"count":1,"lat":42.603,"lng":-89.6381},{"_id":{"state":"NY","city":"Albany"},"count":1,"lat":42.6664,"lng":-73.7987},{"_id":{"state":"CA","city":"Chico"},"count":2,"lat":39.7575,"lng":-121.8152},{"_id":{"state":"WI","city":"Middleton"},"count":1,"lat":43.1064,"lng":-89.5058},{"_id":{"state":"MI","city":"Frankenmuth"},"count":2,"lat":43.3321,"lng":-83.7395},{"_id":{"state":"IA","city":"Amana"},"count":1,"lat":41.8025,"lng":-91.8741},{"_id":{"state":"NY","city":"Utica"},"count":1,"lat":43.0961,"lng":-75.226},{"_id":{"state":"TN","city":"Nashville"},"count":1,"lat":36.1715,"lng":-86.7843},{"_id":{"state":"CA","city":"Sacramento"},"count":2,"lat":38.5667,"lng":-121.4683},{"_id":{"state":"WI","city":"Milwaukee"},"count":2,"lat":43.0642,"lng":-87.9673},{"_id":{"state":"OH","city":"Cleveland"},"count":4,"lat":41.4767,"lng":-81.6805},{"_id":{"state":"PA","city":"Smithton"},"count":1,"lat":40.1538,"lng":-79.7424},{"_id":{"state":"ID","city":"Hailey"},"count":3,"lat":43.5141,"lng":-114.3},{"_id":{"state":"AK","city":"Juneau"},"count":1,"lat":58.4546,"lng":-134.1739},{"_id":{"state":"CA","city":"Larkspur"},"count":4,"lat":37.9394,"lng":-122.5313},{"_id":{"state":"RI","city":"Providence"},"count":1,"lat":41.823,"lng":-71.4187},{"_id":{"state":"MI","city":"Bay City"},"count":1,"lat":43.5903,"lng":-83.8886},{"_id":{"state":"HI","city":"Honolulu"},"count":1,"lat":21.3294,"lng":-157.846},{"_id":{"state":"MA","city":"Framingham"},"count":1,"lat":42.3085,"lng":-71.4368},{"_id":{"state":"AL","city":"Birmingham"},"count":1,"lat":33.5277,"lng":-86.7987},{"_id":{"state":"KY","city":"Fort Mitchell"},"count":2,"lat":39.0459,"lng":-84.5563},{"_id":{"state":"MA","city":"Boston"},"count":4,"lat":42.3188,"lng":-71.0846}]