[{"_id":{"state":"CO","city":"Castle Rock"},"count":1,"lat":39.3762,"lng":-104.8535},{"_id":{"state":"AZ","city":"Tucson"},"count":1,"lat":32.1545,"lng":-110.8782},{"_id":{"state":"IL","city":"Flossmoor"},"count":2,"lat":41.5391,"lng":-87.6857},{"_id":{"state":"DE","city":"Bear"},"count":1,"lat":39.6188,"lng":-75.6804},{"_id":{"state":"TX","city":"Houston"},"count":1,"lat":29.7869,"lng":-95.3905},{"_id":{"state":"NY","city":"Southampton"},"count":1,"lat":40.8778,"lng":-72.4004},{"_id":{"state":"PA","city":"Media"},"count":1,"lat":39.9198,"lng":-75.3888},{"_id":{"state":"MA","city":"Quincy"},"count":1,"lat":42.2516,"lng":-71.0183},{"_id":{"state":"VA","city":"Centreville"},"count":1,"lat":38.8391,"lng":-77.4388},{"_id":{"state":"WA","city":"Seattle"},"count":1,"lat":47.6211,"lng":-122.3244},{"_id":{"state":"TN","city":"Sevierville"},"count":1,"lat":35.8873,"lng":-83.5678},{"_id":{"state":"MO","city":"Kansas City"},"count":1,"lat":39.1239,"lng":-94.5541},{"_id":{"state":"VA","city":"Ashburn"},"count":1,"lat":39.03,"lng":-77.4711},{"_id":{"state":"CO","city":"Longmont"},"count":1,"lat":40.169,"lng":-105.0996},{"_id":{"state":"MO","city":"Springfield"},"count":1,"lat":37.1943,"lng":-93.2915},{"_id":{"state":"MI","city":"Kalamazoo"},"count":1,"lat":42.2749,"lng":-85.5882},{"_id":{"state":"IL","city":"Libertyville"},"count":2,"lat":42.287,"lng":-87.967},{"_id":{"state":"OH","city":"Willoughby"},"count":1,"lat":41.646,"lng":-81.4084},{"_id":{"state":"OR","city":"Eugene"},"count":3,"lat":44.0563,"lng":-123.1173},{"_id":{"state":"MN","city":"Minneapolis"},"count":1,"lat":44.9635,"lng":-93.2678},{"_id":{"state":"CA","city":"Sebastopol"},"count":1,"lat":38.4,"lng":-122.8277},{"_id":{"state":"OH","city":"Rocky River"},"count":2,"lat":41.4703,"lng":-81.8526},{"_id":{"state":"CA","city":"San Luis Obispo"},"count":2,"lat":35.267,"lng":-120.6689},{"_id":{"state":"NY","city":"Rochester"},"count":2,"lat":43.168,"lng":-77.6162},{"_id":{"state":"CA","city":"Santa Rosa"},"count":1,"lat":38.4458,"lng":-122.7067},{"_id":{"state":"IL","city":"Aurora"},"count":1,"lat":41.7637,"lng":-88.2901},{"_id":{"state":"CO","city":"Fort Collins"},"count":5,"lat":40.5475,"lng":-105.0651},{"_id":{"state":"WY","city":"Jackson"},"count":2,"lat":43.4721,"lng":-110.7745},{"_id":{"state":"KS","city":"Topeka"},"count":1,"lat":39.0346,"lng":-95.6955},{"_id":{"state":"OR","city":"Newport"},"count":2,"lat":44.6231,"lng":-124.0524},{"_id":{"state":"CA","city":"Irvine"},"count":1,"lat":33.6772,"lng":-117.7738},{"_id":{"state":"AK","city":"Anchorage"},"count":1,"lat":61.1508,"lng":-149.1091},{"_id":{"state":"GA","city":"Atlanta"},"count":1,"lat":33.7627,"lng":-84.4225},{"_id":{"state":"WI","city":"Madison"},"count":2,"lat":43.0827,"lng":-89.3923},{"_id":{"state":"PA","city":"Pittsburgh"},"count":4,"lat":40.4396,"lng":-79.9763},{"_id":{"state":"WI","city":"Milwaukee"},"count":3,"lat":43.0642,"lng":-87.9673},{"_id":{"state":"OH","city":"Cleveland"},"count":2,"lat":41.4767,"lng":-81.6805},{"_id":{"state":"NH","city":"Portsmouth"},"count":1,"lat":43.058,"lng":-70.7826},{"_id":{"state":"CA","city":"Guerneville"},"count":2,"lat":38.5137,"lng":-122.9894},{"_id":{"state":"CO","city":"Golden"},"count":2,"lat":39.7406,"lng":-105.2118},{"_id":{"state":"CO","city":"Westminster"},"count":1,"lat":39.8837,"lng":-105.0624},{"_id":{"state":"MO","city":"Saint Louis"},"count":2,"lat":38.6358,"lng":-90.2451},{"_id":{"state":"CA","city":"Eureka"},"count":1,"lat":40.7941,"lng":-124.1568},{"_id":{"state":"CO","city":"Glenwood Springs"},"count":1,"lat":39.5455,"lng":-107.3347},{"_id":{"state":"NY","city":"New Paltz"},"count":1,"lat":41.7495,"lng":-74.0809},{"_id":{"state":"OR","city":"Portland"},"count":5,"lat":45.5371,"lng":-122.65},{"_id":{"state":"IL","city":"West Dundee"},"count":1,"lat":42.0984,"lng":-88.3072},{"_id":{"state":"CA","city":"Oakland"},"count":1,"lat":37.7903,"lng":-122.2165},{"_id":{"state":"MS","city":"Biloxi"},"count":1,"lat":30.4422,"lng":-88.9512},{"_id":{"state":"IA","city":"Iowa City"},"count":2,"lat":41.6559,"lng":-91.5304},{"_id":{"state":"VA","city":"Charlottesville"},"count":2,"lat":38.0375,"lng":-78.4855},{"_id":{"state":"CO","city":"Dillon"},"count":1,"lat":39.621,"lng":-106.0386},{"_id":{"state":"HI","city":"Honolulu"},"count":1,"lat":21.3294,"lng":-157.846},{"_id":{"state":"WI","city":"New Glarus"},"count":2,"lat":42.813,"lng":-89.6337},{"_id":{"state":"MI","city":"Holland"},"count":1,"lat":42.7677,"lng":-86.0984},{"_id":{"state":"CO","city":"Colorado Springs"},"count":1,"lat":38.8674,"lng":-104.7606},{"_id":{"state":"WI","city":"Oshkosh"},"count":1,"lat":44.0228,"lng":-88.5617},{"_id":{"state":"NC","city":"Fayetteville"},"count":1,"lat":35.0846,"lng":-78.9776},{"_id":{"state":"CA","city":"Brea"},"count":1,"lat":33.9254,"lng":-117.8654},{"_id":{"state":"CA","city":"Sacramento"},"count":1,"lat":38.5667,"lng":-121.4683},{"_id":{"state":"TX","city":"Fort Worth"},"count":2,"lat":32.7812,"lng":-97.3472},{"_id":{"state":"CA","city":"Solana Beach"},"count":1,"lat":32.9942,"lng":-117.2575},{"_id":{"state":"CO","city":"Denver"},"count":5,"lat":39.7621,"lng":-104.8759},{"_id":{"state":"AZ","city":"Prescott"},"count":1,"lat":34.585,"lng":-112.4475},{"_id":{"state":"CA","city":"Elk Grove"},"count":2,"lat":38.416,"lng":-121.384},{"_id":{"state":"MT","city":"Billings"},"count":1,"lat":45.7889,"lng":-108.5509},{"_id":{"state":"WA","city":"Tumwater"},"count":2,"lat":46.989,"lng":-122.9173},{"_id":{"state":"CA","city":"Mammoth Lakes"},"count":1,"lat":37.6273,"lng":-118.99},{"_id":{"state":"TX","city":"San Antonio"},"count":4,"lat":29.4658,"lng":-98.5254},{"_id":{"state":"CO","city":"Central City"},"count":1,"lat":39.7963,"lng":-105.5151},{"_id":{"state":"ID","city":"Victor"},"count":1,"lat":43.6014,"lng":-111.1107},{"_id":{"state":"IL","city":"Chicago"},"count":1,"lat":41.8373,"lng":-87.6862},{"_id":{"state":"UT","city":"Salt Lake City"},"count":5,"lat":40.7774,"lng":-111.93},{"_id":{"state":"SC","city":"Aiken"},"count":1,"lat":33.5304,"lng":-81.727},{"_id":{"state":"OR","city":"Bend"},"count":2,"lat":44.0562,"lng":-121.3087},{"_id":{"state":"WA","city":"Tacoma"},"count":1,"lat":47.2431,"lng":-122.4531},{"_id":{"state":"TN","city":"Memphis"},"count":1,"lat":35.1046,"lng":-89.9773},{"_id":{"state":"KS","city":"Olathe"},"count":1,"lat":38.8832,"lng":-94.8198},{"_id":{"state":"NY","city":"New York"},"count":1,"lat":40.6943,"lng":-73.9249},{"_id":{"state":"CA","city":"Ft. Bragg"},"count":2,"lat":39.44,"lng":-123.8013},{"_id":{"state":"WA","city":"Bellingham"},"count":1,"lat":48.7543,"lng":-122.4687},{"_id":{"state":"NV","city":"Las Vegas"},"count":1,"lat":36.2333,"lng":-115.2654},{"_id":{"state":"TX","city":"Dallas"},"count":3,"lat":32.7936,"lng":-96.7662},{"_id":{"state":"AK","city":"Juneau"},"count":1,"lat":58.4546,"lng":-134.1739},{"_id":{"state":"VA","city":"Arlington"},"count":2,"lat":38.8786,"lng":-77.1011},{"_id":{"state":"FL","city":"Boca Raton"},"count":2,"lat":26.3749,"lng":-80.1077},{"_id":{"state":"CA","city":"Carlsbad"},"count":2,"lat":33.1247,"lng":-117.2837},{"_id":{"state":"TN","city":"Nashville"},"count":1,"lat":36.1715,"lng":-86.7843},{"_id":{"state":"CA","city":"San Francisco"},"count":1,"lat":37.7562,"lng":-122.443},{"_id":{"state":"TX","city":"Lubbock"},"count":1,"lat":33.5642,"lng":-101.8871},{"_id":{"state":"CO","city":"Englewood"},"count":1,"lat":39.6468,"lng":-104.9942},{"_id":{"state":"CA","city":"San Diego"},"count":1,"lat":32.8312,"lng":-117.1225},{"_id":{"state":"OR","city":"Pacific City"},"count":2,"lat":45.2054,"lng":-123.9536},{"_id":{"state":"CO","city":"Boulder"},"count":1,"lat":40.0249,"lng":-105.2523},{"_id":{"state":"WI","city":"Watertown"},"count":1,"lat":43.1893,"lng":-88.7285},{"_id":{"state":"SC","city":"Myrtle Beach"},"count":1,"lat":33.7096,"lng":-78.8842},{"_id":{"state":"CA","city":"Moreno Valley"},"count":1,"lat":33.9244,"lng":-117.2045}]