[{"_id":{"state":"VA","city":"Ashburn"},"count":1,"lat":39.03,"lng":-77.4711},{"_id":{"state":"CA","city":"Campbell"},"count":1,"lat":37.2801,"lng":-121.9538},{"_id":{"state":"NV","city":"Henderson"},"count":1,"lat":36.0146,"lng":-115.0362},{"_id":{"state":"MT","city":"Billings"},"count":2,"lat":45.7889,"lng":-108.5509},{"_id":{"state":"NV","city":"Las Vegas"},"count":2,"lat":36.2333,"lng":-115.2654},{"_id":{"state":"OR","city":"Eugene"},"count":1,"lat":44.0563,"lng":-123.1173},{"_id":{"state":"AZ","city":"Prescott"},"count":1,"lat":34.585,"lng":-112.4475},{"_id":{"state":"CO","city":"Castle Rock"},"count":1,"lat":39.3762,"lng":-104.8535},{"_id":{"state":"TN","city":"Knoxville"},"count":1,"lat":35.9692,"lng":-83.9496},{"_id":{"state":"CA","city":"Long Beach"},"count":1,"lat":33.798,"lng":-118.1675},{"_id":{"state":"DE","city":"Milton"},"count":1,"lat":38.7751,"lng":-75.3104},{"_id":{"state":"WA","city":"Stevenson"},"count":1,"lat":45.6944,"lng":-121.8932},{"_id":{"state":"GA","city":"Savannah"},"count":1,"lat":32.0281,"lng":-81.1785},{"_id":{"state":"CO","city":"Fort Collins"},"count":4,"lat":40.5475,"lng":-105.0651},{"_id":{"state":"CA","city":"San Clemente"},"count":4,"lat":33.4498,"lng":-117.6103},{"_id":{"state":"NY","city":"Southampton"},"count":2,"lat":40.8778,"lng":-72.4004},{"_id":{"state":"NJ","city":"Princeton"},"count":1,"lat":40.3563,"lng":-74.6693},{"_id":{"state":"OR","city":"Bend"},"count":1,"lat":44.0562,"lng":-121.3087},{"_id":{"state":"MI","city":"Birmingham"},"count":1,"lat":42.5447,"lng":-83.2166},{"_id":{"state":"CA","city":"Santa Rosa"},"count":2,"lat":38.4458,"lng":-122.7067},{"_id":{"state":"NE","city":"Omaha"},"count":2,"lat":41.2628,"lng":-96.0498},{"_id":{"state":"CA","city":"San Diego"},"count":4,"lat":32.8312,"lng":-117.1225},{"_id":{"state":"AK","city":"Juneau"},"count":3,"lat":58.4546,"lng":-134.1739},{"_id":{"state":"VA","city":"Arlington"},"count":2,"lat":38.8786,"lng":-77.1011},{"_id":{"state":"UT","city":"Salt Lake City"},"count":2,"lat":40.7774,"lng":-111.93},{"_id":{"state":"AK","city":"Anchorage"},"count":3,"lat":61.1508,"lng":-149.1091},{"_id":{"state":"WI","city":"New Glarus"},"count":2,"lat":42.813,"lng":-89.6337},{"_id":{"state":"MO","city":"Saint Louis"},"count":5,"lat":38.6358,"lng":-90.2451},{"_id":{"state":"MO","city":"O'Fallon"},"count":1,"lat":38.7851,"lng":-90.7177},{"_id":{"state":"DE","city":"Wilmington"},"count":3,"lat":39.7415,"lng":-75.5413},{"_id":{"state":"CO","city":"Westminster"},"count":1,"lat":39.8837,"lng":-105.0624},{"_id":{"state":"CA","city":"Carlsbad"},"count":1,"lat":33.1247,"lng":-117.2837},{"_id":{"state":"OR","city":"Portland"},"count":1,"lat":45.5371,"lng":-122.65},{"_id":{"state":"CO","city":"Idaho Springs"},"count":1,"lat":39.7445,"lng":-105.5},{"_id":{"state":"KS","city":"Hays"},"count":1,"lat":38.8816,"lng":-99.3219},{"_id":{"state":"ID","city":"Victor"},"count":1,"lat":43.6014,"lng":-111.1107},{"_id":{"state":"CO","city":"Denver"},"count":12,"lat":39.7621,"lng":-104.8759},{"_id":{"state":"CO","city":"Telluride"},"count":1,"lat":37.9365,"lng":-107.8264},{"_id":{"state":"VA","city":"Crozet"},"count":3,"lat":38.0645,"lng":-78.6962},{"_id":{"state":"CA","city":"Fortuna"},"count":1,"lat":40.586,"lng":-124.1424},{"_id":{"state":"CO","city":"Frisco"},"count":1,"lat":39.5793,"lng":-106.0918},{"_id":{"state":"PA","city":"Philadelphia"},"count":2,"lat":40.0077,"lng":-75.1339},{"_id":{"state":"AZ","city":"Scottsdale"},"count":1,"lat":33.6872,"lng":-111.8651},{"_id":{"state":"VA","city":"Centreville"},"count":1,"lat":38.8391,"lng":-77.4388},{"_id":{"state":"WI","city":"Chippewa Falls"},"count":1,"lat":44.9359,"lng":-91.3902},{"_id":{"state":"AL","city":"Auburn"},"count":1,"lat":32.6087,"lng":-85.4899},{"_id":{"state":"IA","city":"Amana"},"count":1,"lat":41.8025,"lng":-91.8741},{"_id":{"state":"NY","city":"New Paltz"},"count":1,"lat":41.7495,"lng":-74.0809},{"_id":{"state":"OH","city":"Independence"},"count":2,"lat":41.378,"lng":-81.6385},{"_id":{"state":"KY","city":"Lexington"},"count":1,"lat":38.0423,"lng":-84.4587},{"_id":{"state":"MI","city":"Royal Oak"},"count":1,"lat":42.5084,"lng":-83.1539},{"_id":{"state":"IN","city":"Indianapolis"},"count":2,"lat":39.7771,"lng":-86.1458},{"_id":{"state":"CA","city":"Etna"},"count":1,"lat":41.4582,"lng":-122.8946},{"_id":{"state":"MI","city":"Rochester"},"count":1,"lat":42.6866,"lng":-83.1197},{"_id":{"state":"CA","city":"Davis"},"count":2,"lat":38.5552,"lng":-121.7365},{"_id":{"state":"NY","city":"Lodi"},"count":1,"lat":42.6135,"lng":-76.8225},{"_id":{"state":"CA","city":"Antioch"},"count":1,"lat":37.9789,"lng":-121.7957},{"_id":{"state":"CA","city":"Berkeley"},"count":2,"lat":37.8723,"lng":-122.276},{"_id":{"state":"CO","city":"Glenwood Springs"},"count":1,"lat":39.5455,"lng":-107.3347},{"_id":{"state":"NJ","city":"Long Valley"},"count":2,"lat":40.7825,"lng":-74.7777},{"_id":{"state":"CO","city":"Englewood"},"count":1,"lat":39.6468,"lng":-104.9942},{"_id":{"state":"ME","city":"Portland"},"count":2,"lat":43.6773,"lng":-70.2715},{"_id":{"state":"CA","city":"Corona"},"count":1,"lat":33.862,"lng":-117.5641},{"_id":{"state":"CA","city":"Brea"},"count":1,"lat":33.9254,"lng":-117.8654},{"_id":{"state":"CA","city":"Solana Beach"},"count":3,"lat":32.9942,"lng":-117.2575},{"_id":{"state":"PA","city":"New Hope"},"count":3,"lat":40.3616,"lng":-74.9574},{"_id":{"state":"NY","city":"Brooklyn"},"count":1,"lat":40.6501,"lng":-73.9496},{"_id":{"state":"NH","city":"Portsmouth"},"count":1,"lat":43.058,"lng":-70.7826},{"_id":{"state":"CO","city":"Golden"},"count":2,"lat":39.7406,"lng":-105.2118},{"_id":{"state":"MI","city":"Flint"},"count":1,"lat":43.0235,"lng":-83.6922},{"_id":{"state":"WI","city":"Milwaukee"},"count":5,"lat":43.0642,"lng":-87.9673},{"_id":{"state":"CA","city":"Healdsburg"},"count":1,"lat":38.6229,"lng":-122.8651},{"_id":{"state":"CO","city":"Dillon"},"count":1,"lat":39.621,"lng":-106.0386},{"_id":{"state":"AZ","city":"Sedona"},"count":1,"lat":34.8574,"lng":-111.7951},{"_id":{"state":"WI","city":"Middleton"},"count":1,"lat":43.1064,"lng":-89.5058},{"_id":{"state":"NY","city":"New York"},"count":1,"lat":40.6943,"lng":-73.9249},{"_id":{"state":"AR","city":"Little Rock"},"count":2,"lat":34.7255,"lng":-92.358},{"_id":{"state":"WI","city":"Wausau"},"count":2,"lat":44.9615,"lng":-89.6457},{"_id":{"state":"TX","city":"Fredericksburg"},"count":1,"lat":30.2671,"lng":-98.8757},{"_id":{"state":"IN","city":"Greenwood"},"count":1,"lat":39.6019,"lng":-86.1073},{"_id":{"state":"MI","city":"Dexter"},"count":1,"lat":42.332,"lng":-83.8802},{"_id":{"state":"MA","city":"Boston"},"count":4,"lat":42.3188,"lng":-71.0846},{"_id":{"state":"NY","city":"Patchogue"},"count":1,"lat":40.7621,"lng":-73.0185},{"_id":{"state":"OR","city":"Pacific City"},"count":3,"lat":45.2054,"lng":-123.9536},{"_id":{"state":"CO","city":"Boulder"},"count":1,"lat":40.0249,"lng":-105.2523},{"_id":{"state":"CA","city":"Chico"},"count":2,"lat":39.7575,"lng":-121.8152},{"_id":{"state":"CO","city":"Durango"},"count":1,"lat":37.2744,"lng":-107.8703},{"_id":{"state":"OH","city":"Rocky River"},"count":2,"lat":41.4703,"lng":-81.8526},{"_id":{"state":"CA","city":"Larkspur"},"count":1,"lat":37.9394,"lng":-122.5313},{"_id":{"state":"WA","city":"Sunnyside"},"count":1,"lat":46.3159,"lng":-120.0058},{"_id":{"state":"HI","city":"Lahaina"},"count":2,"lat":20.8848,"lng":-156.6618},{"_id":{"state":"NY","city":"Rochester"},"count":3,"lat":43.168,"lng":-77.6162},{"_id":{"state":"IL","city":"Chicago"},"count":3,"lat":41.8373,"lng":-87.6862},{"_id":{"state":"TX","city":"Houston"},"count":2,"lat":29.7869,"lng":-95.3905},{"_id":{"state":"OR","city":"Newport"},"count":1,"lat":44.6231,"lng":-124.0524},{"_id":{"state":"CA","city":"McKinleyville"},"count":1,"lat":40.9489,"lng":-124.0857},{"_id":{"state":"CA","city":"Vista"},"count":2,"lat":33.1896,"lng":-117.2386},{"_id":{"state":"CA","city":"Santa Barbara"},"count":1,"lat":34.4285,"lng":-119.7202},{"_id":{"state":"CA","city":"Concord"},"count":3,"lat":37.9722,"lng":-122.0016},{"_id":{"state":"CA","city":"San Marcos"},"count":1,"lat":33.135,"lng":-117.1743},{"_id":{"state":"WA","city":"Redmond"},"count":1,"lat":47.6762,"lng":-122.1169},{"_id":{"state":"CO","city":"Colorado Springs"},"count":1,"lat":38.8674,"lng":-104.7606},{"_id":{"state":"WA","city":"Seattle"},"count":5,"lat":47.6211,"lng":-122.3244},{"_id":{"state":"MN","city":"Minneapolis"},"count":1,"lat":44.9635,"lng":-93.2678},{"_id":{"state":"IL","city":"Flossmoor"},"count":3,"lat":41.5391,"lng":-87.6857},{"_id":{"state":"AZ","city":"Lake Havasu City"},"count":1,"lat":34.5006,"lng":-114.3113},{"_id":{"state":"TX","city":"San Antonio"},"count":9,"lat":29.4658,"lng":-98.5254}]