[{"_id":{"state":"OH","city":"Middleburg Heights"},"count":2,"lat":41.3695,"lng":-81.8151},{"_id":{"state":"TX","city":"Blanco"},"count":1,"lat":30.0987,"lng":-98.4169},{"_id":{"state":"CA","city":"Long Beach"},"count":1,"lat":33.798,"lng":-118.1675},{"_id":{"state":"NC","city":"Wake Forest"},"count":1,"lat":35.9634,"lng":-78.5139},{"_id":{"state":"CA","city":"Torrance"},"count":1,"lat":33.8346,"lng":-118.3417},{"_id":{"state":"CA","city":"San Marcos"},"count":1,"lat":33.135,"lng":-117.1743},{"_id":{"state":"MD","city":"Frederick"},"count":1,"lat":39.4336,"lng":-77.4157},{"_id":{"state":"OR","city":"Portland"},"count":10,"lat":45.5371,"lng":-122.65},{"_id":{"state":"OR","city":"Tillamook"},"count":1,"lat":45.4562,"lng":-123.8331},{"_id":{"state":"OR","city":"Corvallis"},"count":1,"lat":44.5696,"lng":-123.2781},{"_id":{"state":"WA","city":"Kirkland"},"count":1,"lat":47.6997,"lng":-122.2041},{"_id":{"state":"CO","city":"Lafayette"},"count":2,"lat":39.9949,"lng":-105.0997},{"_id":{"state":"NY","city":"Lake George"},"count":1,"lat":43.426,"lng":-73.715},{"_id":{"state":"CA","city":"San Diego"},"count":11,"lat":32.8312,"lng":-117.1225},{"_id":{"state":"WA","city":"Port Townsend"},"count":1,"lat":48.122,"lng":-122.7872},{"_id":{"state":"IL","city":"Naperville"},"count":1,"lat":41.7483,"lng":-88.1657},{"_id":{"state":"WY","city":"Jackson"},"count":2,"lat":43.4721,"lng":-110.7745},{"_id":{"state":"IA","city":"Clive"},"count":1,"lat":41.6147,"lng":-93.7979},{"_id":{"state":"FL","city":"Winter Springs"},"count":1,"lat":28.6889,"lng":-81.2704},{"_id":{"state":"PA","city":"Easton"},"count":1,"lat":40.6858,"lng":-75.2209},{"_id":{"state":"CA","city":"El Segundo"},"count":1,"lat":33.9169,"lng":-118.4021},{"_id":{"state":"NC","city":"High Point"},"count":3,"lat":35.9905,"lng":-79.9937},{"_id":{"state":"CA","city":"Buellton"},"count":2,"lat":34.6152,"lng":-120.1943},{"_id":{"state":"TX","city":"Dallas"},"count":1,"lat":32.7936,"lng":-96.7662},{"_id":{"state":"MN","city":"Brainerd"},"count":1,"lat":46.3553,"lng":-94.1983},{"_id":{"state":"OH","city":"Cincinnati"},"count":1,"lat":39.1412,"lng":-84.506},{"_id":{"state":"TX","city":"Austin"},"count":4,"lat":30.3006,"lng":-97.7517},{"_id":{"state":"WA","city":"Seattle"},"count":4,"lat":47.6211,"lng":-122.3244},{"_id":{"state":"CA","city":"Stockton"},"count":1,"lat":37.9766,"lng":-121.3111},{"_id":{"state":"CA","city":"Fairfax"},"count":1,"lat":37.9884,"lng":-122.595},{"_id":{"state":"TN","city":"Walland"},"count":1,"lat":35.732,"lng":-83.8069},{"_id":{"state":"WA","city":"Olympia"},"count":1,"lat":47.0417,"lng":-122.8959},{"_id":{"state":"CA","city":"Placentia"},"count":2,"lat":33.8807,"lng":-117.8553},{"_id":{"state":"WY","city":"Laramie"},"count":1,"lat":41.3099,"lng":-105.6085},{"_id":{"state":"TN","city":"Chattanooga"},"count":1,"lat":35.0657,"lng":-85.2487},{"_id":{"state":"IL","city":"Warrenville"},"count":1,"lat":41.821,"lng":-88.1857},{"_id":{"state":"MO","city":"St. Louis"},"count":2,"lat":38.6358,"lng":-90.2451},{"_id":{"state":"VA","city":"Arrington"},"count":1,"lat":37.6744,"lng":-78.8928},{"_id":{"state":"CO","city":"Telluride"},"count":1,"lat":37.9365,"lng":-107.8264},{"_id":{"state":"WI","city":"Waukesha"},"count":1,"lat":43.0087,"lng":-88.2464},{"_id":{"state":"CA","city":"Fairfield"},"count":1,"lat":38.2594,"lng":-122.0319},{"_id":{"state":"CA","city":"San Francisco"},"count":2,"lat":37.7562,"lng":-122.443},{"_id":{"state":"IL","city":"Palatine"},"count":1,"lat":42.1181,"lng":-88.043},{"_id":{"state":"WA","city":"Centralia"},"count":1,"lat":46.7225,"lng":-122.9695},{"_id":{"state":"CO","city":"Durango"},"count":4,"lat":37.2744,"lng":-107.8703},{"_id":{"state":"HI","city":"Kihei"},"count":1,"lat":20.7653,"lng":-156.4454},{"_id":{"state":"MI","city":"Ann Arbor"},"count":1,"lat":42.2755,"lng":-83.7312},{"_id":{"state":"MT","city":"Philipsburg"},"count":1,"lat":46.3324,"lng":-113.296},{"_id":{"state":"TX","city":"Granbury"},"count":1,"lat":32.4484,"lng":-97.7685},{"_id":{"state":"FL","city":"Tampa"},"count":1,"lat":27.9942,"lng":-82.4451},{"_id":{"state":"NC","city":"Asheville"},"count":2,"lat":35.5704,"lng":-82.5537},{"_id":{"state":"CA","city":"Santee"},"count":2,"lat":32.8554,"lng":-116.9851},{"_id":{"state":"NE","city":"Papillion"},"count":2,"lat":41.1516,"lng":-96.0679},{"_id":{"state":"CA","city":"San Luis Obispo"},"count":3,"lat":35.267,"lng":-120.6689},{"_id":{"state":"CA","city":"Temecula"},"count":1,"lat":33.4928,"lng":-117.1315},{"_id":{"state":"WY","city":"Sheridan"},"count":1,"lat":44.7962,"lng":-106.9643},{"_id":{"state":"SC","city":"Charleston"},"count":1,"lat":32.8151,"lng":-79.963},{"_id":{"state":"OH","city":"North Olmsted"},"count":3,"lat":41.415,"lng":-81.919},{"_id":{"state":"PA","city":"Phoenixville"},"count":1,"lat":40.1358,"lng":-75.5201},{"_id":{"state":"ME","city":"Portland"},"count":1,"lat":43.6773,"lng":-70.2715},{"_id":{"state":"CA","city":"Lancaster"},"count":1,"lat":34.6934,"lng":-118.1753},{"_id":{"state":"MI","city":"Portage"},"count":1,"lat":42.2,"lng":-85.5906},{"_id":{"state":"VA","city":"Richmond"},"count":2,"lat":37.5295,"lng":-77.4756},{"_id":{"state":"IN","city":"Indianapolis"},"count":2,"lat":39.7771,"lng":-86.1458},{"_id":{"state":"CO","city":"Longmont"},"count":1,"lat":40.169,"lng":-105.0996},{"_id":{"state":"UT","city":"Salt Lake City"},"count":1,"lat":40.7774,"lng":-111.93},{"_id":{"state":"CA","city":"Arroyo Grande"},"count":1,"lat":35.1242,"lng":-120.5845},{"_id":{"state":"CO","city":"Evergreen"},"count":1,"lat":39.6349,"lng":-105.3356},{"_id":{"state":"CA","city":"Truckee"},"count":1,"lat":39.3454,"lng":-120.1848},{"_id":{"state":"CA","city":"Rancho Cucamonga"},"count":1,"lat":34.1248,"lng":-117.5666},{"_id":{"state":"WA","city":"Battle Ground"},"count":1,"lat":45.7764,"lng":-122.5413},{"_id":{"state":"CO","city":"Glenwood Springs"},"count":1,"lat":39.5455,"lng":-107.3347},{"_id":{"state":"VA","city":"Sterling"},"count":1,"lat":39.0052,"lng":-77.405},{"_id":{"state":"CA","city":"El Granada"},"count":1,"lat":37.5134,"lng":-122.466},{"_id":{"state":"MN","city":"Brooklyn Center"},"count":1,"lat":45.0681,"lng":-93.3162},{"_id":{"state":"AZ","city":"Flagstaff"},"count":1,"lat":35.1872,"lng":-111.6195},{"_id":{"state":"CA","city":"Sacramento"},"count":1,"lat":38.5667,"lng":-121.4683},{"_id":{"state":"CO","city":"Denver"},"count":8,"lat":39.7621,"lng":-104.8759},{"_id":{"state":"VA","city":"Lexington"},"count":1,"lat":37.7825,"lng":-79.444},{"_id":{"state":"MI","city":"Milford"},"count":1,"lat":42.587,"lng":-83.6012},{"_id":{"state":"PA","city":"Philadelphia"},"count":1,"lat":40.0077,"lng":-75.1339},{"_id":{"state":"MI","city":"Cedar Springs"},"count":1,"lat":43.2202,"lng":-85.5534},{"_id":{"state":"CA","city":"Oceanside"},"count":1,"lat":33.2247,"lng":-117.3083},{"_id":{"state":"MI","city":"Grand Rapids"},"count":2,"lat":42.9615,"lng":-85.6557},{"_id":{"state":"NC","city":"Greensboro"},"count":1,"lat":36.0956,"lng":-79.8268},{"_id":{"state":"NM","city":"Albuquerque"},"count":6,"lat":35.1053,"lng":-106.6464},{"_id":{"state":"CA","city":"Corona"},"count":1,"lat":33.862,"lng":-117.5641},{"_id":{"state":"ID","city":"Boise"},"count":1,"lat":43.6007,"lng":-116.2312},{"_id":{"state":"OR","city":"Sisters"},"count":1,"lat":44.292,"lng":-121.5534},{"_id":{"state":"CA","city":"Carpinteria"},"count":1,"lat":34.3962,"lng":-119.5117},{"_id":{"state":"CA","city":"Los Angeles"},"count":5,"lat":34.1139,"lng":-118.4068},{"_id":{"state":"CA","city":"Vista"},"count":1,"lat":33.1896,"lng":-117.2386},{"_id":{"state":"TX","city":"Allen"},"count":1,"lat":33.1088,"lng":-96.6735},{"_id":{"state":"NC","city":"Cornelius"},"count":1,"lat":35.4731,"lng":-80.8822},{"_id":{"state":"CA","city":"Berkeley"},"count":1,"lat":37.8723,"lng":-122.276},{"_id":{"state":"CA","city":"San Clemente"},"count":1,"lat":33.4498,"lng":-117.6103},{"_id":{"state":"NV","city":"Las Vegas"},"count":1,"lat":36.2333,"lng":-115.2654},{"_id":{"state":"VA","city":"Woodbridge"},"count":1,"lat":38.6569,"lng":-77.2403},{"_id":{"state":"CO","city":"Fort Collins"},"count":2,"lat":40.5475,"lng":-105.0651},{"_id":{"state":"OR","city":"Hood River"},"count":1,"lat":45.7092,"lng":-121.5258},{"_id":{"state":"NJ","city":"Somerdale"},"count":2,"lat":39.8454,"lng":-75.0218},{"_id":{"state":"IL","city":"Breese"},"count":1,"lat":38.6138,"lng":-89.5231},{"_id":{"state":"CA","city":"Anaheim"},"count":1,"lat":33.839,"lng":-117.8573},{"_id":{"state":"KS","city":"Wichita"},"count":1,"lat":37.6897,"lng":-97.3441},{"_id":{"state":"IA","city":"Cedar Rapids"},"count":3,"lat":41.9667,"lng":-91.6781},{"_id":{"state":"CA","city":"Davis"},"count":2,"lat":38.5552,"lng":-121.7365},{"_id":{"state":"NY","city":"Bay Shore"},"count":1,"lat":40.7317,"lng":-73.2505},{"_id":{"state":"CO","city":"Broomfield"},"count":1,"lat":39.9541,"lng":-105.0527},{"_id":{"state":"ID","city":"Bonners Ferry"},"count":1,"lat":48.6928,"lng":-116.3183},{"_id":{"state":"IL","city":"Normal"},"count":1,"lat":40.522,"lng":-88.9877},{"_id":{"state":"CO","city":"Breckenridge"},"count":1,"lat":39.4994,"lng":-106.0433},{"_id":{"state":"IL","city":"Wheeling"},"count":1,"lat":42.1308,"lng":-87.924},{"_id":{"state":"HI","city":"Lahaina"},"count":1,"lat":20.8848,"lng":-156.6618},{"_id":{"state":"OH","city":"Hartville"},"count":1,"lat":40.9618,"lng":-81.3349},{"_id":{"state":"IL","city":"Plainfield"},"count":1,"lat":41.6205,"lng":-88.226},{"_id":{"state":"CA","city":"Monterey"},"count":1,"lat":36.5922,"lng":-121.8807},{"_id":{"state":"MT","city":"Missoula"},"count":1,"lat":46.8685,"lng":-114.0095},{"_id":{"state":"CA","city":"San Leandro"},"count":2,"lat":37.7071,"lng":-122.1601},{"_id":{"state":"OR","city":"Eugene"},"count":1,"lat":44.0563,"lng":-123.1173},{"_id":{"state":"NC","city":"Farmville"},"count":1,"lat":35.5955,"lng":-77.5913},{"_id":{"state":"WI","city":"Madison"},"count":2,"lat":43.0827,"lng":-89.3923},{"_id":{"state":"CA","city":"Huntington Beach"},"count":1,"lat":33.696,"lng":-118.0025},{"_id":{"state":"OR","city":"Baker City"},"count":1,"lat":44.7749,"lng":-117.832},{"_id":{"state":"VA","city":"Charlottesville"},"count":2,"lat":38.0375,"lng":-78.4855},{"_id":{"state":"VA","city":"Alexandria"},"count":1,"lat":38.8185,"lng":-77.0861},{"_id":{"state":"NC","city":"Hickory"},"count":2,"lat":35.7426,"lng":-81.323},{"_id":{"state":"CA","city":"Arcata"},"count":1,"lat":40.8615,"lng":-124.0757},{"_id":{"state":"VA","city":"Ashburn"},"count":1,"lat":39.03,"lng":-77.4711},{"_id":{"state":"CO","city":"Loveland"},"count":2,"lat":40.4167,"lng":-105.0622},{"_id":{"state":"MA","city":"Somerville"},"count":1,"lat":42.3908,"lng":-71.1013},{"_id":{"state":"VA","city":"Centreville"},"count":1,"lat":38.8391,"lng":-77.4388},{"_id":{"state":"MN","city":"Baxter"},"count":1,"lat":46.3426,"lng":-94.2794},{"_id":{"state":"IL","city":"Evanston"},"count":1,"lat":42.0463,"lng":-87.6942},{"_id":{"state":"TX","city":"Grapevine"},"count":1,"lat":32.9343,"lng":-97.0744},{"_id":{"state":"WA","city":"Redmond"},"count":1,"lat":47.6762,"lng":-122.1169},{"_id":{"state":"GA","city":"Alpharetta"},"count":1,"lat":34.0703,"lng":-84.2738},{"_id":{"state":"MI","city":"Detroit"},"count":1,"lat":42.3834,"lng":-83.1024},{"_id":{"state":"WA","city":"Bellingham"},"count":2,"lat":48.7543,"lng":-122.4687},{"_id":{"state":"NC","city":"Charlotte"},"count":1,"lat":35.2079,"lng":-80.8304},{"_id":{"state":"CO","city":"Erie"},"count":1,"lat":40.0404,"lng":-105.0397},{"_id":{"state":"CA","city":"Larkspur"},"count":1,"lat":37.9394,"lng":-122.5313},{"_id":{"state":"WA","city":"Spokane"},"count":1,"lat":47.6671,"lng":-117.433},{"_id":{"state":"GA","city":"Atlanta"},"count":1,"lat":33.7627,"lng":-84.4225},{"_id":{"state":"CA","city":"Cloverdale"},"count":1,"lat":38.7962,"lng":-123.0154},{"_id":{"state":"OR","city":"Milwaukie"},"count":1,"lat":45.4447,"lng":-122.6221},{"_id":{"state":"CO","city":"Ridgway"},"count":1,"lat":38.1573,"lng":-107.7545},{"_id":{"state":"IN","city":"Evansville"},"count":1,"lat":37.9881,"lng":-87.5341},{"_id":{"state":"NY","city":"Tuckahoe"},"count":1,"lat":40.953,"lng":-73.823},{"_id":{"state":"SC","city":"Travelers Rest"},"count":1,"lat":34.9684,"lng":-82.4417},{"_id":{"state":"WA","city":"Lakewood"},"count":1,"lat":47.1628,"lng":-122.5299},{"_id":{"state":"PA","city":"Croydon"},"count":2,"lat":40.0911,"lng":-74.8975},{"_id":{"state":"MT","city":"Billings"},"count":4,"lat":45.7889,"lng":-108.5509},{"_id":{"state":"MI","city":"Royal Oak"},"count":1,"lat":42.5084,"lng":-83.1539},{"_id":{"state":"CA","city":"Solana Beach"},"count":1,"lat":32.9942,"lng":-117.2575},{"_id":{"state":"CA","city":"Salinas"},"count":1,"lat":36.6884,"lng":-121.6317},{"_id":{"state":"IL","city":"Chicago"},"count":3,"lat":41.8373,"lng":-87.6862},{"_id":{"state":"OH","city":"Millersburg"},"count":1,"lat":40.5534,"lng":-81.9171},{"_id":{"state":"OR","city":"Hillsboro"},"count":1,"lat":45.5272,"lng":-122.936},{"_id":{"state":"CO","city":"Golden"},"count":4,"lat":39.7406,"lng":-105.2118},{"_id":{"state":"NC","city":"Winston-Salem"},"count":1,"lat":36.1029,"lng":-80.261},{"_id":{"state":"CA","city":"Westlake Village"},"count":1,"lat":34.1369,"lng":-118.8221},{"_id":{"state":"CA","city":"Brea"},"count":1,"lat":33.9254,"lng":-117.8654},{"_id":{"state":"NY","city":"Cooperstown"},"count":1,"lat":42.6996,"lng":-74.93},{"_id":{"state":"CA","city":"Auburn"},"count":3,"lat":38.895,"lng":-121.0777},{"_id":{"state":"CA","city":"Tracy"},"count":1,"lat":37.726,"lng":-121.444},{"_id":{"state":"IL","city":"Ava"},"count":1,"lat":37.8886,"lng":-89.4965},{"_id":{"state":"IL","city":"Lemont"},"count":1,"lat":41.6697,"lng":-87.9828},{"_id":{"state":"CO","city":"Frederick"},"count":1,"lat":40.1095,"lng":-104.967},{"_id":{"state":"CA","city":"Riverside"},"count":1,"lat":33.9381,"lng":-117.3948},{"_id":{"state":"NH","city":"Keene"},"count":1,"lat":42.9494,"lng":-72.2997},{"_id":{"state":"CO","city":"Boulder"},"count":2,"lat":40.0249,"lng":-105.2523},{"_id":{"state":"CO","city":"Castle Rock"},"count":1,"lat":39.3762,"lng":-104.8535},{"_id":{"state":"OR","city":"Sherwood"},"count":1,"lat":45.3598,"lng":-122.843},{"_id":{"state":"NC","city":"Raleigh"},"count":4,"lat":35.8324,"lng":-78.6438},{"_id":{"state":"OR","city":"Sunriver"},"count":1,"lat":43.8816,"lng":-121.4368},{"_id":{"state":"IN","city":"Columbus"},"count":2,"lat":39.2094,"lng":-85.9183},{"_id":{"state":"CO","city":"Louisville"},"count":1,"lat":39.9709,"lng":-105.1441},{"_id":{"state":"CO","city":"Aurora"},"count":1,"lat":39.7084,"lng":-104.7274},{"_id":{"state":"VA","city":"Fredericksburg"},"count":1,"lat":38.2992,"lng":-77.4872},{"_id":{"state":"MN","city":"Bemidji"},"count":1,"lat":47.483,"lng":-94.8788},{"_id":{"state":"CO","city":"Niwot"},"count":2,"lat":40.098,"lng":-105.1552},{"_id":{"state":"OR","city":"Bend"},"count":1,"lat":44.0562,"lng":-121.3087}]