[{"_id":{"state":"NC","city":"Wilson"},"count":1,"lat":35.7312,"lng":-77.9284},{"_id":{"state":"CT","city":"Bridgeport"},"count":1,"lat":41.1918,"lng":-73.1953},{"_id":{"state":"CA","city":"Long Beach"},"count":2,"lat":33.798,"lng":-118.1675},{"_id":{"state":"CA","city":"Alameda"},"count":1,"lat":37.767,"lng":-122.2673},{"_id":{"state":"IA","city":"Ankeny"},"count":1,"lat":41.7284,"lng":-93.6034},{"_id":{"state":"CA","city":"San Marcos"},"count":2,"lat":33.135,"lng":-117.1743},{"_id":{"state":"FL","city":"Palmetto"},"count":2,"lat":27.5251,"lng":-82.5751},{"_id":{"state":"OR","city":"Portland"},"count":8,"lat":45.5371,"lng":-122.65},{"_id":{"state":"CA","city":"Bakersfield"},"count":1,"lat":35.353,"lng":-119.0359},{"_id":{"state":"WA","city":"Tukwila"},"count":2,"lat":47.4748,"lng":-122.2727},{"_id":{"state":"FL","city":"Winter Garden"},"count":1,"lat":28.5421,"lng":-81.5966},{"_id":{"state":"CO","city":"Lafayette"},"count":2,"lat":39.9949,"lng":-105.0997},{"_id":{"state":"TX","city":"Blanco"},"count":1,"lat":30.0987,"lng":-98.4169},{"_id":{"state":"TX","city":"Dripping Springs"},"count":1,"lat":30.192,"lng":-98.0811},{"_id":{"state":"CA","city":"San Diego"},"count":11,"lat":32.8312,"lng":-117.1225},{"_id":{"state":"NV","city":"Reno"},"count":2,"lat":39.5497,"lng":-119.8483},{"_id":{"state":"AL","city":"Dothan"},"count":1,"lat":31.2335,"lng":-85.4068},{"_id":{"state":"CA","city":"Kernville"},"count":4,"lat":35.7531,"lng":-118.4321},{"_id":{"state":"WY","city":"Jackson"},"count":1,"lat":43.4721,"lng":-110.7745},{"_id":{"state":"WA","city":"Camas"},"count":1,"lat":45.6003,"lng":-122.4306},{"_id":{"state":"CO","city":"Arvada"},"count":1,"lat":39.8321,"lng":-105.1511},{"_id":{"state":"GA","city":"Savannah"},"count":1,"lat":32.0281,"lng":-81.1785},{"_id":{"state":"CA","city":"Chula Vista"},"count":1,"lat":32.6281,"lng":-117.0145},{"_id":{"state":"NE","city":"Omaha"},"count":1,"lat":41.2628,"lng":-96.0498},{"_id":{"state":"TX","city":"Dallas"},"count":1,"lat":32.7936,"lng":-96.7662},{"_id":{"state":"OH","city":"Cincinnati"},"count":5,"lat":39.1412,"lng":-84.506},{"_id":{"state":"LA","city":"Broussard"},"count":1,"lat":30.1393,"lng":-91.9539},{"_id":{"state":"TX","city":"Austin"},"count":4,"lat":30.3006,"lng":-97.7517},{"_id":{"state":"WA","city":"Seattle"},"count":4,"lat":47.6211,"lng":-122.3244},{"_id":{"state":"CA","city":"San Rafael"},"count":1,"lat":37.9904,"lng":-122.5222},{"_id":{"state":"TX","city":"Fredericksburg"},"count":2,"lat":30.2671,"lng":-98.8757},{"_id":{"state":"CO","city":"Vail"},"count":2,"lat":39.6386,"lng":-106.3608},{"_id":{"state":"TX","city":"Tyler"},"count":1,"lat":32.3184,"lng":-95.3065},{"_id":{"state":"WY","city":"Laramie"},"count":1,"lat":41.3099,"lng":-105.6085},{"_id":{"state":"WA","city":"Bremerton"},"count":2,"lat":47.5436,"lng":-122.7121},{"_id":{"state":"CA","city":"Santa Rosa"},"count":1,"lat":38.4458,"lng":-122.7067},{"_id":{"state":"TN","city":"Chattanooga"},"count":2,"lat":35.0657,"lng":-85.2487},{"_id":{"state":"VA","city":"Crozet"},"count":1,"lat":38.0645,"lng":-78.6962},{"_id":{"state":"CA","city":"Santa Barbara"},"count":1,"lat":34.4285,"lng":-119.7202},{"_id":{"state":"DE","city":"Rehoboth Beach"},"count":1,"lat":38.7168,"lng":-75.0843},{"_id":{"state":"AZ","city":"Tucson"},"count":1,"lat":32.1545,"lng":-110.8782},{"_id":{"state":"MO","city":"St. Louis"},"count":1,"lat":38.6358,"lng":-90.2451},{"_id":{"state":"CA","city":"Covina"},"count":1,"lat":34.0903,"lng":-117.8817},{"_id":{"state":"CA","city":"San Francisco"},"count":2,"lat":37.7562,"lng":-122.443},{"_id":{"state":"CO","city":"Edgewater"},"count":1,"lat":39.7507,"lng":-105.0626},{"_id":{"state":"CO","city":"Lakewood"},"count":1,"lat":39.6977,"lng":-105.1168},{"_id":{"state":"PA","city":"Williamsport"},"count":1,"lat":41.2398,"lng":-77.0371},{"_id":{"state":"MN","city":"Duluth"},"count":1,"lat":46.7757,"lng":-92.1392},{"_id":{"state":"CO","city":"Durango"},"count":1,"lat":37.2744,"lng":-107.8703},{"_id":{"state":"OH","city":"Wooster"},"count":1,"lat":40.8166,"lng":-81.9334},{"_id":{"state":"IL","city":"Geneva"},"count":1,"lat":41.8833,"lng":-88.3242},{"_id":{"state":"FL","city":"Lakeland"},"count":1,"lat":28.0557,"lng":-81.9545},{"_id":{"state":"WA","city":"Yakima"},"count":1,"lat":46.5923,"lng":-120.5496},{"_id":{"state":"FL","city":"Tampa"},"count":2,"lat":27.9942,"lng":-82.4451},{"_id":{"state":"NC","city":"Asheville"},"count":2,"lat":35.5704,"lng":-82.5537},{"_id":{"state":"SC","city":"Charleston"},"count":2,"lat":32.8151,"lng":-79.963},{"_id":{"state":"AZ","city":"Flagstaff"},"count":1,"lat":35.1872,"lng":-111.6195},{"_id":{"state":"CA","city":"Temecula"},"count":1,"lat":33.4928,"lng":-117.1315},{"_id":{"state":"WY","city":"Sheridan"},"count":1,"lat":44.7962,"lng":-106.9643},{"_id":{"state":"UT","city":"Salt Lake City"},"count":4,"lat":40.7774,"lng":-111.93},{"_id":{"state":"CA","city":"Rancho Cucamonga"},"count":2,"lat":34.1248,"lng":-117.5666},{"_id":{"state":"OH","city":"North Olmsted"},"count":1,"lat":41.415,"lng":-81.919},{"_id":{"state":"AZ","city":"Phoenix"},"count":3,"lat":33.5722,"lng":-112.0891},{"_id":{"state":"CO","city":"Longmont"},"count":2,"lat":40.169,"lng":-105.0996},{"_id":{"state":"IN","city":"Indianapolis"},"count":6,"lat":39.7771,"lng":-86.1458},{"_id":{"state":"VA","city":"Richmond"},"count":2,"lat":37.5295,"lng":-77.4756},{"_id":{"state":"PA","city":"Manheim"},"count":1,"lat":40.1631,"lng":-76.3963},{"_id":{"state":"CA","city":"Laguna Hills"},"count":1,"lat":33.592,"lng":-117.6992},{"_id":{"state":"UT","city":"Park City"},"count":1,"lat":40.6505,"lng":-111.502},{"_id":{"state":"NJ","city":"Cape May"},"count":1,"lat":38.9409,"lng":-74.9042},{"_id":{"state":"CA","city":"San Jose"},"count":1,"lat":37.3021,"lng":-121.8489},{"_id":{"state":"IL","city":"Lombard"},"count":1,"lat":41.8741,"lng":-88.0157},{"_id":{"state":"CA","city":"Truckee"},"count":1,"lat":39.3454,"lng":-120.1848},{"_id":{"state":"CO","city":"Highlands Ranch"},"count":1,"lat":39.5419,"lng":-104.9708},{"_id":{"state":"PA","city":"Pittsburgh"},"count":1,"lat":40.4396,"lng":-79.9763},{"_id":{"state":"VA","city":"Williamsburg"},"count":1,"lat":37.2692,"lng":-76.7076},{"_id":{"state":"WI","city":"Milwaukee"},"count":3,"lat":43.0642,"lng":-87.9673},{"_id":{"state":"OH","city":"Cleveland"},"count":3,"lat":41.4767,"lng":-81.6805},{"_id":{"state":"KY","city":"Henderson"},"count":1,"lat":37.8397,"lng":-87.5798},{"_id":{"state":"CA","city":"Sacramento"},"count":1,"lat":38.5667,"lng":-121.4683},{"_id":{"state":"MN","city":"Annandale"},"count":1,"lat":45.2598,"lng":-94.1206},{"_id":{"state":"CO","city":"Denver"},"count":8,"lat":39.7621,"lng":-104.8759},{"_id":{"state":"MO","city":"Kansas City"},"count":1,"lat":39.1239,"lng":-94.5541},{"_id":{"state":"MI","city":"Milford"},"count":1,"lat":42.587,"lng":-83.6012},{"_id":{"state":"TN","city":"Nashville"},"count":1,"lat":36.1715,"lng":-86.7843},{"_id":{"state":"CA","city":"Tustin"},"count":3,"lat":33.7309,"lng":-117.8106},{"_id":{"state":"CO","city":"Central City"},"count":1,"lat":39.7963,"lng":-105.5151},{"_id":{"state":"TX","city":"San Antonio"},"count":1,"lat":29.4658,"lng":-98.5254},{"_id":{"state":"CA","city":"Claremont"},"count":1,"lat":34.1259,"lng":-117.7153},{"_id":{"state":"NM","city":"Moriarty"},"count":1,"lat":35.0052,"lng":-106.046},{"_id":{"state":"IN","city":"Fishers"},"count":2,"lat":39.9589,"lng":-85.9665},{"_id":{"state":"VA","city":"Hampton"},"count":2,"lat":37.0551,"lng":-76.3629},{"_id":{"state":"NM","city":"Albuquerque"},"count":2,"lat":35.1053,"lng":-106.6464},{"_id":{"state":"CO","city":"Colorado Springs"},"count":2,"lat":38.8674,"lng":-104.7606},{"_id":{"state":"ID","city":"Boise"},"count":3,"lat":43.6007,"lng":-116.2312},{"_id":{"state":"NC","city":"Canton"},"count":1,"lat":35.5516,"lng":-82.8406},{"_id":{"state":"CA","city":"Palmdale"},"count":1,"lat":34.5944,"lng":-118.1057},{"_id":{"state":"CA","city":"Oceanside"},"count":1,"lat":33.2247,"lng":-117.3083},{"_id":{"state":"AZ","city":"Goodyear"},"count":1,"lat":33.2614,"lng":-112.3622},{"_id":{"state":"CO","city":"Idaho Springs"},"count":2,"lat":39.7445,"lng":-105.5},{"_id":{"state":"CA","city":"Los Angeles"},"count":1,"lat":34.1139,"lng":-118.4068},{"_id":{"state":"NY","city":"Buffalo"},"count":1,"lat":42.9017,"lng":-78.8487},{"_id":{"state":"FL","city":"Fort Myers"},"count":1,"lat":26.6195,"lng":-81.8303},{"_id":{"state":"OH","city":"Canton"},"count":2,"lat":40.8076,"lng":-81.3678},{"_id":{"state":"MO","city":"Florissant"},"count":1,"lat":38.7996,"lng":-90.3269},{"_id":{"state":"CA","city":"Oroville"},"count":1,"lat":39.4999,"lng":-121.5634},{"_id":{"state":"NV","city":"Las Vegas"},"count":3,"lat":36.2333,"lng":-115.2654},{"_id":{"state":"NY","city":"Farmingdale"},"count":1,"lat":40.7328,"lng":-73.4465},{"_id":{"state":"CO","city":"Fort Collins"},"count":3,"lat":40.5475,"lng":-105.0651},{"_id":{"state":"OR","city":"Hood River"},"count":1,"lat":45.7092,"lng":-121.5258},{"_id":{"state":"KS","city":"Wichita"},"count":1,"lat":37.6897,"lng":-97.3441},{"_id":{"state":"CA","city":"Scotia"},"count":1,"lat":40.4774,"lng":-124.1032},{"_id":{"state":"CA","city":"Anaheim"},"count":1,"lat":33.839,"lng":-117.8573},{"_id":{"state":"MN","city":"St. Paul"},"count":1,"lat":44.9477,"lng":-93.104},{"_id":{"state":"CA","city":"Davis"},"count":2,"lat":38.5552,"lng":-121.7365},{"_id":{"state":"NY","city":"Bay Shore"},"count":1,"lat":40.7317,"lng":-73.2505},{"_id":{"state":"WA","city":"Burlington"},"count":1,"lat":48.4677,"lng":-122.3298},{"_id":{"state":"OH","city":"Akron"},"count":1,"lat":41.0798,"lng":-81.5219},{"_id":{"state":"IA","city":"Newton"},"count":2,"lat":41.6964,"lng":-93.0403},{"_id":{"state":"CA","city":"Newport Beach"},"count":2,"lat":33.6151,"lng":-117.8669},{"_id":{"state":"WI","city":"Superior"},"count":1,"lat":46.6941,"lng":-92.0823},{"_id":{"state":"MI","city":"Grand Haven"},"count":1,"lat":43.0553,"lng":-86.2201},{"_id":{"state":"MN","city":"Hutchinson"},"count":1,"lat":44.8856,"lng":-94.3768},{"_id":{"state":"CA","city":"San Leandro"},"count":1,"lat":37.7071,"lng":-122.1601},{"_id":{"state":"TX","city":"Addison"},"count":1,"lat":32.9586,"lng":-96.8356},{"_id":{"state":"WI","city":"Madison"},"count":2,"lat":43.0827,"lng":-89.3923},{"_id":{"state":"OR","city":"Baker City"},"count":1,"lat":44.7749,"lng":-117.832},{"_id":{"state":"VA","city":"Alexandria"},"count":1,"lat":38.8185,"lng":-77.0861},{"_id":{"state":"CA","city":"Richmond"},"count":1,"lat":37.9477,"lng":-122.339},{"_id":{"state":"ID","city":"Victor"},"count":1,"lat":43.6014,"lng":-111.1107},{"_id":{"state":"MO","city":"Columbia"},"count":1,"lat":38.9477,"lng":-92.3255},{"_id":{"state":"CA","city":"Carlsbad"},"count":1,"lat":33.1247,"lng":-117.2837},{"_id":{"state":"VA","city":"Ashburn"},"count":1,"lat":39.03,"lng":-77.4711},{"_id":{"state":"CA","city":"San Gabriel"},"count":1,"lat":34.0948,"lng":-118.099},{"_id":{"state":"CO","city":"Steamboat Springs"},"count":1,"lat":40.4774,"lng":-106.8233},{"_id":{"state":"MT","city":"Sidney"},"count":2,"lat":47.7152,"lng":-104.168},{"_id":{"state":"NC","city":"Charlotte"},"count":6,"lat":35.2079,"lng":-80.8304},{"_id":{"state":"NM","city":"Santa Fe"},"count":4,"lat":35.6619,"lng":-105.9819},{"_id":{"state":"WA","city":"Bellingham"},"count":1,"lat":48.7543,"lng":-122.4687},{"_id":{"state":"NC","city":"Holly Springs"},"count":1,"lat":35.654,"lng":-78.8403},{"_id":{"state":"TX","city":"Marble Falls"},"count":1,"lat":30.5677,"lng":-98.2751},{"_id":{"state":"CO","city":"Erie"},"count":1,"lat":40.0404,"lng":-105.0397},{"_id":{"state":"MO","city":"St. Joseph"},"count":1,"lat":39.7598,"lng":-94.821},{"_id":{"state":"WA","city":"Walla Walla"},"count":1,"lat":46.0669,"lng":-118.3365},{"_id":{"state":"GA","city":"Atlanta"},"count":1,"lat":33.7627,"lng":-84.4225},{"_id":{"state":"MO","city":"Springfield"},"count":1,"lat":37.1943,"lng":-93.2915},{"_id":{"state":"NJ","city":"Collingswood"},"count":1,"lat":39.9161,"lng":-75.0759},{"_id":{"state":"CA","city":"Orange"},"count":2,"lat":33.8038,"lng":-117.8218},{"_id":{"state":"TX","city":"Houston"},"count":2,"lat":29.7869,"lng":-95.3905},{"_id":{"state":"IL","city":"Grayslake"},"count":1,"lat":42.3402,"lng":-88.0338},{"_id":{"state":"IA","city":"Calmar"},"count":2,"lat":43.1811,"lng":-91.8678},{"_id":{"state":"FL","city":"Largo"},"count":1,"lat":27.9088,"lng":-82.7712},{"_id":{"state":"VA","city":"Roanoke"},"count":1,"lat":37.2785,"lng":-79.958},{"_id":{"state":"MT","city":"Billings"},"count":1,"lat":45.7889,"lng":-108.5509},{"_id":{"state":"PA","city":"Perkasie"},"count":1,"lat":40.3719,"lng":-75.292},{"_id":{"state":"MI","city":"Royal Oak"},"count":1,"lat":42.5084,"lng":-83.1539},{"_id":{"state":"CO","city":"Greeley"},"count":2,"lat":40.4151,"lng":-104.7705},{"_id":{"state":"UT","city":"South Salt Lake"},"count":1,"lat":40.7056,"lng":-111.8986},{"_id":{"state":"CA","city":"Solana Beach"},"count":1,"lat":32.9942,"lng":-117.2575},{"_id":{"state":"CA","city":"Salinas"},"count":2,"lat":36.6884,"lng":-121.6317},{"_id":{"state":"IL","city":"Chicago"},"count":4,"lat":41.8373,"lng":-87.6862},{"_id":{"state":"IL","city":"Lemont"},"count":1,"lat":41.6697,"lng":-87.9828},{"_id":{"state":"NE","city":"Kearney"},"count":1,"lat":40.7008,"lng":-99.0847},{"_id":{"state":"OH","city":"Millersburg"},"count":1,"lat":40.5534,"lng":-81.9171},{"_id":{"state":"CO","city":"Golden"},"count":3,"lat":39.7406,"lng":-105.2118},{"_id":{"state":"NC","city":"Winston-Salem"},"count":1,"lat":36.1029,"lng":-80.261},{"_id":{"state":"CO","city":"Frederick"},"count":1,"lat":40.1095,"lng":-104.967},{"_id":{"state":"MT","city":"Bozeman"},"count":3,"lat":45.6828,"lng":-111.0549},{"_id":{"state":"CA","city":"Auburn"},"count":1,"lat":38.895,"lng":-121.0777},{"_id":{"state":"CA","city":"Tracy"},"count":2,"lat":37.726,"lng":-121.444},{"_id":{"state":"MI","city":"Midland"},"count":1,"lat":43.6239,"lng":-84.2316},{"_id":{"state":"WI","city":"Stevens Point"},"count":1,"lat":44.5241,"lng":-89.5508},{"_id":{"state":"WA","city":"Vancouver"},"count":1,"lat":45.6367,"lng":-122.597},{"_id":{"state":"VA","city":"Harrisonburg"},"count":1,"lat":38.4362,"lng":-78.8735},{"_id":{"state":"SD","city":"Spearfish"},"count":1,"lat":44.4912,"lng":-103.8167},{"_id":{"state":"CA","city":"Coronado"},"count":1,"lat":32.664,"lng":-117.16},{"_id":{"state":"AZ","city":"Tempe"},"count":1,"lat":33.3881,"lng":-111.9318},{"_id":{"state":"CO","city":"Boulder"},"count":3,"lat":40.0249,"lng":-105.2523},{"_id":{"state":"NY","city":"Poughkeepsie"},"count":1,"lat":41.6949,"lng":-73.921},{"_id":{"state":"SC","city":"Greenville"},"count":1,"lat":34.8362,"lng":-82.3649},{"_id":{"state":"OR","city":"McMinnville"},"count":1,"lat":45.211,"lng":-123.1918},{"_id":{"state":"OR","city":"Cannon Beach"},"count":1,"lat":45.8882,"lng":-123.9602},{"_id":{"state":"CO","city":"Aurora"},"count":2,"lat":39.7084,"lng":-104.7274},{"_id":{"state":"NY","city":"Bronx"},"count":1,"lat":40.8501,"lng":-73.8662},{"_id":{"state":"PA","city":"Export"},"count":1,"lat":40.417,"lng":-79.6232},{"_id":{"state":"VA","city":"Fredericksburg"},"count":1,"lat":38.2992,"lng":-77.4872},{"_id":{"state":"OH","city":"Columbus"},"count":1,"lat":39.986,"lng":-82.9851},{"_id":{"state":"IN","city":"Bloomington"},"count":1,"lat":39.1637,"lng":-86.5257},{"_id":{"state":"IL","city":"Algonquin"},"count":1,"lat":42.1629,"lng":-88.3158},{"_id":{"state":"OR","city":"Bend"},"count":2,"lat":44.0562,"lng":-121.3087}]