[{"_id":{"state":"NE","city":"Lincoln"},"count":2,"lat":40.8088,"lng":-96.6796},{"_id":{"state":"IN","city":"Hammond"},"count":1,"lat":41.6169,"lng":-87.4909},{"_id":{"state":"TX","city":"Austin"},"count":3,"lat":30.3006,"lng":-97.7517},{"_id":{"state":"LA","city":"Broussard"},"count":1,"lat":30.1393,"lng":-91.9539},{"_id":{"state":"OH","city":"Cincinnati"},"count":4,"lat":39.1412,"lng":-84.506},{"_id":{"state":"WA","city":"Seattle"},"count":7,"lat":47.6211,"lng":-122.3244},{"_id":{"state":"CA","city":"San Juan Capistrano"},"count":3,"lat":33.5009,"lng":-117.6544},{"_id":{"state":"GA","city":"Ball Ground"},"count":1,"lat":34.3426,"lng":-84.3635},{"_id":{"state":"MO","city":"North Kansas City"},"count":1,"lat":39.1396,"lng":-94.5643},{"_id":{"state":"MD","city":"Bethesda"},"count":1,"lat":38.9866,"lng":-77.1188},{"_id":{"state":"IL","city":"Crystal Lake"},"count":1,"lat":42.2332,"lng":-88.3349},{"_id":{"state":"FL","city":"Palm Bay"},"count":1,"lat":27.955,"lng":-80.6628},{"_id":{"state":"AZ","city":"Gilbert"},"count":1,"lat":33.3103,"lng":-111.7463},{"_id":{"state":"TX","city":"Dripping Springs"},"count":1,"lat":30.192,"lng":-98.0811},{"_id":{"state":"CA","city":"San Diego"},"count":11,"lat":32.8312,"lng":-117.1225},{"_id":{"state":"CO","city":"Lafayette"},"count":3,"lat":39.9949,"lng":-105.0997},{"_id":{"state":"CA","city":"Windsor"},"count":1,"lat":38.5418,"lng":-122.8086},{"_id":{"state":"NY","city":"Patchogue"},"count":1,"lat":40.7621,"lng":-73.0185},{"_id":{"state":"OR","city":"Portland"},"count":7,"lat":45.5371,"lng":-122.65},{"_id":{"state":"FL","city":"Palmetto"},"count":1,"lat":27.5251,"lng":-82.5751},{"_id":{"state":"CA","city":"San Marcos"},"count":1,"lat":33.135,"lng":-117.1743},{"_id":{"state":"WA","city":"Issaquah"},"count":1,"lat":47.542,"lng":-122.0444},{"_id":{"state":"CA","city":"Torrance"},"count":1,"lat":33.8346,"lng":-118.3417},{"_id":{"state":"CA","city":"Long Beach"},"count":1,"lat":33.798,"lng":-118.1675},{"_id":{"state":"OH","city":"Sharonville"},"count":3,"lat":39.2825,"lng":-84.4069},{"_id":{"state":"TX","city":"Blanco"},"count":2,"lat":30.0987,"lng":-98.4169},{"_id":{"state":"NJ","city":"Carlstadt"},"count":1,"lat":40.8247,"lng":-74.0613},{"_id":{"state":"MD","city":"Silver Spring"},"count":1,"lat":39.0028,"lng":-77.0207},{"_id":{"state":"TN","city":"Hendersonville"},"count":1,"lat":36.3063,"lng":-86.5998},{"_id":{"state":"DE","city":"Newark"},"count":2,"lat":39.6776,"lng":-75.7573},{"_id":{"state":"CO","city":"Centennial"},"count":1,"lat":39.5926,"lng":-104.8674},{"_id":{"state":"OH","city":"Dayton"},"count":1,"lat":39.7797,"lng":-84.1998},{"_id":{"state":"GA","city":"Athens"},"count":1,"lat":33.9508,"lng":-83.3689},{"_id":{"state":"AR","city":"Rogers"},"count":1,"lat":36.3172,"lng":-94.1518},{"_id":{"state":"CA","city":"San Francisco"},"count":2,"lat":37.7562,"lng":-122.443},{"_id":{"state":"IA","city":"Iowa City"},"count":1,"lat":41.6559,"lng":-91.5304},{"_id":{"state":"TX","city":"The Colony"},"count":1,"lat":33.0927,"lng":-96.8977},{"_id":{"state":"TX","city":"Columbus"},"count":1,"lat":29.7055,"lng":-96.5563},{"_id":{"state":"VA","city":"Arrington"},"count":1,"lat":37.6744,"lng":-78.8928},{"_id":{"state":"AZ","city":"Tucson"},"count":1,"lat":32.1545,"lng":-110.8782},{"_id":{"state":"CA","city":"Santa Barbara"},"count":1,"lat":34.4285,"lng":-119.7202},{"_id":{"state":"DE","city":"Rehoboth Beach"},"count":1,"lat":38.7168,"lng":-75.0843},{"_id":{"state":"NY","city":"Lockport"},"count":1,"lat":43.1698,"lng":-78.6956},{"_id":{"state":"NV","city":"Henderson"},"count":1,"lat":36.0146,"lng":-115.0362},{"_id":{"state":"CA","city":"Grover Beach"},"count":1,"lat":35.1204,"lng":-120.6199},{"_id":{"state":"CA","city":"Placentia"},"count":2,"lat":33.8807,"lng":-117.8553},{"_id":{"state":"CA","city":"Santa Rosa"},"count":2,"lat":38.4458,"lng":-122.7067},{"_id":{"state":"MI","city":"Flint"},"count":1,"lat":43.0235,"lng":-83.6922},{"_id":{"state":"TN","city":"Knoxville"},"count":3,"lat":35.9692,"lng":-83.9496},{"_id":{"state":"PA","city":"Pittsburgh"},"count":1,"lat":40.4396,"lng":-79.9763},{"_id":{"state":"TN","city":"Chattanooga"},"count":1,"lat":35.0657,"lng":-85.2487},{"_id":{"state":"IL","city":"Skokie"},"count":1,"lat":42.036,"lng":-87.74},{"_id":{"state":"CO","city":"Winter Park"},"count":1,"lat":39.8779,"lng":-105.7827},{"_id":{"state":"CA","city":"Lincoln"},"count":1,"lat":38.8759,"lng":-121.2916},{"_id":{"state":"CA","city":"Truckee"},"count":1,"lat":39.3454,"lng":-120.1848},{"_id":{"state":"NY","city":"Brooklyn"},"count":1,"lat":40.6501,"lng":-73.9496},{"_id":{"state":"CA","city":"Martinez"},"count":1,"lat":37.9985,"lng":-122.116},{"_id":{"state":"NJ","city":"Cape May"},"count":1,"lat":38.9409,"lng":-74.9042},{"_id":{"state":"IN","city":"Indianapolis"},"count":4,"lat":39.7771,"lng":-86.1458},{"_id":{"state":"CO","city":"Longmont"},"count":6,"lat":40.169,"lng":-105.0996},{"_id":{"state":"OH","city":"Youngstown"},"count":1,"lat":41.0993,"lng":-80.6463},{"_id":{"state":"AZ","city":"Phoenix"},"count":2,"lat":33.5722,"lng":-112.0891},{"_id":{"state":"ME","city":"Portland"},"count":2,"lat":43.6773,"lng":-70.2715},{"_id":{"state":"UT","city":"Salt Lake City"},"count":3,"lat":40.7774,"lng":-111.93},{"_id":{"state":"OH","city":"North Olmsted"},"count":1,"lat":41.415,"lng":-81.919},{"_id":{"state":"CA","city":"San Luis Obispo"},"count":3,"lat":35.267,"lng":-120.6689},{"_id":{"state":"CA","city":"Oakland"},"count":3,"lat":37.7903,"lng":-122.2165},{"_id":{"state":"WY","city":"Sheridan"},"count":2,"lat":44.7962,"lng":-106.9643},{"_id":{"state":"AZ","city":"Flagstaff"},"count":1,"lat":35.1872,"lng":-111.6195},{"_id":{"state":"FL","city":"Tampa"},"count":1,"lat":27.9942,"lng":-82.4451},{"_id":{"state":"CA","city":"Santee"},"count":1,"lat":32.8554,"lng":-116.9851},{"_id":{"state":"CA","city":"Visalia"},"count":1,"lat":36.3276,"lng":-119.3269},{"_id":{"state":"DC","city":"Washington"},"count":1,"lat":38.9047,"lng":-77.0163},{"_id":{"state":"TX","city":"Rowlett"},"count":2,"lat":32.9157,"lng":-96.5488},{"_id":{"state":"MO","city":"Florissant"},"count":1,"lat":38.7996,"lng":-90.3269},{"_id":{"state":"MD","city":"Gaithersburg"},"count":1,"lat":39.1346,"lng":-77.2132},{"_id":{"state":"CO","city":"Lone Tree"},"count":1,"lat":39.5309,"lng":-104.871},{"_id":{"state":"CA","city":"Los Angeles"},"count":7,"lat":34.1139,"lng":-118.4068},{"_id":{"state":"CO","city":"Idaho Springs"},"count":1,"lat":39.7445,"lng":-105.5},{"_id":{"state":"WA","city":"Renton"},"count":1,"lat":47.4758,"lng":-122.1905},{"_id":{"state":"IL","city":"Huntley"},"count":2,"lat":42.16,"lng":-88.433},{"_id":{"state":"NM","city":"Albuquerque"},"count":2,"lat":35.1053,"lng":-106.6464},{"_id":{"state":"CO","city":"Colorado Springs"},"count":2,"lat":38.8674,"lng":-104.7606},{"_id":{"state":"OK","city":"Oklahoma City"},"count":2,"lat":35.4676,"lng":-97.5137},{"_id":{"state":"CA","city":"Corona"},"count":1,"lat":33.862,"lng":-117.5641},{"_id":{"state":"LA","city":"Baton Rouge"},"count":1,"lat":30.4419,"lng":-91.131},{"_id":{"state":"CA","city":"Rocklin"},"count":3,"lat":38.8075,"lng":-121.2488},{"_id":{"state":"TX","city":"San Antonio"},"count":3,"lat":29.4658,"lng":-98.5254},{"_id":{"state":"CA","city":"Tustin"},"count":2,"lat":33.7309,"lng":-117.8106},{"_id":{"state":"PA","city":"Philadelphia"},"count":1,"lat":40.0077,"lng":-75.1339},{"_id":{"state":"CO","city":"Central City"},"count":1,"lat":39.7963,"lng":-105.5151},{"_id":{"state":"CA","city":"Grass Valley"},"count":1,"lat":39.2237,"lng":-121.0521},{"_id":{"state":"CA","city":"Oceanside"},"count":3,"lat":33.2247,"lng":-117.3083},{"_id":{"state":"CO","city":"Denver"},"count":13,"lat":39.7621,"lng":-104.8759},{"_id":{"state":"CA","city":"Claremont"},"count":1,"lat":34.1259,"lng":-117.7153},{"_id":{"state":"CA","city":"Hawthorne"},"count":1,"lat":33.9146,"lng":-118.3476},{"_id":{"state":"CA","city":"Sacramento"},"count":1,"lat":38.5667,"lng":-121.4683},{"_id":{"state":"TN","city":"Nashville"},"count":3,"lat":36.1715,"lng":-86.7843},{"_id":{"state":"WI","city":"Milwaukee"},"count":1,"lat":43.0642,"lng":-87.9673},{"_id":{"state":"AZ","city":"Scottsdale"},"count":1,"lat":33.6872,"lng":-111.8651},{"_id":{"state":"IL","city":"Plainfield"},"count":1,"lat":41.6205,"lng":-88.226},{"_id":{"state":"TX","city":"Driftwood"},"count":1,"lat":30.133,"lng":-98.0373},{"_id":{"state":"OH","city":"Akron"},"count":1,"lat":41.0798,"lng":-81.5219},{"_id":{"state":"CA","city":"Camarillo"},"count":1,"lat":34.223,"lng":-119.0322},{"_id":{"state":"NC","city":"Fairview"},"count":1,"lat":35.1545,"lng":-80.5345},{"_id":{"state":"CT","city":"Newtown"},"count":1,"lat":41.4119,"lng":-73.312},{"_id":{"state":"CA","city":"Davis"},"count":1,"lat":38.5552,"lng":-121.7365},{"_id":{"state":"NY","city":"Bay Shore"},"count":1,"lat":40.7317,"lng":-73.2505},{"_id":{"state":"CA","city":"Anaheim"},"count":1,"lat":33.839,"lng":-117.8573},{"_id":{"state":"NY","city":"Beacon"},"count":1,"lat":41.5036,"lng":-73.9655},{"_id":{"state":"KS","city":"Wichita"},"count":1,"lat":37.6897,"lng":-97.3441},{"_id":{"state":"CA","city":"San Clemente"},"count":1,"lat":33.4498,"lng":-117.6103},{"_id":{"state":"WA","city":"Snohomish"},"count":1,"lat":47.9277,"lng":-122.097},{"_id":{"state":"CA","city":"Rancho Santa Margarita"},"count":1,"lat":33.6317,"lng":-117.5989},{"_id":{"state":"OH","city":"Loveland"},"count":1,"lat":39.2679,"lng":-84.2731},{"_id":{"state":"WA","city":"Spokane"},"count":1,"lat":47.6671,"lng":-117.433},{"_id":{"state":"WA","city":"Bellingham"},"count":2,"lat":48.7543,"lng":-122.4687},{"_id":{"state":"IL","city":"Evanston"},"count":1,"lat":42.0463,"lng":-87.6942},{"_id":{"state":"NC","city":"Charlotte"},"count":2,"lat":35.2079,"lng":-80.8304},{"_id":{"state":"NJ","city":"North Cape May"},"count":1,"lat":38.9765,"lng":-74.9516},{"_id":{"state":"FL","city":"Bradenton"},"count":1,"lat":27.49,"lng":-82.574},{"_id":{"state":"OH","city":"Sylvania"},"count":1,"lat":41.71,"lng":-83.7085},{"_id":{"state":"CA","city":"Carlsbad"},"count":2,"lat":33.1247,"lng":-117.2837},{"_id":{"state":"CA","city":"Redlands"},"count":1,"lat":34.0511,"lng":-117.1712},{"_id":{"state":"SC","city":"Hilton Head Island"},"count":1,"lat":32.1896,"lng":-80.7499},{"_id":{"state":"MO","city":"Columbia"},"count":1,"lat":38.9477,"lng":-92.3255},{"_id":{"state":"CA","city":"Marina del Rey"},"count":1,"lat":33.9765,"lng":-118.4486},{"_id":{"state":"OR","city":"Cascade Locks"},"count":3,"lat":45.6763,"lng":-121.8719},{"_id":{"state":"FL","city":"Pompano Beach"},"count":1,"lat":26.2428,"lng":-80.1312},{"_id":{"state":"WA","city":"Washougal"},"count":1,"lat":45.5812,"lng":-122.3433},{"_id":{"state":"VA","city":"Alexandria"},"count":1,"lat":38.8185,"lng":-77.0861},{"_id":{"state":"CA","city":"Huntington Beach"},"count":2,"lat":33.696,"lng":-118.0025},{"_id":{"state":"CA","city":"Half Moon Bay"},"count":1,"lat":37.4688,"lng":-122.4383},{"_id":{"state":"OR","city":"Eugene"},"count":3,"lat":44.0563,"lng":-123.1173},{"_id":{"state":"CO","city":"Golden"},"count":2,"lat":39.7406,"lng":-105.2118},{"_id":{"state":"MT","city":"Helena"},"count":2,"lat":46.5965,"lng":-112.0199},{"_id":{"state":"NY","city":"Penn Yan"},"count":1,"lat":42.661,"lng":-77.0535},{"_id":{"state":"IL","city":"Chicago"},"count":1,"lat":41.8373,"lng":-87.6862},{"_id":{"state":"OK","city":"McAlester"},"count":1,"lat":34.9262,"lng":-95.7698},{"_id":{"state":"MN","city":"Minneapolis"},"count":2,"lat":44.9635,"lng":-93.2678},{"_id":{"state":"TX","city":"Houston"},"count":5,"lat":29.7869,"lng":-95.3905},{"_id":{"state":"OR","city":"Milwaukie"},"count":2,"lat":45.4447,"lng":-122.6221},{"_id":{"state":"GA","city":"Valdosta"},"count":1,"lat":30.8502,"lng":-83.2788},{"_id":{"state":"GA","city":"Atlanta"},"count":3,"lat":33.7627,"lng":-84.4225},{"_id":{"state":"PA","city":"Hawley"},"count":1,"lat":41.4765,"lng":-75.1779},{"_id":{"state":"OH","city":"Middleburg Heights"},"count":2,"lat":41.3695,"lng":-81.8151},{"_id":{"state":"OR","city":"Bend"},"count":7,"lat":44.0562,"lng":-121.3087},{"_id":{"state":"IN","city":"Bloomington"},"count":1,"lat":39.1637,"lng":-86.5257},{"_id":{"state":"VA","city":"Falls Church"},"count":1,"lat":38.8847,"lng":-77.1751},{"_id":{"state":"OH","city":"Columbus"},"count":2,"lat":39.986,"lng":-82.9851},{"_id":{"state":"KS","city":"Shawnee"},"count":1,"lat":39.0158,"lng":-94.8076},{"_id":{"state":"VA","city":"Front Royal"},"count":1,"lat":38.926,"lng":-78.1838},{"_id":{"state":"FL","city":"Lake Worth"},"count":1,"lat":26.6195,"lng":-80.0591},{"_id":{"state":"CO","city":"Aurora"},"count":2,"lat":39.7084,"lng":-104.7274},{"_id":{"state":"NC","city":"Raleigh"},"count":1,"lat":35.8324,"lng":-78.6438},{"_id":{"state":"LA","city":"New Orleans"},"count":1,"lat":30.0687,"lng":-89.9288},{"_id":{"state":"CO","city":"Boulder"},"count":2,"lat":40.0249,"lng":-105.2523},{"_id":{"state":"SD","city":"Spearfish"},"count":1,"lat":44.4912,"lng":-103.8167},{"_id":{"state":"CO","city":"Castle Rock"},"count":1,"lat":39.3762,"lng":-104.8535},{"_id":{"state":"OH","city":"Massillon"},"count":1,"lat":40.7839,"lng":-81.5256},{"_id":{"state":"CA","city":"Atascadero"},"count":1,"lat":35.4827,"lng":-120.6858},{"_id":{"state":"IA","city":"Cedar Falls"},"count":1,"lat":42.5195,"lng":-92.4534},{"_id":{"state":"MT","city":"Bozeman"},"count":2,"lat":45.6828,"lng":-111.0549}]