[{"_id":{"state":"CA","city":"Oceanside"},"count":4,"lat":33.2247,"lng":-117.3083},{"_id":{"state":"VA","city":"Front Royal"},"count":1,"lat":38.926,"lng":-78.1838},{"_id":{"state":"NJ","city":"Cape May"},"count":1,"lat":38.9409,"lng":-74.9042},{"_id":{"state":"MO","city":"Columbia"},"count":2,"lat":38.9477,"lng":-92.3255},{"_id":{"state":"DC","city":"Washington"},"count":3,"lat":38.9047,"lng":-77.0163},{"_id":{"state":"VA","city":"Waynesboro"},"count":1,"lat":38.0635348,"lng":-78.8732429},{"_id":{"state":"WY","city":"Laramie"},"count":1,"lat":41.3096524,"lng":-105.5947511},{"_id":{"state":"IL","city":"Huntley"},"count":2,"lat":42.16,"lng":-88.433},{"_id":{"state":"NY","city":"Bay Shore"},"count":1,"lat":40.7317,"lng":-73.2505},{"_id":{"state":"ID","city":"Boise"},"count":2,"lat":43.6547592,"lng":-116.2344138},{"_id":{"state":"GA","city":"Atlanta"},"count":5,"lat":33.7627,"lng":-84.4225},{"_id":{"state":"MT","city":"Bozeman"},"count":4,"lat":45.6828,"lng":-111.0549},{"_id":{"state":"OR","city":"Redmond"},"count":1,"lat":44.2739983,"lng":-121.172898},{"_id":{"state":"MT","city":"Lakeside"},"count":1,"lat":48.0162492,"lng":-114.2254338},{"_id":{"state":"","city":"Wurmlingen"},"count":1,"lat":48.0053516,"lng":8.776947999999999},{"_id":{"state":"CO","city":"Boulder"},"count":4,"lat":40.0249,"lng":-105.2523},{"_id":{"state":"","city":"Lavaltrie"},"count":1,"lat":45.8960268,"lng":-73.2687679},{"_id":{"state":"CA","city":"Atascadero"},"count":1,"lat":35.4827,"lng":-120.6858},{"_id":{"state":"","city":"Antwerpen"},"count":1,"lat":51.234776,"lng":4.4107791},{"_id":{"state":"VA","city":"Bedford"},"count":1,"lat":37.3357251,"lng":-79.5185419},{"_id":{"state":"","city":"Brookvale"},"count":1,"lat":-33.7657252,"lng":151.2733211},{"_id":{"state":"WI","city":"Madison"},"count":1,"lat":43.1235209,"lng":-89.3313579},{"_id":{"state":"CO","city":"Edgewater"},"count":2,"lat":39.753134,"lng":-105.0534522},{"_id":{"state":"CA","city":"Costa Mesa"},"count":3,"lat":33.6786961,"lng":-117.8882362},{"_id":{"state":"CA","city":"Orange"},"count":1,"lat":33.8255231,"lng":-117.863888},{"_id":{"state":"NM","city":"Corrales"},"count":1,"lat":35.2307558,"lng":-106.6128471},{"_id":{"state":"CA","city":"Emeryville"},"count":1,"lat":37.8472906,"lng":-122.2909521},{"_id":{"state":"TX","city":"Houston"},"count":10,"lat":29.7869,"lng":-95.3905},{"_id":{"state":"CO","city":"Colorado Springs"},"count":2,"lat":38.8674,"lng":-104.7606},{"_id":{"state":"CA","city":"Visalia"},"count":1,"lat":36.3276,"lng":-119.3269},{"_id":{"state":"MD","city":"Bethesda"},"count":1,"lat":38.9866,"lng":-77.1188},{"_id":{"state":"PA","city":"Pittsburgh"},"count":3,"lat":40.4396,"lng":-79.9763},{"_id":{"state":"IL","city":"Woodstock"},"count":1,"lat":42.2997398,"lng":-88.4165191},{"_id":{"state":"CA","city":"Santa Barbara"},"count":1,"lat":34.4285,"lng":-119.7202},{"_id":{"state":"NY","city":"Auburn"},"count":1,"lat":42.9318309,"lng":-76.56834549999999},{"_id":{"state":"FL","city":"Gainesville"},"count":1,"lat":29.6397468,"lng":-82.3244799},{"_id":{"state":"CA","city":"Berkeley"},"count":1,"lat":37.8811107,"lng":-122.3025587},{"_id":{"state":"CO","city":"Loveland"},"count":3,"lat":40.3966476,"lng":-105.0750972},{"_id":{"state":"","city":"Seoul"},"count":1,"lat":37.550263,"lng":126.9970831},{"_id":{"state":"MO","city":"Florissant"},"count":1,"lat":38.7996,"lng":-90.3269},{"_id":{"state":"CA","city":"San Jose"},"count":1,"lat":37.3217282,"lng":-121.8786479},{"_id":{"state":"","city":"Henley-on-Thames"},"count":1,"lat":51.5393256,"lng":-0.9176198000000001},{"_id":{"state":"WA","city":"Issaquah"},"count":1,"lat":47.542,"lng":-122.0444},{"_id":{"state":"WA","city":"Snohomish"},"count":1,"lat":47.9277,"lng":-122.097},{"_id":{"state":"FL","city":"Palmetto"},"count":1,"lat":27.5251,"lng":-82.5751},{"_id":{"state":"MD","city":"Gaithersburg"},"count":1,"lat":39.1346,"lng":-77.2132},{"_id":{"state":"NY","city":"Penn Yan"},"count":1,"lat":42.661,"lng":-77.0535},{"_id":{"state":"AR","city":"Rogers"},"count":1,"lat":36.3172,"lng":-94.1518},{"_id":{"state":"FL","city":"Miami"},"count":1,"lat":25.80045,"lng":-80.19392599999999},{"_id":{"state":"AZ","city":"Phoenix"},"count":3,"lat":33.5722,"lng":-112.0891},{"_id":{"state":"NJ","city":"Little Ferry"},"count":1,"lat":40.85639949999999,"lng":-74.0431375},{"_id":{"state":"CA","city":"Torrance"},"count":1,"lat":33.8346,"lng":-118.3417},{"_id":{"state":"WA","city":"Bremerton"},"count":1,"lat":47.5615458,"lng":-122.6780299},{"_id":{"state":"DE","city":"Wilmington"},"count":1,"lat":39.744655,"lng":-75.5483909},{"_id":{"state":"","city":"Freising"},"count":1,"lat":48.3952883,"lng":11.7289326},{"_id":{"state":"","city":"Amsterdam"},"count":1,"lat":52.385357,"lng":4.9241202},{"_id":{"state":"OR","city":"Portland"},"count":12,"lat":45.5371,"lng":-122.65},{"_id":{"state":"IL","city":"Skokie"},"count":1,"lat":42.036,"lng":-87.74},{"_id":{"state":"CA","city":"Martinez"},"count":1,"lat":37.9985,"lng":-122.116},{"_id":{"state":"DE","city":"Rehoboth Beach"},"count":1,"lat":38.7168,"lng":-75.0843},{"_id":{"state":"LA","city":"Broussard"},"count":1,"lat":30.1393,"lng":-91.9539},{"_id":{"state":"FL","city":"Niceville"},"count":1,"lat":30.5160267,"lng":-86.4580153},{"_id":{"state":"LA","city":"New Orleans"},"count":1,"lat":30.0687,"lng":-89.9288},{"_id":{"state":"TN","city":"Nashville"},"count":3,"lat":36.1715,"lng":-86.7843},{"_id":{"state":"TX","city":"Johnson City"},"count":1,"lat":30.2775002,"lng":-98.41126919999999},{"_id":{"state":"IN","city":"Indianapolis"},"count":6,"lat":39.7771,"lng":-86.1458},{"_id":{"state":"PA","city":"Philadelphia"},"count":1,"lat":40.0077,"lng":-75.1339},{"_id":{"state":"IA","city":"Cedar Falls"},"count":1,"lat":42.5195,"lng":-92.4534},{"_id":{"state":"","city":"Sooke"},"count":1,"lat":48.3785342,"lng":-123.7243487},{"_id":{"state":"NC","city":"Fairview"},"count":1,"lat":35.1545,"lng":-80.5345},{"_id":{"state":"NC","city":"Raleigh"},"count":1,"lat":35.8324,"lng":-78.6438},{"_id":{"state":"OH","city":"Dayton"},"count":1,"lat":39.7797,"lng":-84.1998},{"_id":{"state":"PA","city":"Lancaster"},"count":1,"lat":40.0378755,"lng":-76.3055144},{"_id":{"state":"IN","city":"Bloomington"},"count":2,"lat":39.1637,"lng":-86.5257},{"_id":{"state":"MO","city":"North Kansas City"},"count":1,"lat":39.1396,"lng":-94.5643},{"_id":{"state":"FL","city":"Bradenton"},"count":1,"lat":27.49,"lng":-82.574},{"_id":{"state":"IL","city":"Lake Zurich"},"count":1,"lat":42.1889072,"lng":-88.1094207},{"_id":{"state":"CO","city":"Castle Rock"},"count":1,"lat":39.3762,"lng":-104.8535},{"_id":{"state":"TX","city":"Blanco"},"count":3,"lat":30.0987,"lng":-98.4169},{"_id":{"state":"IA","city":"Calmar"},"count":1,"lat":43.19088360000001,"lng":-91.8715744},{"_id":{"state":"CA","city":"Westlake Village"},"count":1,"lat":34.1551802,"lng":-118.8020092},{"_id":{"state":"NY","city":"Livingston Manor"},"count":1,"lat":41.8922639,"lng":-74.8316628},{"_id":{"state":"CA","city":"Richmond"},"count":1,"lat":37.919474,"lng":-122.348274},{"_id":{"state":"AZ","city":"Flagstaff"},"count":1,"lat":35.1872,"lng":-111.6195},{"_id":{"state":"KS","city":"Wichita"},"count":1,"lat":37.6897,"lng":-97.3441},{"_id":{"state":"CA","city":"San Diego"},"count":14,"lat":32.8312,"lng":-117.1225},{"_id":{"state":"CO","city":"Aurora"},"count":2,"lat":39.7084,"lng":-104.7274},{"_id":{"state":"NM","city":"Albuquerque"},"count":5,"lat":35.1053,"lng":-106.6464},{"_id":{"state":"AK","city":"Anchorage"},"count":1,"lat":61.21962659999999,"lng":-149.8959168},{"_id":{"state":"","city":"Ensenada"},"count":1,"lat":31.8959403,"lng":-116.7083853},{"_id":{"state":"OR","city":"Brookings"},"count":1,"lat":42.05203969999999,"lng":-124.2874998},{"_id":{"state":"","city":"Ottawa"},"count":1,"lat":45.4054528,"lng":-75.7225972},{"_id":{"state":"NY","city":"Beacon"},"count":1,"lat":41.5036,"lng":-73.9655},{"_id":{"state":"OR","city":"Bend"},"count":13,"lat":44.0562,"lng":-121.3087},{"_id":{"state":"","city":"Kanazawa City"},"count":1,"lat":36.6040243,"lng":136.6101024},{"_id":{"state":"NE","city":"La Vista"},"count":1,"lat":41.1718063,"lng":-96.0757173},{"_id":{"state":"NJ","city":"Hackettstown"},"count":1,"lat":40.854361,"lng":-74.8314546},{"_id":{"state":"FL","city":"Apalachicola"},"count":1,"lat":29.727469,"lng":-84.98367379999999},{"_id":{"state":"OK","city":"McAlester"},"count":1,"lat":34.9262,"lng":-95.7698},{"_id":{"state":"VA","city":"Falls Church"},"count":1,"lat":38.8847,"lng":-77.1751},{"_id":{"state":"WY","city":"Cheyenne"},"count":1,"lat":41.131904,"lng":-104.814096},{"_id":{"state":"OR","city":"Oregon City"},"count":1,"lat":45.3616954,"lng":-122.6000965},{"_id":{"state":"NV","city":"Reno"},"count":2,"lat":39.4213157,"lng":-119.7585777},{"_id":{"state":"AZ","city":"Tucson"},"count":1,"lat":32.1545,"lng":-110.8782},{"_id":{"state":"FL","city":"Fort Myers"},"count":1,"lat":26.5617666,"lng":-81.7429373},{"_id":{"state":"CO","city":"Centennial"},"count":3,"lat":39.5926,"lng":-104.8674},{"_id":{"state":"VA","city":"Alexandria"},"count":3,"lat":38.8185,"lng":-77.0861},{"_id":{"state":"TX","city":"Dallas"},"count":2,"lat":32.79681,"lng":-96.8290124},{"_id":{"state":"VA","city":"Norfolk"},"count":1,"lat":36.9269229,"lng":-76.1915235},{"_id":{"state":"CO","city":"Greenwood Village"},"count":1,"lat":39.5972949,"lng":-104.8957705},{"_id":{"state":"CO","city":"Longmont"},"count":6,"lat":40.169,"lng":-105.0996},{"_id":{"state":"TX","city":"San Antonio"},"count":5,"lat":29.4658,"lng":-98.5254},{"_id":{"state":"OR","city":"Tillamook"},"count":1,"lat":45.4580346,"lng":-123.8463654},{"_id":{"state":"WV","city":"Elkins"},"count":1,"lat":38.9223809,"lng":-79.849407},{"_id":{"state":"CA","city":"Auburn"},"count":1,"lat":38.95054,"lng":-121.0817675},{"_id":{"state":"TX","city":"Driftwood"},"count":1,"lat":30.133,"lng":-98.0373},{"_id":{"state":"NY","city":"Brooklyn"},"count":1,"lat":40.6501,"lng":-73.9496},{"_id":{"state":"VA","city":"Leesburg"},"count":1,"lat":39.1150066,"lng":-77.5648126},{"_id":{"state":"OH","city":"Massillon"},"count":1,"lat":40.7839,"lng":-81.5256},{"_id":{"state":"KS","city":"Shawnee"},"count":1,"lat":39.0158,"lng":-94.8076},{"_id":{"state":"NC","city":"Durham"},"count":1,"lat":35.9895842,"lng":-78.8952496},{"_id":{"state":"CA","city":"Grass Valley"},"count":1,"lat":39.2237,"lng":-121.0521},{"_id":{"state":"","city":"Chambly"},"count":1,"lat":45.4411889,"lng":-73.261481},{"_id":{"state":"CA","city":"Ventura"},"count":3,"lat":34.2755872,"lng":-119.2907561},{"_id":{"state":"OR","city":"Milwaukie"},"count":2,"lat":45.4447,"lng":-122.6221},{"_id":{"state":"TX","city":"Fredericksburg"},"count":1,"lat":30.22617339999999,"lng":-98.7969512},{"_id":{"state":"TN","city":"Chattanooga"},"count":1,"lat":35.0657,"lng":-85.2487},{"_id":{"state":"OH","city":"Youngstown"},"count":1,"lat":41.0993,"lng":-80.6463},{"_id":{"state":"","city":"Minamitsuru-gun"},"count":1,"lat":35.458341,"lng":138.760105},{"_id":{"state":"CO","city":"Denver"},"count":21,"lat":39.7621,"lng":-104.8759},{"_id":{"state":"CA","city":"Oakland"},"count":4,"lat":37.7903,"lng":-122.2165},{"_id":{"state":"CO","city":"Winter Park"},"count":1,"lat":39.8779,"lng":-105.7827},{"_id":{"state":"IA","city":"Des Moines"},"count":2,"lat":41.5681381,"lng":-93.6324853},{"_id":{"state":"VA","city":"Bluemont"},"count":1,"lat":39.11069560000001,"lng":-77.8458916},{"_id":{"state":"","city":"North Vancouver"},"count":1,"lat":49.3087425,"lng":-123.0735321},{"_id":{"state":"LA","city":"Baton Rouge"},"count":1,"lat":30.4419,"lng":-91.131},{"_id":{"state":"NY","city":"Lockport"},"count":1,"lat":43.1698,"lng":-78.6956},{"_id":{"state":"","city":"Wellington"},"count":1,"lat":-41.2954481,"lng":174.7668642},{"_id":{"state":"","city":"Nobeoka"},"count":1,"lat":32.6152557,"lng":131.5800295},{"_id":{"state":"CO","city":"Georgetown"},"count":1,"lat":39.7027711,"lng":-105.6982531},{"_id":{"state":"WA","city":"Spokane"},"count":2,"lat":47.6671,"lng":-117.433},{"_id":{"state":"CT","city":"Newtown"},"count":1,"lat":41.4119,"lng":-73.312},{"_id":{"state":"CA","city":"Davis"},"count":1,"lat":38.5552,"lng":-121.7365},{"_id":{"state":"CA","city":"Windsor"},"count":1,"lat":38.5418,"lng":-122.8086},{"_id":{"state":"","city":"Bergamo"},"count":1,"lat":45.6881081,"lng":9.7367028},{"_id":{"state":"OR","city":"Hood River"},"count":1,"lat":45.7146273,"lng":-121.5177986},{"_id":{"state":"IL","city":"Evanston"},"count":2,"lat":42.0463,"lng":-87.6942},{"_id":{"state":"GA","city":"Ball Ground"},"count":1,"lat":34.3426,"lng":-84.3635},{"_id":{"state":"CA","city":"Grover Beach"},"count":1,"lat":35.1204,"lng":-120.6199},{"_id":{"state":"OH","city":"Sharonville"},"count":4,"lat":39.2825,"lng":-84.4069},{"_id":{"state":"CA","city":"San Clemente"},"count":1,"lat":33.4498,"lng":-117.6103},{"_id":{"state":"CA","city":"Hawthorne"},"count":1,"lat":33.9146,"lng":-118.3476},{"_id":{"state":"OR","city":"Sunriver"},"count":3,"lat":43.8641199,"lng":-121.4352632},{"_id":{"state":"","city":"Berkel-Enschot"},"count":1,"lat":51.5425075,"lng":5.1294129},{"_id":{"state":"AZ","city":"Prescott"},"count":1,"lat":34.5344316,"lng":-112.4712284},{"_id":{"state":"CA","city":"San Francisco"},"count":4,"lat":37.7562,"lng":-122.443},{"_id":{"state":"PA","city":"Hawley"},"count":1,"lat":41.4765,"lng":-75.1779},{"_id":{"state":"VT","city":"Stowe"},"count":1,"lat":44.470915,"lng":-72.7351224},{"_id":{"state":"","city":"L\u00e9vis"},"count":1,"lat":46.8217595,"lng":-71.1269113},{"_id":{"state":"OH","city":"Middleburg Heights"},"count":4,"lat":41.3695,"lng":-81.8151},{"_id":{"state":"WA","city":"Leavenworth"},"count":2,"lat":47.59626,"lng":-120.659717},{"_id":{"state":"OH","city":"North Olmsted"},"count":1,"lat":41.415,"lng":-81.919},{"_id":{"state":"CA","city":"Rocklin"},"count":4,"lat":38.8075,"lng":-121.2488},{"_id":{"state":"CA","city":"Rancho Santa Margarita"},"count":1,"lat":33.6317,"lng":-117.5989},{"_id":{"state":"OR","city":"Cascade Locks"},"count":3,"lat":45.6763,"lng":-121.8719},{"_id":{"state":"MD","city":"Queenstown"},"count":1,"lat":38.9562149,"lng":-76.0772094},{"_id":{"state":"IL","city":"Chicago"},"count":2,"lat":41.8373,"lng":-87.6862},{"_id":{"state":"CA","city":"Lincoln"},"count":1,"lat":38.8759,"lng":-121.2916},{"_id":{"state":"","city":"Bristol"},"count":1,"lat":51.45015429999999,"lng":-2.5546787},{"_id":{"state":"NJ","city":"Wildwood"},"count":1,"lat":38.9848224,"lng":-74.8250982},{"_id":{"state":"CA","city":"Redlands"},"count":2,"lat":34.0511,"lng":-117.1712},{"_id":{"state":"MA","city":"Boston"},"count":1,"lat":42.3144277,"lng":-71.1032494},{"_id":{"state":"","city":"Surrey"},"count":1,"lat":49.20988209999999,"lng":-122.8637785},{"_id":{"state":"MT","city":"Helena"},"count":2,"lat":46.5965,"lng":-112.0199},{"_id":{"state":"VA","city":"Roseland"},"count":1,"lat":37.8712761,"lng":-78.9186088},{"_id":{"state":"WA","city":"Seattle"},"count":13,"lat":47.6211,"lng":-122.3244},{"_id":{"state":"CA","city":"Paso Robles"},"count":1,"lat":35.5974655,"lng":-120.6941502},{"_id":{"state":"WA","city":"Kirkland"},"count":1,"lat":47.6783358,"lng":-122.198242},{"_id":{"state":"CA","city":"Sacramento"},"count":1,"lat":38.5667,"lng":-121.4683},{"_id":{"state":"CA","city":"Vista"},"count":4,"lat":33.1354907,"lng":-117.2345423},{"_id":{"state":"CA","city":"Concord"},"count":1,"lat":38.0099509,"lng":-122.0386709},{"_id":{"state":"NJ","city":"North Cape May"},"count":1,"lat":38.9765,"lng":-74.9516},{"_id":{"state":"CA","city":"Anaheim"},"count":1,"lat":33.839,"lng":-117.8573},{"_id":{"state":"VA","city":"Arrington"},"count":1,"lat":37.6744,"lng":-78.8928},{"_id":{"state":"","city":"Gulpen"},"count":1,"lat":50.8145999,"lng":5.890682},{"_id":{"state":"CA","city":"Marina del Rey"},"count":1,"lat":33.9765,"lng":-118.4486},{"_id":{"state":"ME","city":"Portland"},"count":3,"lat":43.6773,"lng":-70.2715},{"_id":{"state":"OH","city":"Loveland"},"count":1,"lat":39.2679,"lng":-84.2731},{"_id":{"state":"CA","city":"Corona"},"count":1,"lat":33.862,"lng":-117.5641},{"_id":{"state":"NC","city":"Boone"},"count":2,"lat":36.20329419999999,"lng":-81.66839209999999},{"_id":{"state":"OH","city":"Cincinnati"},"count":6,"lat":39.1412,"lng":-84.506},{"_id":{"state":"TN","city":"Hendersonville"},"count":2,"lat":36.3063,"lng":-86.5998},{"_id":{"state":"FL","city":"Trinity"},"count":1,"lat":28.1816873,"lng":-82.64999000000002},{"_id":{"state":"CO","city":"Lafayette"},"count":3,"lat":39.9949,"lng":-105.0997},{"_id":{"state":"OH","city":"Mason"},"count":1,"lat":39.3132684,"lng":-84.3018774},{"_id":{"state":"WA","city":"Burlington"},"count":1,"lat":48.4892149,"lng":-122.3412972},{"_id":{"state":"NJ","city":"Carlstadt"},"count":1,"lat":40.8247,"lng":-74.0613},{"_id":{"state":"NV","city":"Minden"},"count":1,"lat":38.962653,"lng":-119.7810521},{"_id":{"state":"MI","city":"Flint"},"count":2,"lat":43.0235,"lng":-83.6922},{"_id":{"state":"CO","city":"Golden"},"count":4,"lat":39.7406,"lng":-105.2118},{"_id":{"state":"WI","city":"Milwaukee"},"count":1,"lat":43.0642,"lng":-87.9673},{"_id":{"state":"OH","city":"Akron"},"count":2,"lat":41.0798,"lng":-81.5219},{"_id":{"state":"FL","city":"Lake Worth"},"count":1,"lat":26.6195,"lng":-80.0591},{"_id":{"state":"FL","city":"Pompano Beach"},"count":1,"lat":26.2428,"lng":-80.1312},{"_id":{"state":"FL","city":"Tampa"},"count":1,"lat":27.9942,"lng":-82.4451},{"_id":{"state":"CA","city":"Carlsbad"},"count":4,"lat":33.1247,"lng":-117.2837},{"_id":{"state":"CA","city":"San Leandro"},"count":2,"lat":37.7825245,"lng":-122.3924605},{"_id":{"state":"CO","city":"Idaho Springs"},"count":1,"lat":39.7445,"lng":-105.5},{"_id":{"state":"AZ","city":"Goodyear"},"count":2,"lat":33.45640900000001,"lng":-112.395652},{"_id":{"state":"NC","city":"Huntersville"},"count":1,"lat":35.4613747,"lng":-80.84744979999999},{"_id":{"state":"CA","city":"Truckee"},"count":3,"lat":39.3454,"lng":-120.1848},{"_id":{"state":"SC","city":"Columbia"},"count":1,"lat":33.9923657,"lng":-81.0414201},{"_id":{"state":"WA","city":"Renton"},"count":1,"lat":47.4758,"lng":-122.1905},{"_id":{"state":"WY","city":"Jackson"},"count":1,"lat":43.4623505,"lng":-110.7981392},{"_id":{"state":"TX","city":"Austin"},"count":7,"lat":30.3006,"lng":-97.7517},{"_id":{"state":"CA","city":"Claremont"},"count":1,"lat":34.1259,"lng":-117.7153},{"_id":{"state":"CA","city":"Danville"},"count":1,"lat":37.8209882,"lng":-122.0001226},{"_id":{"state":"OK","city":"Oklahoma City"},"count":3,"lat":35.4676,"lng":-97.5137},{"_id":{"state":"VT","city":"Burlington"},"count":1,"lat":44.4564517,"lng":-73.2200785},{"_id":{"state":"GA","city":"Brunswick"},"count":1,"lat":31.1473454,"lng":-81.49487479999999},{"_id":{"state":"TN","city":"Knoxville"},"count":4,"lat":35.9692,"lng":-83.9496},{"_id":{"state":"SC","city":"Hilton Head Island"},"count":1,"lat":32.1896,"lng":-80.7499},{"_id":{"state":"CO","city":"Fort Collins"},"count":1,"lat":40.5621911,"lng":-105.0378676},{"_id":{"state":"CA","city":"Los Angeles"},"count":13,"lat":34.1139,"lng":-118.4068},{"_id":{"state":"NC","city":"Winston-Salem"},"count":1,"lat":36.09985959999999,"lng":-80.244216},{"_id":{"state":"NJ","city":"Butler"},"count":1,"lat":41.0017925,"lng":-74.3419639},{"_id":{"state":"VT","city":"Waitsfield"},"count":1,"lat":44.1878849,"lng":-72.8352373},{"_id":{"state":"CA","city":"San Luis Obispo"},"count":4,"lat":35.267,"lng":-120.6689},{"_id":{"state":"SC","city":"Greenville"},"count":1,"lat":34.8612584,"lng":-82.3974412},{"_id":{"state":"TX","city":"New Braunfels"},"count":1,"lat":29.7119779,"lng":-98.2628371},{"_id":{"state":"UT","city":"Salt Lake City"},"count":7,"lat":40.7774,"lng":-111.93},{"_id":{"state":"WI","city":"New Glarus"},"count":1,"lat":42.8169548,"lng":-89.6309902},{"_id":{"state":"","city":"Vancouver"},"count":4,"lat":49.2639299,"lng":-123.1053388},{"_id":{"state":"CO","city":"Lone Tree"},"count":1,"lat":39.5309,"lng":-104.871},{"_id":{"state":"CA","city":"Santa Rosa"},"count":3,"lat":38.4458,"lng":-122.7067},{"_id":{"state":"CA","city":"Half Moon Bay"},"count":1,"lat":37.4688,"lng":-122.4383},{"_id":{"state":"CA","city":"San Juan Capistrano"},"count":3,"lat":33.5009,"lng":-117.6544},{"_id":{"state":"NY","city":"Patchogue"},"count":2,"lat":40.7621,"lng":-73.0185},{"_id":{"state":"WA","city":"Bellingham"},"count":2,"lat":48.7543,"lng":-122.4687},{"_id":{"state":"","city":"Bangkok"},"count":1,"lat":13.7563309,"lng":100.5017651},{"_id":{"state":"MN","city":"Minneapolis"},"count":4,"lat":44.9635,"lng":-93.2678},{"_id":{"state":"GA","city":"Athens"},"count":2,"lat":33.9508,"lng":-83.3689},{"_id":{"state":"NV","city":"Las Vegas"},"count":1,"lat":36.2423352,"lng":-115.235755},{"_id":{"state":"IN","city":"Hammond"},"count":1,"lat":41.6169,"lng":-87.4909},{"_id":{"state":"","city":"Hoegaarden"},"count":1,"lat":50.7741677,"lng":4.8873881},{"_id":{"state":"NC","city":"Charlotte"},"count":5,"lat":35.2079,"lng":-80.8304},{"_id":{"state":"GA","city":"Valdosta"},"count":1,"lat":30.8502,"lng":-83.2788},{"_id":{"state":"TX","city":"Columbus"},"count":1,"lat":29.7055,"lng":-96.5563},{"_id":{"state":"CA","city":"San Marcos"},"count":2,"lat":33.135,"lng":-117.1743},{"_id":{"state":"TX","city":"El Paso"},"count":1,"lat":31.8882267,"lng":-106.5808702},{"_id":{"state":"SD","city":"Spearfish"},"count":2,"lat":44.4912,"lng":-103.8167},{"_id":{"state":"CA","city":"Placentia"},"count":3,"lat":33.8807,"lng":-117.8553},{"_id":{"state":"OR","city":"Eugene"},"count":3,"lat":44.0563,"lng":-123.1173},{"_id":{"state":"CA","city":"Long Beach"},"count":1,"lat":33.798,"lng":-118.1675},{"_id":{"state":"MI","city":"Grand Rapids"},"count":2,"lat":42.9851369,"lng":-85.6810929},{"_id":{"state":"NC","city":"Mills River"},"count":1,"lat":35.4308801,"lng":-82.5535402},{"_id":{"state":"IL","city":"Lemont"},"count":1,"lat":41.6759421,"lng":-87.9979374},{"_id":{"state":"","city":"Haarlem"},"count":1,"lat":52.3975668,"lng":4.664592799999999},{"_id":{"state":"IL","city":"Mundelein"},"count":1,"lat":42.2659618,"lng":-87.9987469},{"_id":{"state":"CA","city":"Camarillo"},"count":1,"lat":34.223,"lng":-119.0322},{"_id":{"state":"WA","city":"Washougal"},"count":1,"lat":45.5812,"lng":-122.3433},{"_id":{"state":"IL","city":"Plainfield"},"count":1,"lat":41.6205,"lng":-88.226},{"_id":{"state":"PA","city":"Norristown"},"count":1,"lat":40.12984609999999,"lng":-75.3449527},{"_id":{"state":"WI","city":"Sauk City"},"count":1,"lat":43.2738151,"lng":-89.72015379999999},{"_id":{"state":"PA","city":"Allentown"},"count":1,"lat":40.6017605,"lng":-75.4730269},{"_id":{"state":"FL","city":"Doral"},"count":1,"lat":25.7855024,"lng":-80.3306767},{"_id":{"state":"WY","city":"Sheridan"},"count":2,"lat":44.7962,"lng":-106.9643},{"_id":{"state":"FL","city":"Orlando"},"count":1,"lat":28.4950231,"lng":-81.3739913},{"_id":{"state":"","city":"Edmonton"},"count":1,"lat":53.42901639999999,"lng":-113.4785563},{"_id":{"state":"SC","city":"Charleston"},"count":1,"lat":32.8629281,"lng":-79.9067973},{"_id":{"state":"CA","city":"Tracy"},"count":1,"lat":37.747449,"lng":-121.4126321},{"_id":{"state":"CA","city":"Tustin"},"count":2,"lat":33.7309,"lng":-117.8106},{"_id":{"state":"VA","city":"Fairfax"},"count":1,"lat":38.8470653,"lng":-77.30510269999999},{"_id":{"state":"MA","city":"Cambridge"},"count":2,"lat":42.36799,"lng":-71.09790149999999},{"_id":{"state":"","city":"Toronto"},"count":1,"lat":43.7063894,"lng":-79.3568872},{"_id":{"state":"MD","city":"Silver Spring"},"count":1,"lat":39.0028,"lng":-77.0207},{"_id":{"state":"NE","city":"Lincoln"},"count":3,"lat":40.8088,"lng":-96.6796},{"_id":{"state":"IL","city":"Crystal Lake"},"count":1,"lat":42.2332,"lng":-88.3349},{"_id":{"state":"CA","city":"Alameda"},"count":2,"lat":37.7867214,"lng":-122.3097144},{"_id":{"state":"AZ","city":"Gilbert"},"count":2,"lat":33.3103,"lng":-111.7463},{"_id":{"state":"AZ","city":"Scottsdale"},"count":1,"lat":33.6872,"lng":-111.8651},{"_id":{"state":"CO","city":"Central City"},"count":1,"lat":39.7963,"lng":-105.5151},{"_id":{"state":"","city":"Sherbrooke"},"count":1,"lat":45.40063019999999,"lng":-71.88844759999999},{"_id":{"state":"CA","city":"Monterey"},"count":1,"lat":36.5540352,"lng":-121.9207316},{"_id":{"state":"OH","city":"Sylvania"},"count":1,"lat":41.71,"lng":-83.7085},{"_id":{"state":"NH","city":"Pittsfield"},"count":1,"lat":43.3259417,"lng":-71.3411722},{"_id":{"state":"CA","city":"Huntington Beach"},"count":3,"lat":33.696,"lng":-118.0025},{"_id":{"state":"","city":"Buenos Aires"},"count":2,"lat":-34.6036844,"lng":-58.3815591},{"_id":{"state":"NC","city":"Asheville"},"count":2,"lat":35.5912748,"lng":-82.5559889},{"_id":{"state":"IA","city":"Iowa City"},"count":1,"lat":41.6559,"lng":-91.5304},{"_id":{"state":"CA","city":"Carpinteria"},"count":1,"lat":34.395204,"lng":-119.5217831},{"_id":{"state":"TX","city":"The Colony"},"count":1,"lat":33.0927,"lng":-96.8977},{"_id":{"state":"NV","city":"Henderson"},"count":1,"lat":36.0146,"lng":-115.0362},{"_id":{"state":"MT","city":"Billings"},"count":2,"lat":45.7439499,"lng":-108.5931396},{"_id":{"state":"CA","city":"Stanton"},"count":1,"lat":33.7751923,"lng":-117.9946155},{"_id":{"state":"MN","city":"Duluth"},"count":1,"lat":46.7638621,"lng":-92.12909610000001},{"_id":{"state":"IL","city":"Lombard"},"count":1,"lat":41.8621639,"lng":-88.0006525},{"_id":{"state":"TX","city":"Rowlett"},"count":2,"lat":32.9157,"lng":-96.5488},{"_id":{"state":"IA","city":"Coralville"},"count":1,"lat":41.68228939999999,"lng":-91.55966060000002},{"_id":{"state":"OH","city":"Columbus"},"count":3,"lat":39.986,"lng":-82.9851},{"_id":{"state":"IA","city":"Cedar Rapids"},"count":1,"lat":41.965,"lng":-91.6602778},{"_id":{"state":"","city":"Kyoto"},"count":2,"lat":35.0054372,"lng":135.764734},{"_id":{"state":"TX","city":"Dripping Springs"},"count":1,"lat":30.192,"lng":-98.0811},{"_id":{"state":"VA","city":"Salem"},"count":1,"lat":37.3093521,"lng":-80.0331319},{"_id":{"state":"DE","city":"Newark"},"count":3,"lat":39.6776,"lng":-75.7573},{"_id":{"state":"CA","city":"Santee"},"count":1,"lat":32.8554,"lng":-116.9851},{"_id":{"state":"NC","city":"Lewisville"},"count":2,"lat":36.088771,"lng":-80.50046309999999},{"_id":{"state":"FL","city":"Palm Bay"},"count":1,"lat":27.955,"lng":-80.6628}]