[{"_id":{"$oid":"613eb7df1c1df76a377d62a2"},"medal":"Gold","beer":"Samuel Adams Boston Stock Ale","brewery":"Boston Beer Co.","city":"Boston","state":"MA","style":"Alts","year":1989,"coords":[-71.0846,42.3188],"lat":42.3188,"lng":-71.0846,"comp":"GABF"},{"_id":{"$oid":"613eb7df1c1df76a377d62a3"},"medal":"Silver","beer":"Sun Valley White Cloud Ale","brewery":"Sun Valley Brewing Co.","city":"Hailey","state":"ID","style":"Alts","year":1989,"coords":[-114.3,43.5141],"lat":43.5141,"lng":-114.3,"comp":"GABF"},{"_id":{"$oid":"613eb7df1c1df76a377d62a4"},"medal":"Gold","beer":"Full Sail Amber Ale","brewery":"Full Sail Brewing Co.","city":"Hood River","state":"OR","style":"Amber Ales","year":1989,"coords":[-121.5258,45.7092],"lat":45.7092,"lng":-121.5258,"comp":"GABF"},{"_id":{"$oid":"613eb7df1c1df76a377d62a5"},"medal":"Silver","beer":"1989 Autumn Ale","brewery":"Alaskan Brewing and Bottling Co.","city":"Juneau","state":"AK","style":"Amber Ales","year":1989,"coords":[-134.1739,58.4546],"lat":58.4546,"lng":-134.1739,"comp":"GABF"},{"_id":{"$oid":"613eb7df1c1df76a377d62a6"},"medal":"Bronze","beer":"Hope Red Rooster Ale","brewery":"Hope Brewing Co.","city":"Providence","state":"RI","style":"Amber Ales","year":1989,"coords":[-71.4187,41.823],"lat":41.823,"lng":-71.4187,"comp":"GABF"},{"_id":{"$oid":"613eb7df1c1df76a377d62a7"},"medal":"Gold","beer":"Hudepohl 14-K","brewery":"Hudepohl-Schoenling Brewing Co.","city":"Cleveland","state":"OH","style":"American Light Pilsners","year":1989,"coords":[-81.6805,41.4767],"lat":41.4767,"lng":-81.6805,"comp":"GABF"},{"_id":{"$oid":"613eb7df1c1df76a377d62a8"},"medal":"Silver","beer":"Michelob Light","brewery":"Anheuser-Busch, Inc","city":"Saint Louis","state":"MO","style":"American Light Pilsners","year":1989,"coords":[-90.2451,38.6358],"lat":38.6358,"lng":-90.2451,"comp":"GABF"},{"_id":{"$oid":"613eb7df1c1df76a377d62a9"},"medal":"Bronze","beer":"Boston Lightship","brewery":"Boston Beer Co.","city":"Boston","state":"MA","style":"American Light Pilsners","year":1989,"coords":[-71.0846,42.3188],"lat":42.3188,"lng":-71.0846,"comp":"GABF"},{"_id":{"$oid":"613eb7df1c1df76a377d62aa"},"medal":"Gold","beer":"Busch","brewery":"Anheuser-Busch, Inc","city":"Saint Louis","state":"MO","style":"American Pilsners","year":1989,"coords":[-90.2451,38.6358],"lat":38.6358,"lng":-90.2451,"comp":"GABF"},{"_id":{"$oid":"613eb7df1c1df76a377d62ab"},"medal":"Silver","beer":"Miller High Life","brewery":"Miller Brewing Co.","city":"Milwaukee","state":"WI","style":"American Pilsners","year":1989,"coords":[-87.9673,43.0642],"lat":43.0642,"lng":-87.9673,"comp":"GABF"},{"_id":{"$oid":"613eb7df1c1df76a377d62ac"},"medal":"Bronze","beer":"Budweiser","brewery":"Anheuser-Busch, Inc","city":"Saint Louis","state":"MO","style":"American Pilsners","year":1989,"coords":[-90.2451,38.6358],"lat":38.6358,"lng":-90.2451,"comp":"GABF"},{"_id":{"$oid":"613eb7df1c1df76a377d62ad"},"medal":"Gold","beer":"Lowenbrau Dark Special","brewery":"Miller Brewing Co.","city":"Milwaukee","state":"WI","style":"American Premium Dark Pilsners","year":1989,"coords":[-87.9673,43.0642],"lat":43.0642,"lng":-87.9673,"comp":"GABF"},{"_id":{"$oid":"613eb7df1c1df76a377d62ae"},"medal":"Silver","beer":"Michelob Classic Dark","brewery":"Anheuser-Busch, Inc","city":"Saint Louis","state":"MO","style":"American Premium Dark Pilsners","year":1989,"coords":[-90.2451,38.6358],"lat":38.6358,"lng":-90.2451,"comp":"GABF"},{"_id":{"$oid":"613eb7df1c1df76a377d62af"},"medal":"Bronze","beer":"Berghoff Dark","brewery":"Berghoff-Huber Brewing Co.","city":"Monroe","state":"WI","style":"American Premium Dark Pilsners","year":1989,"coords":[-89.6381,42.603],"lat":42.603,"lng":-89.6381,"comp":"GABF"},{"_id":{"$oid":"613eb7df1c1df76a377d62b0"},"medal":"Gold","beer":"Coors Extra Gold","brewery":"Coors Brewing Co.","city":"Golden","state":"CO","style":"American Premium Pilsners","year":1989,"coords":[-105.2118,39.7406],"lat":39.7406,"lng":-105.2118,"comp":"GABF"},{"_id":{"$oid":"613eb7df1c1df76a377d62b1"},"medal":"Silver","beer":"Coors","brewery":"Coors Brewing Co.","city":"Golden","state":"CO","style":"American Premium Pilsners","year":1989,"coords":[-105.2118,39.7406],"lat":39.7406,"lng":-105.2118,"comp":"GABF"},{"_id":{"$oid":"613eb7df1c1df76a377d62b2"},"medal":"Gold","beer":"Old Foghorn Barley Wine","brewery":"Anchor Brewing Co.","city":"San Francisco","state":"CA","style":"Barley Wines","year":1989,"coords":[-122.443,37.7562],"lat":37.7562,"lng":-122.443,"comp":"GABF"},{"_id":{"$oid":"613eb7df1c1df76a377d62b3"},"medal":"Silver","beer":"Old Dipsea Barley Wine","brewery":"Marin Brewing Co.","city":"Larkspur","state":"CA","style":"Barley Wines","year":1989,"coords":[-122.5313,37.9394],"lat":37.9394,"lng":-122.5313,"comp":"GABF"},{"_id":{"$oid":"613eb7df1c1df76a377d62b4"},"medal":"Gold","beer":"Catamount Gold","brewery":"Catamount Brewing Co.","city":"Windsor","state":"VT","style":"Blond\/Golden Ales","year":1989,"coords":null,"lat":null,"lng":null,"comp":"GABF"},{"_id":{"$oid":"613eb7df1c1df76a377d62b5"},"medal":"Silver","beer":"Oldenberg Blonde","brewery":"Oldenberg Brewery\/Drawbridge","city":"Fort Mitchell","state":"KY","style":"Blond\/Golden Ales","year":1989,"coords":[-84.5563,39.0459],"lat":39.0459,"lng":-84.5563,"comp":"GABF"},{"_id":{"$oid":"613eb7df1c1df76a377d62b6"},"medal":"Bronze","beer":"Summit Sparkling Ale","brewery":"Summit Brewing Co.","city":"Saint Paul","state":"MN","style":"Blond\/Golden Ales","year":1989,"coords":null,"lat":null,"lng":null,"comp":"GABF"},{"_id":{"$oid":"613eb7df1c1df76a377d62b7"},"medal":"Gold","beer":"Kessler Grand Teton Dopplebock","brewery":"Kessler Brewing Co.","city":"Helena","state":"MT","style":"Bock Beers","year":1989,"coords":[-112.0199,46.5965],"lat":46.5965,"lng":-112.0199,"comp":"GABF"},{"_id":{"$oid":"613eb7df1c1df76a377d62b8"},"medal":"Silver","beer":"Old German-Style Bock","brewery":"Frankenmuth Brewery Inc","city":"Frankenmuth","state":"MI","style":"Bock Beers","year":1989,"coords":[-83.7395,43.3321],"lat":43.3321,"lng":-83.7395,"comp":"GABF"},{"_id":{"$oid":"613eb7df1c1df76a377d62b9"},"medal":"Bronze","beer":"Dark Horse","brewery":"Virginia Brewing Co.","city":"Birmingham","state":"AL","style":"Bock Beers","year":1989,"coords":[-86.7987,33.5277],"lat":33.5277,"lng":-86.7987,"comp":"GABF"},{"_id":{"$oid":"613eb7df1c1df76a377d62ba"},"medal":"Gold","beer":"Full Sail Brown Ale","brewery":"Full Sail Brewing Co.","city":"Hood River","state":"OR","style":"Brown Ales","year":1989,"coords":[-121.5258,45.7092],"lat":45.7092,"lng":-121.5258,"comp":"GABF"},{"_id":{"$oid":"613eb7df1c1df76a377d62bb"},"medal":"Silver","beer":"Old Brown Dog Ale","brewery":"The Northampton Brewery","city":"Northamapton","state":"MA","style":"Brown Ales","year":1989,"coords":null,"lat":null,"lng":null,"comp":"GABF"},{"_id":{"$oid":"613eb7df1c1df76a377d62bc"},"medal":"First Place","beer":"Samuel Adams Boston Lager","brewery":"Boston Beer Co.","city":"Boston","state":"MA","style":"Consumer Preference Poll","year":1989,"coords":[-71.0846,42.3188],"lat":42.3188,"lng":-71.0846,"comp":"GABF"},{"_id":{"$oid":"613eb7df1c1df76a377d62bd"},"medal":"Gold","beer":"Little Kings Cream Ale","brewery":"Hudepohl-Schoenling Brewing Co.","city":"Cleveland","state":"OH","style":"Cream Ales","year":1989,"coords":[-81.6805,41.4767],"lat":41.4767,"lng":-81.6805,"comp":"GABF"},{"_id":{"$oid":"613eb7df1c1df76a377d62be"},"medal":"Silver","beer":"Sun Valley Cream Ale","brewery":"Sun Valley Brewing Co.","city":"Hailey","state":"ID","style":"Cream Ales","year":1989,"coords":[-114.3,43.5141],"lat":43.5141,"lng":-114.3,"comp":"GABF"},{"_id":{"$oid":"613eb7df1c1df76a377d62bf"},"medal":"Gold","beer":"Bud Dry","brewery":"Anheuser-Busch, Inc","city":"Saint Louis","state":"MO","style":"Dry Beers","year":1989,"coords":[-90.2451,38.6358],"lat":38.6358,"lng":-90.2451,"comp":"GABF"},{"_id":{"$oid":"613eb7df1c1df76a377d62c0"},"medal":"Silver","beer":"Diamond Head Dry","brewery":"Honolulu Brewing Co.","city":"Honolulu","state":"HI","style":"Dry Beers","year":1989,"coords":[-157.846,21.3294],"lat":21.3294,"lng":-157.846,"comp":"GABF"},{"_id":{"$oid":"613eb7df1c1df76a377d62c1"},"medal":"Bronze","beer":"Esquire Extra Dry Beer","brewery":"Jones Brewing Co.","city":"Smithton","state":"PA","style":"Dry Beers","year":1989,"coords":[-79.7424,40.1538],"lat":40.1538,"lng":-79.7424,"comp":"GABF"},{"_id":{"$oid":"613eb7df1c1df76a377d62c2"},"medal":"Gold","beer":"Schildbrau","brewery":"Millstream Brewing Co.","city":"Amana","state":"IA","style":"European Ambers","year":1989,"coords":[-91.8741,41.8025],"lat":41.8025,"lng":-91.8741,"comp":"GABF"},{"_id":{"$oid":"613eb7df1c1df76a377d62c3"},"medal":"Silver","beer":"Erin Brew","brewery":"Cleveland Brewing Co.","city":"Cleveland","state":"OH","style":"European Ambers","year":1989,"coords":[-81.6805,41.4767],"lat":41.4767,"lng":-81.6805,"comp":"GABF"},{"_id":{"$oid":"613eb7df1c1df76a377d62c4"},"medal":"Bronze","beer":"Wild Boar Special Amber","brewery":"Wild Boar Brewing Co.","city":"Atlanta","state":"GA","style":"European Ambers","year":1989,"coords":[-84.4225,33.7627],"lat":33.7627,"lng":-84.4225,"comp":"GABF"},{"_id":{"$oid":"613eb7df1c1df76a377d62c5"},"medal":"Gold","beer":"Manhattan Gold Lager","brewery":"Mammoth Brewing","city":"New York","state":"NY","style":"European Pilsner","year":1989,"coords":[-73.9249,40.6943],"lat":40.6943,"lng":-73.9249,"comp":"GABF"},{"_id":{"$oid":"613eb7df1c1df76a377d62c6"},"medal":"Silver","beer":"D'Agostino Fresh","brewery":"Mammoth Brewing","city":"New York","state":"NY","style":"European Pilsner","year":1989,"coords":[-73.9249,40.6943],"lat":40.6943,"lng":-73.9249,"comp":"GABF"},{"_id":{"$oid":"613eb7df1c1df76a377d62c7"},"medal":"Bronze","beer":"Saranac 1888","brewery":"F.X. Matt Brewing Co.","city":"Utica","state":"NY","style":"European Pilsner","year":1989,"coords":[-75.226,43.0961],"lat":43.0961,"lng":-75.226,"comp":"GABF"},{"_id":{"$oid":"613eb7df1c1df76a377d62c8"},"medal":"Gold","beer":"Oldenberg Cherry Lager","brewery":"Oldenberg Brewery\/Drawbridge","city":"Fort Mitchell","state":"KY","style":"Fruit Beer","year":1989,"coords":[-84.5563,39.0459],"lat":39.0459,"lng":-84.5563,"comp":"GABF"},{"_id":{"$oid":"613eb7df1c1df76a377d62c9"},"medal":"Gold","beer":"Christmas Ale","brewery":"Anchor Brewing Co.","city":"San Francisco","state":"CA","style":"Fruit Beer","year":1989,"coords":[-122.443,37.7562],"lat":37.7562,"lng":-122.443,"comp":"GABF"},{"_id":{"$oid":"613eb7df1c1df76a377d62ca"},"medal":"Silver","beer":"Tri-City Winter Warmer","brewery":"Tri-City Brewing Co.","city":"Bay City","state":"MI","style":"Fruit Beer","year":1989,"coords":[-83.8886,43.5903],"lat":43.5903,"lng":-83.8886,"comp":"GABF"},{"_id":{"$oid":"613eb7df1c1df76a377d62cb"},"medal":"Gold","beer":"Rubicon India Pale Ale","brewery":"Rubicon Brewing Co.","city":"Sacramento","state":"CA","style":"India Pale Ales","year":1989,"coords":[-121.4683,38.5667],"lat":38.5667,"lng":-121.4683,"comp":"GABF"},{"_id":{"$oid":"613eb7df1c1df76a377d62cc"},"medal":"Silver","beer":"Liberty Ale","brewery":"Anchor Brewing Co.","city":"San Francisco","state":"CA","style":"India Pale Ales","year":1989,"coords":[-122.443,37.7562],"lat":37.7562,"lng":-122.443,"comp":"GABF"},{"_id":{"$oid":"613eb7df1c1df76a377d62cd"},"medal":"Gold","beer":"St. Ides Premium Malt Liquor","brewery":"McKenzie River Partners","city":"San Francisco","state":"CA","style":"Malt Liquor","year":1989,"coords":[-122.443,37.7562],"lat":37.7562,"lng":-122.443,"comp":"GABF"},{"_id":{"$oid":"613eb7df1c1df76a377d62ce"},"medal":"Silver","beer":"Midnight Dragon Malt","brewery":"Hudepohl-Schoenling Brewing Co.","city":"Cleveland","state":"OH","style":"Malt Liquor","year":1989,"coords":[-81.6805,41.4767],"lat":41.4767,"lng":-81.6805,"comp":"GABF"},{"_id":{"$oid":"613eb7df1c1df76a377d62cf"},"medal":"Bronze","beer":"King Cobra","brewery":"Anheuser-Busch, Inc","city":"Saint Louis","state":"MO","style":"Malt Liquor","year":1989,"coords":[-90.2451,38.6358],"lat":38.6358,"lng":-90.2451,"comp":"GABF"},{"_id":{"$oid":"613eb7df1c1df76a377d62d0"},"medal":"Gold","beer":"Old German Dark","brewery":"Frankenmuth Brewery Inc","city":"Frankenmuth","state":"MI","style":"Muenchers","year":1989,"coords":[-83.7395,43.3321],"lat":43.3321,"lng":-83.7395,"comp":"GABF"},{"_id":{"$oid":"613eb7df1c1df76a377d62d1"},"medal":"Silver","beer":"Helenbock Beer","brewery":"Friends Brewing Co.","city":"Kennesaw","state":"GA","style":"Muenchers","year":1989,"coords":[-84.6177,34.0262],"lat":34.0262,"lng":-84.6177,"comp":"GABF"},{"_id":{"$oid":"613eb7df1c1df76a377d62d2"},"medal":"Gold","beer":"Sierra Nevada Pale Ale","brewery":"Sierra Nevada Brewing Co.","city":"Chico","state":"CA","style":"Pale Ales","year":1989,"coords":[-121.8152,39.7575],"lat":39.7575,"lng":-121.8152,"comp":"GABF"},{"_id":{"$oid":"613eb7df1c1df76a377d62d3"},"medal":"Silver","beer":"Post Road Real Ale","brewery":"Old Marlborough Brewing Co.","city":"Framingham","state":"MA","style":"Pale Ales","year":1989,"coords":[-71.4368,42.3085],"lat":42.3085,"lng":-71.4368,"comp":"GABF"},{"_id":{"$oid":"613eb7df1c1df76a377d62d4"},"medal":"Bronze","beer":"Mount Tamalpais Ale","brewery":"Marin Brewing Co.","city":"Larkspur","state":"CA","style":"Pale Ales","year":1989,"coords":[-122.5313,37.9394],"lat":37.9394,"lng":-122.5313,"comp":"GABF"},{"_id":{"$oid":"613eb7df1c1df76a377d62d5"},"medal":"Gold","beer":"Tower Dark","brewery":"Butterfield Brewing Co.","city":"Fresno","state":"CA","style":"Porters","year":1989,"coords":[-119.7941,36.7831],"lat":36.7831,"lng":-119.7941,"comp":"GABF"},{"_id":{"$oid":"613eb7df1c1df76a377d62d6"},"medal":"Silver","beer":"George Washington Porter","brewery":"Boston Beer Co.","city":"Boston","state":"MA","style":"Porters","year":1989,"coords":[-71.0846,42.3188],"lat":42.3188,"lng":-71.0846,"comp":"GABF"},{"_id":{"$oid":"613eb7df1c1df76a377d62d7"},"medal":"Bronze","beer":"Anchor Porter","brewery":"Anchor Brewing Co.","city":"San Francisco","state":"CA","style":"Porters","year":1989,"coords":[-122.443,37.7562],"lat":37.7562,"lng":-122.443,"comp":"GABF"},{"_id":{"$oid":"613eb7df1c1df76a377d62d8"},"medal":"Gold","beer":"Sun Valley Our Holiday Ale","brewery":"Sun Valley Brewing Co.","city":"Hailey","state":"ID","style":"Scottish Ales","year":1989,"coords":[-114.3,43.5141],"lat":43.5141,"lng":-114.3,"comp":"GABF"},{"_id":{"$oid":"613eb7df1c1df76a377d62d9"},"medal":"Silver","beer":"Blue Whale Ale","brewery":"Pacific Coast Brewing Co.","city":"Oakland","state":"CA","style":"Scottish Ales","year":1989,"coords":[-122.2165,37.7903],"lat":37.7903,"lng":-122.2165,"comp":"GABF"},{"_id":{"$oid":"613eb7df1c1df76a377d62da"},"medal":"Gold","beer":"San Quentin Breakout Stout","brewery":"Marin Brewing Co.","city":"Larkspur","state":"CA","style":"Stouts","year":1989,"coords":[-122.5313,37.9394],"lat":37.9394,"lng":-122.5313,"comp":"GABF"},{"_id":{"$oid":"613eb7df1c1df76a377d62db"},"medal":"Silver","beer":"Sierra Nevada Stout","brewery":"Sierra Nevada Brewing Co.","city":"Chico","state":"CA","style":"Stouts","year":1989,"coords":[-121.8152,39.7575],"lat":39.7575,"lng":-121.8152,"comp":"GABF"},{"_id":{"$oid":"613eb7df1c1df76a377d62dc"},"medal":"Bronze","beer":"Rubicon Stout","brewery":"Rubicon Brewing Co.","city":"Sacramento","state":"CA","style":"Stouts","year":1989,"coords":[-121.4683,38.5667],"lat":38.5667,"lng":-121.4683,"comp":"GABF"},{"_id":{"$oid":"613eb7df1c1df76a377d62dd"},"medal":"Gold","beer":"Market Street Oktoberfest","brewery":"Bohannon Brewing Co.","city":"Nashville","state":"TN","style":"Vienna\/Marzen\/Octoberfest Beer","year":1989,"coords":[-86.7843,36.1715],"lat":36.1715,"lng":-86.7843,"comp":"GABF"},{"_id":{"$oid":"613eb7df1c1df76a377d62de"},"medal":"Silver","beer":"Gartenbrau Octoberfest","brewery":"Capital Brewery Co. Inc","city":"Middleton","state":"WI","style":"Vienna\/Marzen\/Octoberfest Beer","year":1989,"coords":[-89.5058,43.1064],"lat":43.1064,"lng":-89.5058,"comp":"GABF"},{"_id":{"$oid":"613eb7df1c1df76a377d62df"},"medal":"Bronze","beer":"Newman's Albany Amber","brewery":"William S Newman Brewing Co.","city":"Albany","state":"NY","style":"Vienna\/Marzen\/Octoberfest Beer","year":1989,"coords":[-73.7987,42.6664],"lat":42.6664,"lng":-73.7987,"comp":"GABF"},{"_id":{"$oid":"613eb7df1c1df76a377d62e0"},"medal":"Gold","beer":"Stoudt's Weizen","brewery":"Stoudt's Brewing Co.","city":"Adamstown","state":"PA","style":"Wheat Beers","year":1989,"coords":[-76.0608,40.2417],"lat":40.2417,"lng":-76.0608,"comp":"GABF"},{"_id":{"$oid":"613eb7df1c1df76a377d62e1"},"medal":"Silver","beer":"Chicago Vice Weizen","brewery":"Goose Island Beer Co.","city":"Chicago","state":"IL","style":"Wheat Beers","year":1989,"coords":[-87.6862,41.8373],"lat":41.8373,"lng":-87.6862,"comp":"GABF"},{"_id":{"$oid":"613eb7df1c1df76a377d62e2"},"medal":"Bronze","beer":"Marin Weiss","brewery":"Marin Brewing Co.","city":"Larkspur","state":"CA","style":"Wheat Beers","year":1989,"coords":[-122.5313,37.9394],"lat":37.9394,"lng":-122.5313,"comp":"GABF"},{"_id":{"$oid":"613eb7df1c1df76a377d62e3"},"medal":"Gold","beer":"Quadtum Leap","brewery":"Revelry Brewing Co.","city":"Charleston","state":"SC","style":"Aged Beer","year":2018,"coords":[-79.963,32.8151],"lat":32.8151,"lng":-79.963,"comp":"GABF"},{"_id":{"$oid":"613eb7df1c1df76a377d62e4"},"medal":"Silver","beer":"Lock, Stock and Brandy Barrel","brewery":"Maize Valley Craft Brewery","city":"Hartville","state":"OH","style":"Aged Beer","year":2018,"coords":[-81.3349,40.9618],"lat":40.9618,"lng":-81.3349,"comp":"GABF"},{"_id":{"$oid":"613eb7df1c1df76a377d62e5"},"medal":"Bronze","beer":"Solzhenitsyn","brewery":"Iron Hill Brewery & Restaurant - Media","city":"Media","state":"PA","style":"Aged Beer","year":2018,"coords":[-75.3888,39.9198],"lat":39.9198,"lng":-75.3888,"comp":"GABF"},{"_id":{"$oid":"613eb7df1c1df76a377d62e6"},"medal":"Gold","beer":"Whitewall Wheat","brewery":"Crank Arm Brewing Co.","city":"Raleigh","state":"NC","style":"American-Belgo-Style Ale","year":2018,"coords":[-78.6438,35.8324],"lat":35.8324,"lng":-78.6438,"comp":"GABF"},{"_id":{"$oid":"613eb7df1c1df76a377d62e7"},"medal":"Silver","beer":"#4.5 Dry Hopped Saison","brewery":"Brown Truck Brewery","city":"High Point","state":"NC","style":"American-Belgo-Style Ale","year":2018,"coords":[-79.9937,35.9905],"lat":35.9905,"lng":-79.9937,"comp":"GABF"},{"_id":{"$oid":"613eb7df1c1df76a377d62e8"},"medal":"Bronze","beer":"Mischief","brewery":"The Bruery","city":"Placentia","state":"CA","style":"American-Belgo-Style Ale","year":2018,"coords":[-117.8553,33.8807],"lat":33.8807,"lng":-117.8553,"comp":"GABF"},{"_id":{"$oid":"613eb7df1c1df76a377d62e9"},"medal":"Gold","beer":"Pecos Amber Lager","brewery":"Texas Beer Co.","city":"Taylor","state":"TX","style":"American-Style Amber Lager","year":2018,"coords":[-97.4233,30.5743],"lat":30.5743,"lng":-97.4233,"comp":"GABF"},{"_id":{"$oid":"613eb7df1c1df76a377d62ea"},"medal":"Silver","beer":"M\u00e4rzen","brewery":"Sudwerk Brewing Co.","city":"Davis","state":"CA","style":"American-Style Amber Lager","year":2018,"coords":[-121.7365,38.5552],"lat":38.5552,"lng":-121.7365,"comp":"GABF"},{"_id":{"$oid":"613eb7df1c1df76a377d62eb"},"medal":"Bronze","beer":"Oktoberfest","brewery":"Lager Heads Brewing Co.","city":"Medina","state":"OH","style":"American-Style Amber Lager","year":2018,"coords":[-81.8694,41.1358],"lat":41.1358,"lng":-81.8694,"comp":"GABF"},{"_id":{"$oid":"613eb7df1c1df76a377d62ec"},"medal":"Gold","beer":"West Coast Swing Amber","brewery":"The Mitten Brewing Co.","city":"Grand Rapids","state":"MI","style":"American-Style Amber\/Red Ale","year":2018,"coords":[-85.6557,42.9615],"lat":42.9615,"lng":-85.6557,"comp":"GABF"},{"_id":{"$oid":"613eb7df1c1df76a377d62ed"},"medal":"Silver","beer":"Sepia Amber","brewery":"Hopping Gnome Brewing Co.","city":"Wichita","state":"KS","style":"American-Style Amber\/Red Ale","year":2018,"coords":[-97.3441,37.6897],"lat":37.6897,"lng":-97.3441,"comp":"GABF"},{"_id":{"$oid":"613eb7df1c1df76a377d62ee"},"medal":"Bronze","beer":"Avalon Amber Ale","brewery":"Slack Tide Brewing Co.","city":"Cape May Court House","state":"NJ","style":"American-Style Amber\/Red Ale","year":2018,"coords":[-74.8209,39.079],"lat":39.079,"lng":-74.8209,"comp":"GABF"},{"_id":{"$oid":"613eb7df1c1df76a377d62ef"},"medal":"Gold","beer":"Alpha Force Double Tap","brewery":"Uberbrew","city":"Billings","state":"MT","style":"American-Style Black Ale","year":2018,"coords":[-108.5509,45.7889],"lat":45.7889,"lng":-108.5509,"comp":"GABF"},{"_id":{"$oid":"613eb7df1c1df76a377d62f0"},"medal":"Silver","beer":"Black the Riipper","brewery":"Riip Beer Co.","city":"Huntington Beach","state":"CA","style":"American-Style Black Ale","year":2018,"coords":[-118.0025,33.696],"lat":33.696,"lng":-118.0025,"comp":"GABF"},{"_id":{"$oid":"613eb7df1c1df76a377d62f1"},"medal":"Bronze","beer":"Midnight Moonlight","brewery":"Fat Head's Brewery","city":"Middleburg Heights","state":"OH","style":"American-Style Black Ale","year":2018,"coords":[-81.8151,41.3695],"lat":41.3695,"lng":-81.8151,"comp":"GABF"},{"_id":{"$oid":"613eb7df1c1df76a377d62f2"},"medal":"Gold","beer":"Davy Brown Ale","brewery":"Figueroa Mountain Brewing","city":"Buellton","state":"CA","style":"American-Style Brown Ale","year":2018,"coords":[-120.1943,34.6152],"lat":34.6152,"lng":-120.1943,"comp":"GABF"},{"_id":{"$oid":"613eb7df1c1df76a377d62f3"},"medal":"Silver","beer":"Groundswell Piloncillo Brown Ale","brewery":"Groundswell Brewing Co.","city":"Santee","state":"CA","style":"American-Style Brown Ale","year":2018,"coords":[-116.9851,32.8554],"lat":32.8554,"lng":-116.9851,"comp":"GABF"},{"_id":{"$oid":"613eb7df1c1df76a377d62f4"},"medal":"Bronze","beer":"Wallops Island","brewery":"Rocket Frog Brewing Co.","city":"Sterling","state":"VA","style":"American-Style Brown Ale","year":2018,"coords":[-77.405,39.0052],"lat":39.0052,"lng":-77.405,"comp":"GABF"},{"_id":{"$oid":"613eb7df1c1df76a377d62f5"},"medal":"Gold","beer":"Gateway Cream Ale","brewery":"Lockport Brewery","city":"Bolivar","state":"OH","style":"American-Style Cream Ale","year":2018,"coords":[-81.4555,40.6505],"lat":40.6505,"lng":-81.4555,"comp":"GABF"},{"_id":{"$oid":"613eb7df1c1df76a377d62f6"},"medal":"Silver","beer":"Dayblazer Easygoing Ale","brewery":"New Belgium Brewing Co. - Ft. Collins","city":"Fort Collins","state":"CO","style":"American-Style Cream Ale","year":2018,"coords":[-105.0651,40.5475],"lat":40.5475,"lng":-105.0651,"comp":"GABF"},{"_id":{"$oid":"613eb7df1c1df76a377d62f7"},"medal":"Bronze","beer":"El Sully","brewery":"21st Amendment Brewery","city":"San Leandro","state":"CA","style":"American-Style Cream Ale","year":2018,"coords":[-122.1601,37.7071],"lat":37.7071,"lng":-122.1601,"comp":"GABF"},{"_id":{"$oid":"613eb7df1c1df76a377d62f8"},"medal":"Gold","beer":"Raspberry Twist Lager","brewery":"Garage Brewing Co.","city":"Temecula","state":"CA","style":"American-Style Fruit Beer","year":2018,"coords":[-117.1315,33.4928],"lat":33.4928,"lng":-117.1315,"comp":"GABF"},{"_id":{"$oid":"613eb7df1c1df76a377d62f9"},"medal":"Silver","beer":"Cherry Blonde","brewery":"Ignite Brewing Co.","city":"Barberton","state":"OH","style":"American-Style Fruit Beer","year":2018,"coords":[-81.6037,41.0094],"lat":41.0094,"lng":-81.6037,"comp":"GABF"},{"_id":{"$oid":"613eb7df1c1df76a377d62fa"},"medal":"Bronze","beer":"Tropic Maelstrom","brewery":"Peter B's Brewpub","city":"Monterey","state":"CA","style":"American-Style Fruit Beer","year":2018,"coords":[-121.8807,36.5922],"lat":36.5922,"lng":-121.8807,"comp":"GABF"},{"_id":{"$oid":"613eb7df1c1df76a377d62fb"},"medal":"Gold","beer":"Bine","brewery":"Root Down Brewing Co.","city":"Phoenixville","state":"PA","style":"American-Style India Pale Ale","year":2018,"coords":[-75.5201,40.1358],"lat":40.1358,"lng":-75.5201,"comp":"GABF"},{"_id":{"$oid":"613eb7df1c1df76a377d62fc"},"medal":"Silver","beer":"Not an IPA (P.S. it's an IPA)","brewery":"Appalachian Mountain Brewery - Portsmouth","city":"Portsmouth","state":"NH","style":"American-Style India Pale Ale","year":2018,"coords":[-70.7826,43.058],"lat":43.058,"lng":-70.7826,"comp":"GABF"},{"_id":{"$oid":"613eb7df1c1df76a377d62fd"},"medal":"Bronze","beer":"West Coast IPA is Dead!","brewery":"Green Cheek Beer Co.","city":"Orange","state":"CA","style":"American-Style India Pale Ale","year":2018,"coords":[-117.8218,33.8038],"lat":33.8038,"lng":-117.8218,"comp":"GABF"},{"_id":{"$oid":"613eb7df1c1df76a377d62fe"},"medal":"Gold","beer":"Lager","brewery":"Appalachian Mountain Brewery - Boone","city":"Boone","state":"NC","style":"American-Style Lager or American-Style Malt Liquor","year":2018,"coords":[-81.6668,36.2111],"lat":36.2111,"lng":-81.6668,"comp":"GABF"},{"_id":{"$oid":"613eb7df1c1df76a377d62ff"},"medal":"Silver","beer":"American Lager","brewery":"Castle Island Brewing Co.","city":"Norwood","state":"MA","style":"American-Style Lager or American-Style Malt Liquor","year":2018,"coords":null,"lat":null,"lng":null,"comp":"GABF"},{"_id":{"$oid":"613eb7df1c1df76a377d6300"},"medal":"Bronze","beer":"Lumino","brewery":"Unsung Brewing Co.","city":"Tustin","state":"CA","style":"American-Style Lager or American-Style Malt Liquor","year":2018,"coords":[-117.8106,33.7309],"lat":33.7309,"lng":-117.8106,"comp":"GABF"},{"_id":{"$oid":"613eb7df1c1df76a377d6301"},"medal":"Gold","beer":"B.Right On Pale Ale","brewery":"Ocean Beach Brewery","city":"San Diego","state":"CA","style":"American-Style Pale Ale","year":2018,"coords":[-117.1225,32.8312],"lat":32.8312,"lng":-117.1225,"comp":"GABF"},{"_id":{"$oid":"613eb7df1c1df76a377d6302"},"medal":"Silver","beer":"Neighborhood","brewery":"Ventura Coast Brewing Co.","city":"Ventura","state":"CA","style":"American-Style Pale Ale","year":2018,"coords":null,"lat":null,"lng":null,"comp":"GABF"},{"_id":{"$oid":"613eb7df1c1df76a377d6303"},"medal":"Bronze","beer":"Charlatan","brewery":"Maplewood Brewing Co.","city":"Chicago","state":"IL","style":"American-Style Pale Ale","year":2018,"coords":[-87.6862,41.8373],"lat":41.8373,"lng":-87.6862,"comp":"GABF"},{"_id":{"$oid":"613eb7df1c1df76a377d6304"},"medal":"Gold","beer":"Rocket 100","brewery":"The Austin Beer Garden Brewing Co.","city":"Austin","state":"TX","style":"American-Style Pilsener","year":2018,"coords":[-97.7517,30.3006],"lat":30.3006,"lng":-97.7517,"comp":"GABF"},{"_id":{"$oid":"613eb7df1c1df76a377d6305"},"medal":"Silver","beer":"NZ Pils","brewery":"Wolverine State Brewing Co.","city":"Ann Arbor","state":"MI","style":"American-Style Pilsener","year":2018,"coords":[-83.7312,42.2755],"lat":42.2755,"lng":-83.7312,"comp":"GABF"},{"_id":{"$oid":"613eb7df1c1df76a377d6306"},"medal":"Bronze","beer":"Howdy Beer","brewery":"The Post Brewing Co.","city":"Lafayette","state":"CO","style":"American-Style Pilsener","year":2018,"coords":[-105.0997,39.9949],"lat":39.9949,"lng":-105.0997,"comp":"GABF"},{"_id":{"$oid":"613eb7df1c1df76a377d6307"},"medal":"Gold","beer":"Kveik 1","brewery":"Shades of Pale Brewery","city":"Park City","state":"UT","style":"American-Style Sour Ale","year":2018,"coords":[-111.502,40.6505],"lat":40.6505,"lng":-111.502,"comp":"GABF"},{"_id":{"$oid":"613eb7df1c1df76a377d6308"},"medal":"Silver","beer":"Brevity","brewery":"Brewery Silvaticus","city":"Amesbury","state":"MA","style":"American-Style Sour Ale","year":2018,"coords":null,"lat":null,"lng":null,"comp":"GABF"},{"_id":{"$oid":"613eb7df1c1df76a377d6309"},"medal":"Bronze","beer":"Wicked Shifty","brewery":"Shoe Tree Brewing Co.","city":"Carson City","state":"NV","style":"American-Style Sour Ale","year":2018,"coords":[-119.7474,39.1511],"lat":39.1511,"lng":-119.7474,"comp":"GABF"},{"_id":{"$oid":"613eb7df1c1df76a377d630a"},"medal":"Gold","beer":"Hooligan Stout","brewery":"Old Schoolhouse Brewery","city":"Winthrop","state":"WA","style":"American-Style Stout","year":2018,"coords":[-120.179,48.4716],"lat":48.4716,"lng":-120.179,"comp":"GABF"},{"_id":{"$oid":"613eb7df1c1df76a377d630b"},"medal":"Silver","beer":"P2P","brewery":"10 Barrel Brewing Co.","city":"Bend","state":"OR","style":"American-Style Stout","year":2018,"coords":[-121.3087,44.0562],"lat":44.0562,"lng":-121.3087,"comp":"GABF"},{"_id":{"$oid":"613eb7df1c1df76a377d630c"},"medal":"Bronze","beer":"Black Cliffs","brewery":"Boise Brewing","city":"Boise","state":"ID","style":"American-Style Stout","year":2018,"coords":[-116.2312,43.6007],"lat":43.6007,"lng":-116.2312,"comp":"GABF"},{"_id":{"$oid":"613eb7df1c1df76a377d630d"},"medal":"Gold","beer":"Green Battles IPA","brewery":"Pinthouse Pizza North","city":"Austin","state":"TX","style":"American-Style Strong Pale Ale","year":2018,"coords":[-97.7517,30.3006],"lat":30.3006,"lng":-97.7517,"comp":"GABF"},{"_id":{"$oid":"613eb7df1c1df76a377d630e"},"medal":"Silver","beer":"Easy Runaway","brewery":"Old Schoolhouse Brewery","city":"Winthrop","state":"WA","style":"American-Style Strong Pale Ale","year":2018,"coords":[-120.179,48.4716],"lat":48.4716,"lng":-120.179,"comp":"GABF"},{"_id":{"$oid":"613eb7df1c1df76a377d630f"},"medal":"Bronze","beer":"Lucky Day","brewery":"Central Coast Brewing Co. - Higuera St.","city":"San Luis Obispo","state":"CA","style":"American-Style Strong Pale Ale","year":2018,"coords":[-120.6689,35.267],"lat":35.267,"lng":-120.6689,"comp":"GABF"},{"_id":{"$oid":"613eb7df1c1df76a377d6310"},"medal":"Gold","beer":"Sweet As Pacific Ale","brewery":"GoodLife Brewing Co.","city":"Bend","state":"OR","style":"American-Style Wheat Beer","year":2018,"coords":[-121.3087,44.0562],"lat":44.0562,"lng":-121.3087,"comp":"GABF"},{"_id":{"$oid":"613eb7df1c1df76a377d6311"},"medal":"Silver","beer":"Goofy Footed","brewery":"Escape Brewing Co.","city":"Trinity","state":"FL","style":"American-Style Wheat Beer","year":2018,"coords":[-82.6581,28.1809],"lat":28.1809,"lng":-82.6581,"comp":"GABF"},{"_id":{"$oid":"613eb7df1c1df76a377d6312"},"medal":"Bronze","beer":"Easy, Breezy, Beautiful","brewery":"Cloudburst Brewing","city":"Seattle","state":"WA","style":"American-Style Wheat Beer","year":2018,"coords":[-122.3244,47.6211],"lat":47.6211,"lng":-122.3244,"comp":"GABF"},{"_id":{"$oid":"613eb7df1c1df76a377d6313"},"medal":"Gold","beer":"Miner's Gold","brewery":"Lewis & Clark Brewing Co.","city":"Helena","state":"MT","style":"American-Style Wheat Beer with Yeast","year":2018,"coords":[-112.0199,46.5965],"lat":46.5965,"lng":-112.0199,"comp":"GABF"},{"_id":{"$oid":"613eb7df1c1df76a377d6314"},"medal":"Silver","beer":"Fuzztail","brewery":"Sunriver Brewing","city":"Sunriver","state":"OR","style":"American-Style Wheat Beer with Yeast","year":2018,"coords":[-121.4368,43.8816],"lat":43.8816,"lng":-121.4368,"comp":"GABF"},{"_id":{"$oid":"613eb7df1c1df76a377d6315"},"medal":"Bronze","beer":"Hefeweizen","brewery":"Widmer Brothers Brewing","city":"Portland","state":"OR","style":"American-Style Wheat Beer with Yeast","year":2018,"coords":[-122.65,45.5371],"lat":45.5371,"lng":-122.65,"comp":"GABF"},{"_id":{"$oid":"613eb7df1c1df76a377d6316"},"medal":"Gold","beer":"Sunshine Express","brewery":"Butcherknife Brewing Co.","city":"Steamboat Springs","state":"CO","style":"Australian-Style Pale Ale","year":2018,"coords":[-106.8233,40.4774],"lat":40.4774,"lng":-106.8233,"comp":"GABF"},{"_id":{"$oid":"613eb7df1c1df76a377d6317"},"medal":"Silver","beer":"Strata IPA","brewery":"Worthy Brewing Co.","city":"Bend","state":"OR","style":"Australian-Style Pale Ale","year":2018,"coords":[-121.3087,44.0562],"lat":44.0562,"lng":-121.3087,"comp":"GABF"},{"_id":{"$oid":"613eb7df1c1df76a377d6318"},"medal":"Bronze","beer":"Flavor Country","brewery":"Austin Beerworks","city":"Austin","state":"TX","style":"Australian-Style Pale Ale","year":2018,"coords":[-97.7517,30.3006],"lat":30.3006,"lng":-97.7517,"comp":"GABF"},{"_id":{"$oid":"613eb7df1c1df76a377d6319"},"medal":"Gold","beer":"Odin's Sword","brewery":"Big Island Brewhaus","city":"Kamuela","state":"HI","style":"Baltic-Style Porter","year":2018,"coords":null,"lat":null,"lng":null,"comp":"GABF"},{"_id":{"$oid":"613eb7df1c1df76a377d631a"},"medal":"Silver","beer":"Death and the Maiden","brewery":"Cambridge Brewing Co.","city":"Cambridge","state":"MA","style":"Baltic-Style Porter","year":2018,"coords":[-71.1185,42.3759],"lat":42.3759,"lng":-71.1185,"comp":"GABF"},{"_id":{"$oid":"613eb7df1c1df76a377d631b"},"medal":"Bronze","beer":"Bangor Slate Baltic Porter","brewery":"Two Rivers Brewing Co.","city":"Easton","state":"PA","style":"Baltic-Style Porter","year":2018,"coords":[-75.2209,40.6858],"lat":40.6858,"lng":-75.2209,"comp":"GABF"},{"_id":{"$oid":"613eb7df1c1df76a377d631c"},"medal":"Gold","beer":"Chicago Overcoat","brewery":"Midnight Pig Beer","city":"Plainfield","state":"IL","style":"Barley Wine-Style Ale","year":2018,"coords":[-88.226,41.6205],"lat":41.6205,"lng":-88.226,"comp":"GABF"},{"_id":{"$oid":"613eb7df1c1df76a377d631d"},"medal":"Silver","beer":"Barnacled Manatee","brewery":"Walking Tree Brewery","city":"Vero Beach","state":"FL","style":"Barley Wine-Style Ale","year":2018,"coords":[-80.393,27.6463],"lat":27.6463,"lng":-80.393,"comp":"GABF"},{"_id":{"$oid":"613eb7df1c1df76a377d631e"},"medal":"Bronze","beer":"Bear Temper","brewery":"Trustworthy Brewing Co.","city":"Burbank","state":"CA","style":"Barley Wine-Style Ale","year":2018,"coords":[-118.3235,34.1879],"lat":34.1879,"lng":-118.3235,"comp":"GABF"},{"_id":{"$oid":"613eb7df1c1df76a377d631f"},"medal":"Gold","beer":"5 Branches Biere de Garde","brewery":"Munkle Brewing Co.","city":"Charleston","state":"SC","style":"Belgian- and French-Style Ale","year":2018,"coords":[-79.963,32.8151],"lat":32.8151,"lng":-79.963,"comp":"GABF"},{"_id":{"$oid":"613eb7df1c1df76a377d6320"},"medal":"Silver","beer":"Biere de Garde","brewery":"Blackberry Farm Brewery","city":"Walland","state":"TN","style":"Belgian- and French-Style Ale","year":2018,"coords":[-83.8069,35.732],"lat":35.732,"lng":-83.8069,"comp":"GABF"},{"_id":{"$oid":"613eb7df1c1df76a377d6321"},"medal":"Bronze","beer":"Abby Blonde","brewery":"Thirsty Monk Pub Brewery","city":"Denver","state":"CO","style":"Belgian- and French-Style Ale","year":2018,"coords":[-104.8759,39.7621],"lat":39.7621,"lng":-104.8759,"comp":"GABF"},{"_id":{"$oid":"613eb7df1c1df76a377d6322"},"medal":"Gold","beer":"Jean-Claude Van Blond","brewery":"Wit's End Brewing Co.","city":"Denver","state":"CO","style":"Belgian-Style Blonde Ale or Pale Ale","year":2018,"coords":[-104.8759,39.7621],"lat":39.7621,"lng":-104.8759,"comp":"GABF"},{"_id":{"$oid":"613eb7df1c1df76a377d6323"},"medal":"Silver","beer":"Singel","brewery":"Hardywood West Creek","city":"Richmond","state":"VA","style":"Belgian-Style Blonde Ale or Pale Ale","year":2018,"coords":[-77.4756,37.5295],"lat":37.5295,"lng":-77.4756,"comp":"GABF"},{"_id":{"$oid":"613eb7df1c1df76a377d6324"},"medal":"Bronze","beer":"Blonde Betty","brewery":"Smuggler's Brewpub","city":"Telluride","state":"CO","style":"Belgian-Style Blonde Ale or Pale Ale","year":2018,"coords":[-107.8264,37.9365],"lat":37.9365,"lng":-107.8264,"comp":"GABF"},{"_id":{"$oid":"613eb7df1c1df76a377d6325"},"medal":"Gold","beer":"BJ's Quad","brewery":"BJ's Restaurant & Brewery - Boulder","city":"Boulder","state":"CO","style":"Belgian-Style Dubbel or Quadrupel","year":2018,"coords":[-105.2523,40.0249],"lat":40.0249,"lng":-105.2523,"comp":"GABF"},{"_id":{"$oid":"613eb7df1c1df76a377d6326"},"medal":"Silver","beer":"Kung Fu Smurf","brewery":"Bastone Brewery","city":"Royal Oak","state":"MI","style":"Belgian-Style Dubbel or Quadrupel","year":2018,"coords":[-83.1539,42.5084],"lat":42.5084,"lng":-83.1539,"comp":"GABF"},{"_id":{"$oid":"613eb7df1c1df76a377d6327"},"medal":"Bronze","beer":"Deduction","brewery":"Taxman Brewing Co.","city":"Bargersville","state":"IN","style":"Belgian-Style Dubbel or Quadrupel","year":2018,"coords":[-86.2004,39.5412],"lat":39.5412,"lng":-86.2004,"comp":"GABF"},{"_id":{"$oid":"613eb7df1c1df76a377d6328"},"medal":"Gold","beer":"Foxy Lady","brewery":"Silver City Brewery","city":"Bremerton","state":"WA","style":"Belgian-Style Fruit Beer","year":2018,"coords":[-122.7121,47.5436],"lat":47.5436,"lng":-122.7121,"comp":"GABF"},{"_id":{"$oid":"613eb7df1c1df76a377d6329"},"medal":"Silver","beer":"Blood-Orange Wit","brewery":"Great Basin Brewing Co. - Sparks","city":"Sparks","state":"NV","style":"Belgian-Style Fruit Beer","year":2018,"coords":[-119.7157,39.5729],"lat":39.5729,"lng":-119.7157,"comp":"GABF"},{"_id":{"$oid":"613eb7df1c1df76a377d632a"},"medal":"Bronze","beer":"Kumquat Saison","brewery":"Smog City Brewing Wood Cellar","city":"Torrance","state":"CA","style":"Belgian-Style Fruit Beer","year":2018,"coords":[-118.3417,33.8346],"lat":33.8346,"lng":-118.3417,"comp":"GABF"},{"_id":{"$oid":"613eb7df1c1df76a377d632b"},"medal":"Gold","beer":"Funk Yeah","brewery":"Beachwood Blendery","city":"Long Beach","state":"CA","style":"Belgian-Style Lambic or Sour Ale","year":2018,"coords":[-118.1675,33.798],"lat":33.798,"lng":-118.1675,"comp":"GABF"},{"_id":{"$oid":"613eb7df1c1df76a377d632c"},"medal":"Silver","beer":"Triad","brewery":"IMBIB Custom Brews","city":"Reno","state":"NV","style":"Belgian-Style Lambic or Sour Ale","year":2018,"coords":[-119.8483,39.5497],"lat":39.5497,"lng":-119.8483,"comp":"GABF"},{"_id":{"$oid":"613eb7df1c1df76a377d632d"},"medal":"Bronze","beer":"I Am Only Memories","brewery":"Orpheus Brewing","city":"Atlanta","state":"GA","style":"Belgian-Style Lambic or Sour Ale","year":2018,"coords":[-84.4225,33.7627],"lat":33.7627,"lng":-84.4225,"comp":"GABF"},{"_id":{"$oid":"613eb7df1c1df76a377d632e"},"medal":"Gold","beer":"Midwatch","brewery":"Figurehead Brewing Co.","city":"Seattle","state":"WA","style":"Belgian-Style Strong Specialty Ale","year":2018,"coords":[-122.3244,47.6211],"lat":47.6211,"lng":-122.3244,"comp":"GABF"},{"_id":{"$oid":"613eb7df1c1df76a377d632f"},"medal":"Silver","beer":"Qualified","brewery":"Taxman Brewing Co.","city":"Bargersville","state":"IN","style":"Belgian-Style Strong Specialty Ale","year":2018,"coords":[-86.2004,39.5412],"lat":39.5412,"lng":-86.2004,"comp":"GABF"},{"_id":{"$oid":"613eb7df1c1df76a377d6330"},"medal":"Bronze","beer":"Sol Hominis (The Sun Of Man)","brewery":"Save the World Brewing Co.","city":"Marble Falls","state":"TX","style":"Belgian-Style Strong Specialty Ale","year":2018,"coords":[-98.2751,30.5677],"lat":30.5677,"lng":-98.2751,"comp":"GABF"},{"_id":{"$oid":"613eb7df1c1df76a377d6331"},"medal":"Gold","beer":"Tripel Carmel-ite","brewery":"Flix Brewhouse - Carmel","city":"Carmel","state":"IN","style":"Belgian-Style Tripel","year":2018,"coords":[-86.1461,39.9658],"lat":39.9658,"lng":-86.1461,"comp":"GABF"},{"_id":{"$oid":"613eb7df1c1df76a377d6332"},"medal":"Silver","beer":"Belgian Tripel","brewery":"Village Idiot Brewing Co.","city":"Mount Holly","state":"NJ","style":"Belgian-Style Tripel","year":2018,"coords":null,"lat":null,"lng":null,"comp":"GABF"},{"_id":{"$oid":"613eb7df1c1df76a377d6333"},"medal":"Bronze","beer":"Neighbor Girl","brewery":"Paradigm Shift Brewing","city":"Massillon","state":"OH","style":"Belgian-Style Tripel","year":2018,"coords":[-81.5256,40.7839],"lat":40.7839,"lng":-81.5256,"comp":"GABF"},{"_id":{"$oid":"613eb7df1c1df76a377d6334"},"medal":"Gold","beer":"Bi\u00e9re Blanche","brewery":"Pedal Haus Brewery","city":"Tempe","state":"AZ","style":"Belgian-Style Witbier","year":2018,"coords":[-111.9318,33.3881],"lat":33.3881,"lng":-111.9318,"comp":"GABF"},{"_id":{"$oid":"613eb7df1c1df76a377d6335"},"medal":"Silver","beer":"Optimal Wit","brewery":"Port City Brewing Co.","city":"Alexandria","state":"VA","style":"Belgian-Style Witbier","year":2018,"coords":[-77.0861,38.8185],"lat":38.8185,"lng":-77.0861,"comp":"GABF"},{"_id":{"$oid":"613eb7df1c1df76a377d6336"},"medal":"Bronze","beer":"Allagash White","brewery":"Allagash Brewing Co.","city":"Portland","state":"ME","style":"Belgian-Style Witbier","year":2018,"coords":[-70.2715,43.6773],"lat":43.6773,"lng":-70.2715,"comp":"GABF"},{"_id":{"$oid":"613eb7df1c1df76a377d6337"},"medal":"Gold","beer":"Baywindow","brewery":"10 Barrel Brewing Co.","city":"Bend","state":"OR","style":"Berliner-Style Weisse","year":2018,"coords":[-121.3087,44.0562],"lat":44.0562,"lng":-121.3087,"comp":"GABF"},{"_id":{"$oid":"613eb7df1c1df76a377d6338"},"medal":"Silver","beer":"Germophile","brewery":"Rowley Farmhouse Ales","city":"Santa Fe","state":"NM","style":"Berliner-Style Weisse","year":2018,"coords":[-105.9819,35.6619],"lat":35.6619,"lng":-105.9819,"comp":"GABF"},{"_id":{"$oid":"613eb7df1c1df76a377d6339"},"medal":"Bronze","beer":"Nevada Weisse","brewery":"IMBIB Custom Brews","city":"Reno","state":"NV","style":"Berliner-Style Weisse","year":2018,"coords":[-119.8483,39.5497],"lat":39.5497,"lng":-119.8483,"comp":"GABF"},{"_id":{"$oid":"613eb7df1c1df76a377d633a"},"medal":"Gold","beer":"Guten Bock","brewery":"Gilded Goat Brewing Co.","city":"Fort Collins","state":"CO","style":"Bock","year":2018,"coords":[-105.0651,40.5475],"lat":40.5475,"lng":-105.0651,"comp":"GABF"},{"_id":{"$oid":"613eb7df1c1df76a377d633b"},"medal":"Silver","beer":"New Kids on Maibock","brewery":"Independent Brewing Co.","city":"Bel Air","state":"MD","style":"Bock","year":2018,"coords":[-76.346,39.5348],"lat":39.5348,"lng":-76.346,"comp":"GABF"},{"_id":{"$oid":"613eb7df1c1df76a377d633c"},"medal":"Bronze","beer":"Blind Tiger Bock","brewery":"Blind Tiger Brewery & Restaurant","city":"Topeka","state":"KS","style":"Bock","year":2018,"coords":[-95.6955,39.0346],"lat":39.0346,"lng":-95.6955,"comp":"GABF"},{"_id":{"$oid":"613eb7df1c1df76a377d633d"},"medal":"Gold","beer":"Bohemian Pilsner","brewery":"Gordon Biersch Brewery Restaurant - Tysons Corner","city":"Broomfield","state":"CO","style":"Bohemian-Style Pilsener","year":2018,"coords":[-105.0527,39.9541],"lat":39.9541,"lng":-105.0527,"comp":"GABF"},{"_id":{"$oid":"613eb7df1c1df76a377d633e"},"medal":"Silver","beer":"Pompey's Pilsner","brewery":"Lewis & Clark Brewing Co.","city":"Helena","state":"MT","style":"Bohemian-Style Pilsener","year":2018,"coords":[-112.0199,46.5965],"lat":46.5965,"lng":-112.0199,"comp":"GABF"},{"_id":{"$oid":"613eb7df1c1df76a377d633f"},"medal":"Bronze","beer":"Bird Park","brewery":"North Park Beer Co.","city":"San Diego","state":"CA","style":"Bohemian-Style Pilsener","year":2018,"coords":[-117.1225,32.8312],"lat":32.8312,"lng":-117.1225,"comp":"GABF"},{"_id":{"$oid":"613eb7df1c1df76a377d6340"},"medal":"Gold","beer":"C'mon Sunshine","brewery":"Birds Fly South Ale Project","city":"Greenville","state":"SC","style":"Brett Beer","year":2018,"coords":[-82.3649,34.8362],"lat":34.8362,"lng":-82.3649,"comp":"GABF"},{"_id":{"$oid":"613eb7df1c1df76a377d6341"},"medal":"Silver","beer":"Terroir Pinot Gris","brewery":"Alesong Brewing & Blending","city":"Eugene","state":"OR","style":"Brett Beer","year":2018,"coords":[-123.1173,44.0563],"lat":44.0563,"lng":-123.1173,"comp":"GABF"},{"_id":{"$oid":"613eb7df1c1df76a377d6342"},"medal":"Bronze","beer":"Touch of Brett Mandarina","brewery":"Alesong Brewing & Blending","city":"Eugene","state":"OR","style":"Brett Beer","year":2018,"coords":[-123.1173,44.0563],"lat":44.0563,"lng":-123.1173,"comp":"GABF"},{"_id":{"$oid":"613eb7df1c1df76a377d6343"},"medal":"Gold","beer":"Maduro Brown Ale","brewery":"Cigar City Brewing","city":"Tampa","state":"FL","style":"Brown Porter","year":2018,"coords":[-82.4451,27.9942],"lat":27.9942,"lng":-82.4451,"comp":"GABF"},{"_id":{"$oid":"613eb7df1c1df76a377d6344"},"medal":"Silver","beer":"Brown Claw","brewery":"Kern River Brewing Co.","city":"Kernville","state":"CA","style":"Brown Porter","year":2018,"coords":[-118.4321,35.7531],"lat":35.7531,"lng":-118.4321,"comp":"GABF"},{"_id":{"$oid":"613eb7df1c1df76a377d6345"},"medal":"Bronze","beer":"Knee-Knocker Porter","brewery":"Crow Hop Brewing Co.","city":"Loveland","state":"CO","style":"Brown Porter","year":2018,"coords":[-105.0622,40.4167],"lat":40.4167,"lng":-105.0622,"comp":"GABF"},{"_id":{"$oid":"613eb7df1c1df76a377d6346"},"medal":"Gold","beer":"White Legs Jalapeno Wheat","brewery":"Tribute Brewing Co.","city":"Eagle River","state":"WI","style":"Chili Beer","year":2018,"coords":[-89.256,45.925],"lat":45.925,"lng":-89.256,"comp":"GABF"},{"_id":{"$oid":"613eb7df1c1df76a377d6347"},"medal":"Silver","beer":"Chamuco","brewery":"K\u00fcnstler Brewing","city":"San Antonio","state":"TX","style":"Chili Beer","year":2018,"coords":[-98.5254,29.4658],"lat":29.4658,"lng":-98.5254,"comp":"GABF"},{"_id":{"$oid":"613eb7df1c1df76a377d6348"},"medal":"Bronze","beer":"San Antonio Hatch Lager","brewery":"Ranger Creek Brewery","city":"San Antonio","state":"TX","style":"Chili Beer","year":2018,"coords":[-98.5254,29.4658],"lat":29.4658,"lng":-98.5254,"comp":"GABF"},{"_id":{"$oid":"613eb7df1c1df76a377d6349"},"medal":"Gold","beer":"Coco for Coxness","brewery":"Copperpoint Brewing Co.","city":"Boynton Beach","state":"FL","style":"Chocolate Beer","year":2018,"coords":[-80.0811,26.5281],"lat":26.5281,"lng":-80.0811,"comp":"GABF"},{"_id":{"$oid":"613eb7df1c1df76a377d634a"},"medal":"Silver","beer":"Genesee Brew House Pilot Batch Dark<br \/>Chocolate Scotch Ale","brewery":"Genesee Brew House","city":"Rochester","state":"NY","style":"Chocolate Beer","year":2018,"coords":[-77.6162,43.168],"lat":43.168,"lng":-77.6162,"comp":"GABF"},{"_id":{"$oid":"613eb7df1c1df76a377d634b"},"medal":"Bronze","beer":"Chocolate Macadamia Nut Stout","brewery":"Kilowatt Brewing","city":"San Diego","state":"CA","style":"Chocolate Beer","year":2018,"coords":[-117.1225,32.8312],"lat":32.8312,"lng":-117.1225,"comp":"GABF"},{"_id":{"$oid":"613eb7df1c1df76a377d634c"},"medal":"Gold","beer":"Pale Ale","brewery":"Omission Brewing Co.","city":"Portland","state":"OR","style":"Classic English-Style Pale Ale","year":2018,"coords":[-122.65,45.5371],"lat":45.5371,"lng":-122.65,"comp":"GABF"},{"_id":{"$oid":"613eb7df1c1df76a377d634d"},"medal":"Silver","beer":"MacTarnahan\u2019s Amber Ale","brewery":"Portland Brewing Co.","city":"Portland","state":"OR","style":"Classic English-Style Pale Ale","year":2018,"coords":[-122.65,45.5371],"lat":45.5371,"lng":-122.65,"comp":"GABF"},{"_id":{"$oid":"613eb7df1c1df76a377d634e"},"medal":"Bronze","beer":"Prickly Pear","brewery":"Lewis & Clark Brewing Co.","city":"Helena","state":"MT","style":"Classic English-Style Pale Ale","year":2018,"coords":[-112.0199,46.5965],"lat":46.5965,"lng":-112.0199,"comp":"GABF"},{"_id":{"$oid":"613eb7df1c1df76a377d634f"},"medal":"Gold","beer":"Shooter McMunn's","brewery":"Lost Rhino Brewing Co.","city":"Ashburn","state":"VA","style":"Classic Irish-Style Dry Stout","year":2018,"coords":[-77.4711,39.03],"lat":39.03,"lng":-77.4711,"comp":"GABF"},{"_id":{"$oid":"613eb7df1c1df76a377d6350"},"medal":"Silver","beer":"It's My Island","brewery":"Pocock Brewing Co.","city":"Santa Clarita","state":"CA","style":"Classic Irish-Style Dry Stout","year":2018,"coords":[-118.4992,34.4155],"lat":34.4155,"lng":-118.4992,"comp":"GABF"},{"_id":{"$oid":"613eb7df1c1df76a377d6351"},"medal":"Bronze","beer":"Know Ego","brewery":"Groundswell Brewing Co.","city":"Santee","state":"CA","style":"Classic Irish-Style Dry Stout","year":2018,"coords":[-116.9851,32.8554],"lat":32.8554,"lng":-116.9851,"comp":"GABF"},{"_id":{"$oid":"613eb7df1c1df76a377d6352"},"medal":"Gold","beer":"Saison","brewery":"Bent Paddle Brewing Co.","city":"Duluth","state":"MN","style":"Classic Saison","year":2018,"coords":[-92.1392,46.7757],"lat":46.7757,"lng":-92.1392,"comp":"GABF"},{"_id":{"$oid":"613eb7df1c1df76a377d6353"},"medal":"Silver","beer":"One Arm Farmhouse Ale","brewery":"Hobbs Tavern & Brewing Co.","city":"West Ossipee","state":"NH","style":"Classic Saison","year":2018,"coords":null,"lat":null,"lng":null,"comp":"GABF"},{"_id":{"$oid":"613eb7df1c1df76a377d6354"},"medal":"Bronze","beer":"Hayshaker","brewery":"Gunwhale Ales","city":"Costa Mesa","state":"CA","style":"Classic Saison","year":2018,"coords":[-117.9135,33.6667],"lat":33.6667,"lng":-117.9135,"comp":"GABF"},{"_id":{"$oid":"613eb7df1c1df76a377d6355"},"medal":"Gold","beer":"Coffee Cream Ale","brewery":"Kiitos Brewing","city":"Salt Lake City","state":"UT","style":"Coffee Beer","year":2018,"coords":[-111.93,40.7774],"lat":40.7774,"lng":-111.93,"comp":"GABF"},{"_id":{"$oid":"613eb7df1c1df76a377d6356"},"medal":"Silver","beer":"Mystery Airship 4.0: Temple Cascara Golden Ale","brewery":"New Helvetia Brewing Co.","city":"Sacramento","state":"CA","style":"Coffee Beer","year":2018,"coords":[-121.4683,38.5667],"lat":38.5667,"lng":-121.4683,"comp":"GABF"},{"_id":{"$oid":"613eb7df1c1df76a377d6357"},"medal":"Bronze","beer":"First Call","brewery":"Modist Brewing Co.","city":"Minneapolis","state":"MN","style":"Coffee Beer","year":2018,"coords":[-93.2678,44.9635],"lat":44.9635,"lng":-93.2678,"comp":"GABF"},{"_id":{"$oid":"613eb7df1c1df76a377d6358"},"medal":"Gold","beer":"Speargun","brewery":"Snake River Brewing Co.","city":"Jackson","state":"WY","style":"Coffee Stout or Porter","year":2018,"coords":[-110.7745,43.4721],"lat":43.4721,"lng":-110.7745,"comp":"GABF"},{"_id":{"$oid":"613eb7df1c1df76a377d6359"},"medal":"Silver","beer":"Breakfast Stout","brewery":"Founders Brewing Co.","city":"Grand Rapids","state":"MI","style":"Coffee Stout or Porter","year":2018,"coords":[-85.6557,42.9615],"lat":42.9615,"lng":-85.6557,"comp":"GABF"},{"_id":{"$oid":"613eb7df1c1df76a377d635a"},"medal":"Bronze","beer":"Udder Chaos","brewery":"RAM Restaurant & Brewery - Seattle","city":"Seattle","state":"WA","style":"Coffee Stout or Porter","year":2018,"coords":[-122.3244,47.6211],"lat":47.6211,"lng":-122.3244,"comp":"GABF"},{"_id":{"$oid":"613eb7df1c1df76a377d635b"},"medal":"Gold","beer":"Iron Horse Lager","brewery":"Great American Restaurants - Sweetwater Tavern Centreville","city":"Centreville","state":"VA","style":"Dark Lager","year":2018,"coords":[-77.4388,38.8391],"lat":38.8391,"lng":-77.4388,"comp":"GABF"},{"_id":{"$oid":"613eb7df1c1df76a377d635c"},"medal":"Silver","beer":"The Bennie","brewery":"Granite City Food & Brewery","city":"Olathe","state":"KS","style":"Dark Lager","year":2018,"coords":[-94.8198,38.8832],"lat":38.8832,"lng":-94.8198,"comp":"GABF"},{"_id":{"$oid":"613eb7df1c1df76a377d635d"},"medal":"Bronze","beer":"Nighthawk","brewery":"Enegren Brewing Co.","city":"Moorpark","state":"CA","style":"Dark Lager","year":2018,"coords":[-118.877,34.2855],"lat":34.2855,"lng":-118.877,"comp":"GABF"},{"_id":{"$oid":"613eb7df1c1df76a377d635e"},"medal":"Gold","beer":"Grandpa Tractor","brewery":"Barley Forge Brewing","city":"Costa Mesa","state":"CA","style":"Dortmunder or German-Style Oktoberfest","year":2018,"coords":[-117.9135,33.6667],"lat":33.6667,"lng":-117.9135,"comp":"GABF"},{"_id":{"$oid":"613eb7df1c1df76a377d635f"},"medal":"Silver","beer":"Freiheit Oktoberfest Wiesn","brewery":"Wayfinder Beer","city":"Portland","state":"OR","style":"Dortmunder or German-Style Oktoberfest","year":2018,"coords":[-122.65,45.5371],"lat":45.5371,"lng":-122.65,"comp":"GABF"},{"_id":{"$oid":"613eb7df1c1df76a377d6360"},"medal":"Bronze","beer":"Figtoberfest","brewery":"Figueroa Mountain Brewing - Westlake Village","city":"Westlake Village","state":"CA","style":"Dortmunder or German-Style Oktoberfest","year":2018,"coords":[-118.8221,34.1369],"lat":34.1369,"lng":-118.8221,"comp":"GABF"},{"_id":{"$oid":"613eb7df1c1df76a377d6361"},"medal":"Gold","beer":"Midwest Red IPA","brewery":"Masthead Brewing Co.","city":"Cleveland","state":"OH","style":"Double Hoppy Red Ale","year":2018,"coords":[-81.6805,41.4767],"lat":41.4767,"lng":-81.6805,"comp":"GABF"},{"_id":{"$oid":"613eb7df1c1df76a377d6362"},"medal":"Silver","beer":"Roundhouse","brewery":"Bell's Eccentric Cafe","city":"Kalamazoo","state":"MI","style":"Double Hoppy Red Ale","year":2018,"coords":[-85.5882,42.2749],"lat":42.2749,"lng":-85.5882,"comp":"GABF"},{"_id":{"$oid":"613eb7df1c1df76a377d6363"},"medal":"Bronze","beer":"Bad Polaroid","brewery":"Werk Force Brewing Co.","city":"Plainfield","state":"IL","style":"Double Hoppy Red Ale","year":2018,"coords":[-88.226,41.6205],"lat":41.6205,"lng":-88.226,"comp":"GABF"},{"_id":{"$oid":"613eb7df1c1df76a377d6364"},"medal":"Gold","beer":"Get Up Offa That Brown","brewery":"Golden Road Brewing - Los Angeles","city":"Los Angeles","state":"CA","style":"English-Style Brown Ale","year":2018,"coords":[-118.4068,34.1139],"lat":34.1139,"lng":-118.4068,"comp":"GABF"},{"_id":{"$oid":"613eb7df1c1df76a377d6365"},"medal":"Silver","beer":"My Brown Eyed Girl","brewery":"Thornapple Brewing Co.","city":"Grand Rapids","state":"MI","style":"English-Style Brown Ale","year":2018,"coords":[-85.6557,42.9615],"lat":42.9615,"lng":-85.6557,"comp":"GABF"},{"_id":{"$oid":"613eb7df1c1df76a377d6366"},"medal":"Bronze","beer":"No. 3 Brown","brewery":"The Freehouse","city":"Minneapolis","state":"MN","style":"English-Style Brown Ale","year":2018,"coords":[-93.2678,44.9635],"lat":44.9635,"lng":-93.2678,"comp":"GABF"},{"_id":{"$oid":"613eb7df1c1df76a377d6367"},"medal":"Gold","beer":"Castillo IPA","brewery":"Alaro Craft Brewery","city":"Sacramento","state":"CA","style":"English-Style India Pale Ale","year":2018,"coords":[-121.4683,38.5667],"lat":38.5667,"lng":-121.4683,"comp":"GABF"},{"_id":{"$oid":"613eb7df1c1df76a377d6368"},"medal":"Silver","beer":"Silverspot IPA","brewery":"Pelican Brewing Co.","city":"Pacific City","state":"OR","style":"English-Style India Pale Ale","year":2018,"coords":[-123.9536,45.2054],"lat":45.2054,"lng":-123.9536,"comp":"GABF"},{"_id":{"$oid":"613eb7df1c1df76a377d6369"},"medal":"Bronze","beer":"Hoppy Poppy IPA","brewery":"Figueroa Mountain Brewing","city":"Buellton","state":"CA","style":"English-Style India Pale Ale","year":2018,"coords":[-120.1943,34.6152],"lat":34.6152,"lng":-120.1943,"comp":"GABF"},{"_id":{"$oid":"613eb7df1c1df76a377d636a"},"medal":"Gold","beer":"Drift","brewery":"First Magnitude Brewing Co.","city":"Gainesville","state":"FL","style":"English-Style Mild Ale","year":2018,"coords":[-82.3458,29.6804],"lat":29.6804,"lng":-82.3458,"comp":"GABF"},{"_id":{"$oid":"613eb7df1c1df76a377d636b"},"medal":"Silver","beer":"Hold The Reins","brewery":"Brink Brewing Co.","city":"Cincinnati","state":"OH","style":"English-Style Mild Ale","year":2018,"coords":[-84.506,39.1412],"lat":39.1412,"lng":-84.506,"comp":"GABF"},{"_id":{"$oid":"613eb7df1c1df76a377d636c"},"medal":"Bronze","beer":"Fools & Babies","brewery":"Green Cheek Beer Co.","city":"Orange","state":"CA","style":"English-Style Mild Ale","year":2018,"coords":[-117.8218,33.8038],"lat":33.8038,"lng":-117.8218,"comp":"GABF"},{"_id":{"$oid":"613eb7df1c1df76a377d636d"},"medal":"Gold","beer":"Liquid AC","brewery":"Karl Strauss Brewing Co. - La Jolla","city":"La Jolla","state":"CA","style":"English-Style Summer Ale","year":2018,"coords":null,"lat":null,"lng":null,"comp":"GABF"},{"_id":{"$oid":"613eb7df1c1df76a377d636e"},"medal":"Silver","beer":"Provider","brewery":"Steel Toe Brewing","city":"St. Louis Park","state":"MN","style":"English-Style Summer Ale","year":2018,"coords":[-93.3649,44.9488],"lat":44.9488,"lng":-93.3649,"comp":"GABF"},{"_id":{"$oid":"613eb7df1c1df76a377d636f"},"medal":"Bronze","beer":"Zest A Peel","brewery":"Triple C Brewing","city":"Charlotte","state":"NC","style":"English-Style Summer Ale","year":2018,"coords":[-80.8304,35.2079],"lat":35.2079,"lng":-80.8304,"comp":"GABF"},{"_id":{"$oid":"613eb7df1c1df76a377d6370"},"medal":"Gold","beer":"Feral Brute","brewery":"Firestone Walker Barrelworks","city":"Buellton","state":"CA","style":"Experimental Beer","year":2018,"coords":[-120.1943,34.6152],"lat":34.6152,"lng":-120.1943,"comp":"GABF"},{"_id":{"$oid":"613eb7df1c1df76a377d6371"},"medal":"Silver","beer":"Terroir Pinot Noir","brewery":"Alesong Brewing & Blending","city":"Eugene","state":"OR","style":"Experimental Beer","year":2018,"coords":[-123.1173,44.0563],"lat":44.0563,"lng":-123.1173,"comp":"GABF"},{"_id":{"$oid":"613eb7df1c1df76a377d6372"},"medal":"Bronze","beer":"Chips & Salsa Cream Ale","brewery":"Cogstone Brewing Co.","city":"Colorado Springs","state":"CO","style":"Experimental Beer","year":2018,"coords":[-104.7606,38.8674],"lat":38.8674,"lng":-104.7606,"comp":"GABF"},{"_id":{"$oid":"613eb7df1c1df76a377d6373"},"medal":"Gold","beer":"Dissent","brewery":"Steel Toe Brewing","city":"St. Louis Park","state":"MN","style":"Export Stout","year":2018,"coords":[-93.3649,44.9488],"lat":44.9488,"lng":-93.3649,"comp":"GABF"},{"_id":{"$oid":"613eb7df1c1df76a377d6374"},"medal":"Silver","beer":"Malpais Stout","brewery":"La Cumbre Brewing Co.","city":"Albuquerque","state":"NM","style":"Export Stout","year":2018,"coords":[-106.6464,35.1053],"lat":35.1053,"lng":-106.6464,"comp":"GABF"},{"_id":{"$oid":"613eb7df1c1df76a377d6375"},"medal":"Bronze","beer":"Shut Up & Adore Me","brewery":"Morgan Territory Brewing","city":"Tracy","state":"CA","style":"Export Stout","year":2018,"coords":[-121.444,37.726],"lat":37.726,"lng":-121.444,"comp":"GABF"},{"_id":{"$oid":"613eb7df1c1df76a377d6376"},"medal":"Gold","beer":"Happy Amber","brewery":"MadTree Brewing 2.0","city":"Cincinnati","state":"OH","style":"Extra Special Bitter","year":2018,"coords":[-84.506,39.1412],"lat":39.1412,"lng":-84.506,"comp":"GABF"},{"_id":{"$oid":"613eb7df1c1df76a377d6377"},"medal":"Silver","beer":"ESB","brewery":"Hillman Beer","city":"Asheville","state":"NC","style":"Extra Special Bitter","year":2018,"coords":[-82.5537,35.5704],"lat":35.5704,"lng":-82.5537,"comp":"GABF"},{"_id":{"$oid":"613eb7df1c1df76a377d6378"},"medal":"Bronze","beer":"Bull Kelp ESB","brewery":"San Juan Island Brewing Co.","city":"Friday Harbor","state":"WA","style":"Extra Special Bitter","year":2018,"coords":[-123.0655,48.5324],"lat":48.5324,"lng":-123.0655,"comp":"GABF"},{"_id":{"$oid":"613eb7df1c1df76a377d6379"},"medal":"Gold","beer":"Cool for the Summer","brewery":"Lakes & Legends Brewing Co.","city":"Minneapolis","state":"MN","style":"Field Beer","year":2018,"coords":[-93.2678,44.9635],"lat":44.9635,"lng":-93.2678,"comp":"GABF"},{"_id":{"$oid":"613eb7df1c1df76a377d637a"},"medal":"Silver","beer":"Coco Pi\u00f1a Gose","brewery":"Coastal Empire Beer Co.","city":"Savannah","state":"GA","style":"Field Beer","year":2018,"coords":[-81.1785,32.0281],"lat":32.0281,"lng":-81.1785,"comp":"GABF"},{"_id":{"$oid":"613eb7df1c1df76a377d637b"},"medal":"Bronze","beer":"Hawaiian Lion Toasted Coconut & Coffee Porter","brewery":"Big Top Brewing Co.","city":"Sarasota","state":"FL","style":"Field Beer","year":2018,"coords":[-82.543,27.3386],"lat":27.3386,"lng":-82.543,"comp":"GABF"},{"_id":{"$oid":"613eb7df1c1df76a377d637c"},"medal":"Gold","beer":"Passionate Envy","brewery":"10 Barrel Brewing Co.","city":"Bend","state":"OR","style":"Fruit Wheat Beer","year":2018,"coords":[-121.3087,44.0562],"lat":44.0562,"lng":-121.3087,"comp":"GABF"},{"_id":{"$oid":"613eb7df1c1df76a377d637d"},"medal":"Silver","beer":"Purple Line","brewery":"Smylie Brothers Brewing Co.","city":"Evanston","state":"IL","style":"Fruit Wheat Beer","year":2018,"coords":[-87.6942,42.0463],"lat":42.0463,"lng":-87.6942,"comp":"GABF"},{"_id":{"$oid":"613eb7df1c1df76a377d637e"},"medal":"Bronze","beer":"Cherry Wheat","brewery":"Sierra Blanca Brewing Co.","city":"Moriarty","state":"NM","style":"Fruit Wheat Beer","year":2018,"coords":[-106.046,35.0052],"lat":35.0052,"lng":-106.046,"comp":"GABF"},{"_id":{"$oid":"613eb7df1c1df76a377d637f"},"medal":"Gold","beer":"Pink Passionfruit Sour","brewery":"BearWaters Brewing Co.","city":"Canton","state":"NC","style":"Fruited American-Style Sour Ale","year":2018,"coords":[-82.8406,35.5516],"lat":35.5516,"lng":-82.8406,"comp":"GABF"},{"_id":{"$oid":"613eb7df1c1df76a377d6380"},"medal":"Silver","beer":"Kirby Pucker No. 21","brewery":"Eastlake Craft Brewery","city":"Minneapolis","state":"MN","style":"Fruited American-Style Sour Ale","year":2018,"coords":[-93.2678,44.9635],"lat":44.9635,"lng":-93.2678,"comp":"GABF"},{"_id":{"$oid":"613eb7df1c1df76a377d6381"},"medal":"Bronze","beer":"Flaming Fury","brewery":"Captain Lawrence Brewing Co.","city":"Elmsford","state":"NY","style":"Fruited American-Style Sour Ale","year":2018,"coords":[-73.8143,41.0541],"lat":41.0541,"lng":-73.8143,"comp":"GABF"},{"_id":{"$oid":"613eb7df1c1df76a377d6382"},"medal":"Gold","beer":"R\u00e9serve Dor\u00e9e de P\u00eache","brewery":"Wooden Robot","city":"Charlotte","state":"NC","style":"Fruited Wood- and Barrel-Aged Sour Beer","year":2018,"coords":[-80.8304,35.2079],"lat":35.2079,"lng":-80.8304,"comp":"GABF"},{"_id":{"$oid":"613eb7df1c1df76a377d6383"},"medal":"Silver","beer":"Sour Cherry Sour","brewery":"Hermitage Brewing Co.","city":"San Jose","state":"CA","style":"Fruited Wood- and Barrel-Aged Sour Beer","year":2018,"coords":[-121.8489,37.3021],"lat":37.3021,"lng":-121.8489,"comp":"GABF"},{"_id":{"$oid":"613eb7df1c1df76a377d6384"},"medal":"Bronze","beer":"Zoned AG Golden Raspberry","brewery":"Corralitos Brewing Co.","city":"Watsonville","state":"CA","style":"Fruited Wood- and Barrel-Aged Sour Beer","year":2018,"coords":[-121.7706,36.9206],"lat":36.9206,"lng":-121.7706,"comp":"GABF"},{"_id":{"$oid":"613eb7df1c1df76a377d6385"},"medal":"Gold","beer":"Legendary Red","brewery":"Golden City Brewery","city":"Golden","state":"CO","style":"German-Style Altbier","year":2018,"coords":[-105.2118,39.7406],"lat":39.7406,"lng":-105.2118,"comp":"GABF"},{"_id":{"$oid":"613eb7df1c1df76a377d6386"},"medal":"Silver","beer":"Little Red Cap","brewery":"Grimm Brothers Brewhouse","city":"Loveland","state":"CO","style":"German-Style Altbier","year":2018,"coords":[-105.0622,40.4167],"lat":40.4167,"lng":-105.0622,"comp":"GABF"},{"_id":{"$oid":"613eb7df1c1df76a377d6387"},"medal":"Bronze","beer":"Alt 1848","brewery":"Utepils Brewing Co.","city":"Minneapolis","state":"MN","style":"German-Style Altbier","year":2018,"coords":[-93.2678,44.9635],"lat":44.9635,"lng":-93.2678,"comp":"GABF"},{"_id":{"$oid":"613eb7df1c1df76a377d6388"},"medal":"Gold","beer":"Smooth Like Jazz","brewery":"Revelry Brewing Co.","city":"Charleston","state":"SC","style":"German-Style Doppelbock or Eisbock","year":2018,"coords":[-79.963,32.8151],"lat":32.8151,"lng":-79.963,"comp":"GABF"},{"_id":{"$oid":"613eb7df1c1df76a377d6389"},"medal":"Silver","beer":"Delaminator Doppelbock","brewery":"Rip Current Brewery","city":"San Marcos","state":"CA","style":"German-Style Doppelbock or Eisbock","year":2018,"coords":[-117.1743,33.135],"lat":33.135,"lng":-117.1743,"comp":"GABF"},{"_id":{"$oid":"613eb7df1c1df76a377d638a"},"medal":"Bronze","beer":"St. Nigels' Doppelbock","brewery":"Front Range Brewing Co.","city":"Lafayette","state":"CO","style":"German-Style Doppelbock or Eisbock","year":2018,"coords":[-105.0997,39.9949],"lat":39.9949,"lng":-105.0997,"comp":"GABF"},{"_id":{"$oid":"613eb7df1c1df76a377d638b"},"medal":"Gold","beer":"Colorado K\u00f6lsch","brewery":"Steamworks Brewing Co.","city":"Durango","state":"CO","style":"German-Style Koelsch","year":2018,"coords":[-107.8703,37.2744],"lat":37.2744,"lng":-107.8703,"comp":"GABF"},{"_id":{"$oid":"613eb7df1c1df76a377d638c"},"medal":"Silver","beer":"Kascadia","brewery":"54\u00b0 40' Brewing Co.","city":"Washougal","state":"WA","style":"German-Style Koelsch","year":2018,"coords":[-122.3433,45.5812],"lat":45.5812,"lng":-122.3433,"comp":"GABF"},{"_id":{"$oid":"613eb7df1c1df76a377d638d"},"medal":"Bronze","beer":"Veedels Br\u00e4u","brewery":"Crooked Lane Brewing Co.","city":"Auburn","state":"CA","style":"German-Style Koelsch","year":2018,"coords":[-121.0777,38.895],"lat":38.895,"lng":-121.0777,"comp":"GABF"},{"_id":{"$oid":"613eb7df1c1df76a377d638e"},"medal":"Gold","beer":"Oktoberfest","brewery":"Rahr & Sons Brewing Co.","city":"Fort Worth","state":"TX","style":"German-Style Maerzen","year":2018,"coords":[-97.3472,32.7812],"lat":32.7812,"lng":-97.3472,"comp":"GABF"},{"_id":{"$oid":"613eb7df1c1df76a377d638f"},"medal":"Silver","beer":"Oktoberfest","brewery":"RAM Restaurant and Brewery - Lakewood","city":"Lakewood","state":"WA","style":"German-Style Maerzen","year":2018,"coords":[-122.5299,47.1628],"lat":47.1628,"lng":-122.5299,"comp":"GABF"},{"_id":{"$oid":"613eb7df1c1df76a377d6390"},"medal":"Bronze","beer":"Oktoberfest","brewery":"Oak Highlands Brewery","city":"Dallas","state":"TX","style":"German-Style Maerzen","year":2018,"coords":[-96.7662,32.7936],"lat":32.7936,"lng":-96.7662,"comp":"GABF"},{"_id":{"$oid":"613eb7df1c1df76a377d6391"},"medal":"Gold","beer":"Netflix and Pils","brewery":"Cannonball Creek Brewing Co.","city":"Golden","state":"CO","style":"German-Style Pilsener","year":2018,"coords":[-105.2118,39.7406],"lat":39.7406,"lng":-105.2118,"comp":"GABF"},{"_id":{"$oid":"613eb7df1c1df76a377d6392"},"medal":"Silver","beer":"Pilsner","brewery":"pFriem Family Brewers","city":"Hood River","state":"OR","style":"German-Style Pilsener","year":2018,"coords":[-121.5258,45.7092],"lat":45.7092,"lng":-121.5258,"comp":"GABF"},{"_id":{"$oid":"613eb7df1c1df76a377d6393"},"medal":"Bronze","beer":"Pilsner","brewery":"Ardent Craft Ales","city":"Richmond","state":"VA","style":"German-Style Pilsener","year":2018,"coords":[-77.4756,37.5295],"lat":37.5295,"lng":-77.4756,"comp":"GABF"},{"_id":{"$oid":"613eb7df1c1df76a377d6394"},"medal":"Gold","beer":"Bananenh\u00e4ngematte","brewery":"FiftyFifty Brewing - Production Facility","city":"Truckee","state":"CA","style":"German-Style Wheat Ale","year":2018,"coords":[-120.1848,39.3454],"lat":39.3454,"lng":-120.1848,"comp":"GABF"},{"_id":{"$oid":"613eb7df1c1df76a377d6395"},"medal":"Silver","beer":"Alviso Mills Hefeweizen","brewery":"Santa Clara Valley Brewing","city":"San Jose","state":"CA","style":"German-Style Wheat Ale","year":2018,"coords":[-121.8489,37.3021],"lat":37.3021,"lng":-121.8489,"comp":"GABF"},{"_id":{"$oid":"613eb7df1c1df76a377d6396"},"medal":"Bronze","beer":"Doppel BLUR","brewery":"Circle Brewing Co.","city":"Austin","state":"TX","style":"German-Style Wheat Ale","year":2018,"coords":[-97.7517,30.3006],"lat":30.3006,"lng":-97.7517,"comp":"GABF"},{"_id":{"$oid":"613eb7df1c1df76a377d6397"},"medal":"Gold","beer":"Puckerberry","brewery":"High Hops Brewery","city":"Windsor","state":"CO","style":"Gluten-Free Beer","year":2018,"coords":[-104.9211,40.4679],"lat":40.4679,"lng":-104.9211,"comp":"GABF"},{"_id":{"$oid":"613eb7df1c1df76a377d6398"},"medal":"Silver","beer":"Aurochs Blonde Ale","brewery":"Aurochs Brewing Co.","city":"Emsworth","state":"PA","style":"Gluten-Free Beer","year":2018,"coords":[-80.0965,40.5112],"lat":40.5112,"lng":-80.0965,"comp":"GABF"},{"_id":{"$oid":"613eb7df1c1df76a377d6399"},"medal":"Bronze","beer":"Dark Ale","brewery":"Ground Breaker Brewing","city":"Portland","state":"OR","style":"Gluten-Free Beer","year":2018,"coords":[-122.65,45.5371],"lat":45.5371,"lng":-122.65,"comp":"GABF"},{"_id":{"$oid":"613eb7df1c1df76a377d639a"},"medal":"Gold","beer":"MadeWest Standard","brewery":"MadeWest Brewing Co.","city":"Ventura","state":"CA","style":"Golden or Blonde Ale","year":2018,"coords":null,"lat":null,"lng":null,"comp":"GABF"},{"_id":{"$oid":"613eb7df1c1df76a377d639b"},"medal":"Silver","beer":"1956 Golden Ale","brewery":"Bootstrap Brewing Co.","city":"Niwot","state":"CO","style":"Golden or Blonde Ale","year":2018,"coords":[-105.1552,40.098],"lat":40.098,"lng":-105.1552,"comp":"GABF"},{"_id":{"$oid":"613eb7df1c1df76a377d639c"},"medal":"Bronze","beer":"Pistol Pete\u2019s 1888 Ale","brewery":"Bosque Brewing Co. - Bosque North","city":"Bernalillo","state":"NM","style":"Golden or Blonde Ale","year":2018,"coords":[-106.5537,35.3127],"lat":35.3127,"lng":-106.5537,"comp":"GABF"},{"_id":{"$oid":"613eb7df1c1df76a377d639d"},"medal":"Gold","beer":"Two of Tarts","brewery":"Upland Brewing Co.","city":"Bloomington","state":"IN","style":"Gose","year":2018,"coords":[-86.5257,39.1637],"lat":39.1637,"lng":-86.5257,"comp":"GABF"},{"_id":{"$oid":"613eb7df1c1df76a377d639e"},"medal":"Silver","beer":"Salty by Nature","brewery":"Root Down Brewing Co.","city":"Phoenixville","state":"PA","style":"Gose","year":2018,"coords":[-75.5201,40.1358],"lat":40.1358,"lng":-75.5201,"comp":"GABF"},{"_id":{"$oid":"613eb7df1c1df76a377d639f"},"medal":"Bronze","beer":"Brewer's Day Off","brewery":"D9 Brewing Co.","city":"Cornelius","state":"NC","style":"Gose","year":2018,"coords":[-80.8822,35.4731],"lat":35.4731,"lng":-80.8822,"comp":"GABF"},{"_id":{"$oid":"613eb7df1c1df76a377d63a0"},"medal":"Gold","beer":"Pendragon","brewery":"Royal Docks Brewhouse and Cannery","city":"Massillon","state":"OH","style":"Herb and Spice Beer","year":2018,"coords":[-81.5256,40.7839],"lat":40.7839,"lng":-81.5256,"comp":"GABF"},{"_id":{"$oid":"613eb7df1c1df76a377d63a1"},"medal":"Silver","beer":"Hazelnut Crunch","brewery":"North By Northwest Restaurant and Brewery - Slaughter","city":"Austin","state":"TX","style":"Herb and Spice Beer","year":2018,"coords":[-97.7517,30.3006],"lat":30.3006,"lng":-97.7517,"comp":"GABF"},{"_id":{"$oid":"613eb7df1c1df76a377d63a2"},"medal":"Bronze","beer":"Wheatstone Bridge","brewery":"Tin Whiskers Brewing","city":"St. Paul","state":"MN","style":"Herb and Spice Beer","year":2018,"coords":[-93.104,44.9477],"lat":44.9477,"lng":-93.104,"comp":"GABF"},{"_id":{"$oid":"613eb7df1c1df76a377d63a3"},"medal":"Gold","beer":"Pushing Trees","brewery":"Central Standard Brewing","city":"Wichita","state":"KS","style":"Historical Beer","year":2018,"coords":[-97.3441,37.6897],"lat":37.6897,"lng":-97.3441,"comp":"GABF"},{"_id":{"$oid":"613eb7df1c1df76a377d63a4"},"medal":"Silver","beer":"The BIG Lubelski","brewery":"Divine Barrel Brewing","city":"Charlotte","state":"NC","style":"Historical Beer","year":2018,"coords":[-80.8304,35.2079],"lat":35.2079,"lng":-80.8304,"comp":"GABF"},{"_id":{"$oid":"613eb7df1c1df76a377d63a5"},"medal":"Bronze","beer":"Zungen Brecher","brewery":"Home Brewing Co.","city":"San Diego","state":"CA","style":"Historical Beer","year":2018,"coords":[-117.1225,32.8312],"lat":32.8312,"lng":-117.1225,"comp":"GABF"},{"_id":{"$oid":"613eb7df1c1df76a377d63a6"},"medal":"Gold","beer":"Belgian Honey Blonde","brewery":"No Clue Craft Brewery","city":"Rancho Cucamonga","state":"CA","style":"Honey Beer","year":2018,"coords":[-117.5666,34.1248],"lat":34.1248,"lng":-117.5666,"comp":"GABF"},{"_id":{"$oid":"613eb7df1c1df76a377d63a7"},"medal":"Silver","beer":"Honey Comb Cream Ale","brewery":"Rock Bottom Brewery - Pittsburgh","city":"Denver","state":"CO","style":"Honey Beer","year":2018,"coords":[-104.8759,39.7621],"lat":39.7621,"lng":-104.8759,"comp":"GABF"},{"_id":{"$oid":"613eb7df1c1df76a377d63a8"},"medal":"Bronze","beer":"Basil Better Have My Honey","brewery":"Low Tide Brewing","city":"Johns Island","state":"SC","style":"Honey Beer","year":2018,"coords":null,"lat":null,"lng":null,"comp":"GABF"},{"_id":{"$oid":"613eb7df1c1df76a377d63a9"},"medal":"Gold","beer":"Nobility","brewery":"Noble Ale Works","city":"Anaheim","state":"CA","style":"Imperial India Pale Ale","year":2018,"coords":[-117.8573,33.839],"lat":33.839,"lng":-117.8573,"comp":"GABF"},{"_id":{"$oid":"613eb7df1c1df76a377d63aa"},"medal":"Silver","beer":"Northern Lights","brewery":"Moonraker Brewing Co. - Production Facility","city":"Auburn","state":"CA","style":"Imperial India Pale Ale","year":2018,"coords":[-121.0777,38.895],"lat":38.895,"lng":-121.0777,"comp":"GABF"},{"_id":{"$oid":"613eb7df1c1df76a377d63ab"},"medal":"Bronze","beer":"Unbridled Enthusiasm","brewery":"Third Space Brewing","city":"Milwaukee","state":"WI","style":"Imperial India Pale Ale","year":2018,"coords":[-87.9673,43.0642],"lat":43.0642,"lng":-87.9673,"comp":"GABF"},{"_id":{"$oid":"613eb7df1c1df76a377d63ac"},"medal":"Gold","beer":"Happy Days","brewery":"Claremont Craft Ales","city":"Claremont","state":"CA","style":"Imperial Red Ale","year":2018,"coords":[-117.7153,34.1259],"lat":34.1259,"lng":-117.7153,"comp":"GABF"},{"_id":{"$oid":"613eb7df1c1df76a377d63ad"},"medal":"Silver","beer":"Robot","brewery":"Stereo Brewing Co.","city":"Placentia","state":"CA","style":"Imperial Red Ale","year":2018,"coords":[-117.8553,33.8807],"lat":33.8807,"lng":-117.8553,"comp":"GABF"},{"_id":{"$oid":"613eb7df1c1df76a377d63ae"},"medal":"Bronze","beer":"Cinder Beast","brewery":"Sunriver Brewing","city":"Sunriver","state":"OR","style":"Imperial Red Ale","year":2018,"coords":[-121.4368,43.8816],"lat":43.8816,"lng":-121.4368,"comp":"GABF"},{"_id":{"$oid":"613eb7df1c1df76a377d63af"},"medal":"Gold","beer":"Kill the Lights","brewery":"The Tap Brewery","city":"Bloomington","state":"IN","style":"Imperial Stout","year":2018,"coords":[-86.5257,39.1637],"lat":39.1637,"lng":-86.5257,"comp":"GABF"},{"_id":{"$oid":"613eb7df1c1df76a377d63b0"},"medal":"Silver","beer":"The Shroud","brewery":"Bravery Brewing","city":"Lancaster","state":"CA","style":"Imperial Stout","year":2018,"coords":[-118.1753,34.6934],"lat":34.6934,"lng":-118.1753,"comp":"GABF"},{"_id":{"$oid":"613eb7df1c1df76a377d63b1"},"medal":"Bronze","beer":"Shimmergloom","brewery":"Loowit Brewing Co.","city":"Vancouver","state":"WA","style":"Imperial Stout","year":2018,"coords":[-122.597,45.6367],"lat":45.6367,"lng":-122.597,"comp":"GABF"},{"_id":{"$oid":"613eb7df1c1df76a377d63b2"},"medal":"Gold","beer":"Mai Tai P.A.","brewery":"Alvarado Street Brewery & Grill","city":"Monterey","state":"CA","style":"International-Style Pale Ale","year":2018,"coords":[-121.8807,36.5922],"lat":36.5922,"lng":-121.8807,"comp":"GABF"},{"_id":{"$oid":"613eb7df1c1df76a377d63b3"},"medal":"Silver","beer":"Guayabera","brewery":"Cigar City Brewing","city":"Tampa","state":"FL","style":"International-Style Pale Ale","year":2018,"coords":[-82.4451,27.9942],"lat":27.9942,"lng":-82.4451,"comp":"GABF"},{"_id":{"$oid":"613eb7df1c1df76a377d63b4"},"medal":"Bronze","beer":"The Penske File","brewery":"Faction Brewing Co.","city":"Alameda","state":"CA","style":"International-Style Pale Ale","year":2018,"coords":[-122.2673,37.767],"lat":37.767,"lng":-122.2673,"comp":"GABF"},{"_id":{"$oid":"613eb7df1c1df76a377d63b5"},"medal":"Gold","beer":"Wooden Teeth","brewery":"Turtle Mountain Brewing Co.","city":"Rio Rancho","state":"NM","style":"International-Style Pilsener","year":2018,"coords":[-106.6981,35.2872],"lat":35.2872,"lng":-106.6981,"comp":"GABF"},{"_id":{"$oid":"613eb7df1c1df76a377d63b6"},"medal":"Silver","beer":"Nano - OG Lager","brewery":"Market Garden Brewery","city":"Cleveland","state":"OH","style":"International-Style Pilsener","year":2018,"coords":[-81.6805,41.4767],"lat":41.4767,"lng":-81.6805,"comp":"GABF"},{"_id":{"$oid":"613eb7df1c1df76a377d63b7"},"medal":"Bronze","beer":"Cerveza Delray","brewery":"Brew Detroit","city":"Detroit","state":"MI","style":"International-Style Pilsener","year":2018,"coords":[-83.1024,42.3834],"lat":42.3834,"lng":-83.1024,"comp":"GABF"},{"_id":{"$oid":"613eb7df1c1df76a377d63b8"},"medal":"Gold","beer":"Scarlet > Fire","brewery":"Tighthead Brewing Co.","city":"Mundelein","state":"IL","style":"Irish-Style Red Ale","year":2018,"coords":[-88.0101,42.2692],"lat":42.2692,"lng":-88.0101,"comp":"GABF"},{"_id":{"$oid":"613eb7df1c1df76a377d63b9"},"medal":"Silver","beer":"TAPS Irish Red","brewery":"TAPS Fish House and Brewery - Corona","city":"Corona","state":"CA","style":"Irish-Style Red Ale","year":2018,"coords":[-117.5641,33.862],"lat":33.862,"lng":-117.5641,"comp":"GABF"},{"_id":{"$oid":"613eb7df1c1df76a377d63ba"},"medal":"Bronze","beer":"DEFCON Red","brewery":"Comrade Brewing Co.","city":"Denver","state":"CO","style":"Irish-Style Red Ale","year":2018,"coords":[-104.8759,39.7621],"lat":39.7621,"lng":-104.8759,"comp":"GABF"},{"_id":{"$oid":"613eb7df1c1df76a377d63bb"},"medal":"Gold","beer":"New England Style Double IPA","brewery":"Black Market Brewing Co.","city":"Temecula","state":"CA","style":"Juicy or Hazy Imperial or Double India Pale Ale","year":2018,"coords":[-117.1315,33.4928],"lat":33.4928,"lng":-117.1315,"comp":"GABF"},{"_id":{"$oid":"613eb7df1c1df76a377d63bc"},"medal":"Silver","beer":"Color of Life","brewery":"Corridor Brewery & Provisions","city":"Chicago","state":"IL","style":"Juicy or Hazy Imperial or Double India Pale Ale","year":2018,"coords":[-87.6862,41.8373],"lat":41.8373,"lng":-87.6862,"comp":"GABF"},{"_id":{"$oid":"613eb7df1c1df76a377d63bd"},"medal":"Bronze","beer":"Contains No Juice","brewery":"Alvarado Street Brewery","city":"Salinas","state":"CA","style":"Juicy or Hazy Imperial or Double India Pale Ale","year":2018,"coords":[-121.6317,36.6884],"lat":36.6884,"lng":-121.6317,"comp":"GABF"},{"_id":{"$oid":"613eb7df1c1df76a377d63be"},"medal":"Gold","beer":"Le Jus","brewery":"Alarmist Brewing","city":"Chicago","state":"IL","style":"Juicy or Hazy India Pale Ale","year":2018,"coords":[-87.6862,41.8373],"lat":41.8373,"lng":-87.6862,"comp":"GABF"},{"_id":{"$oid":"613eb7df1c1df76a377d63bf"},"medal":"Silver","beer":"Fairy Nectar London Double Dry Hopped","brewery":"Kros Strain Brewing Co.","city":"La Vista","state":"NE","style":"Juicy or Hazy India Pale Ale","year":2018,"coords":[-96.0665,41.1816],"lat":41.1816,"lng":-96.0665,"comp":"GABF"},{"_id":{"$oid":"613eb7df1c1df76a377d63c0"},"medal":"Bronze","beer":"Foiken Haze","brewery":"Eris Brewery and Cider House","city":"Chicago","state":"IL","style":"Juicy or Hazy India Pale Ale","year":2018,"coords":[-87.6862,41.8373],"lat":41.8373,"lng":-87.6862,"comp":"GABF"},{"_id":{"$oid":"613eb7df1c1df76a377d63c1"},"medal":"Gold","beer":"Voodoo","brewery":"Tin Roof Brewing Co.","city":"Baton Rouge","state":"LA","style":"Juicy or Hazy Pale Ale","year":2018,"coords":[-91.131,30.4419],"lat":30.4419,"lng":-91.131,"comp":"GABF"},{"_id":{"$oid":"613eb7df1c1df76a377d63c2"},"medal":"Silver","beer":"Sippin on Dank 2.0","brewery":"Kings Brewing Co.","city":"Rancho Cucamonga","state":"CA","style":"Juicy or Hazy Pale Ale","year":2018,"coords":[-117.5666,34.1248],"lat":34.1248,"lng":-117.5666,"comp":"GABF"},{"_id":{"$oid":"613eb7df1c1df76a377d63c3"},"medal":"Bronze","beer":"Madame Psychosis","brewery":"Fiction Beer Co.","city":"Denver","state":"CO","style":"Juicy or Hazy Pale Ale","year":2018,"coords":[-104.8759,39.7621],"lat":39.7621,"lng":-104.8759,"comp":"GABF"},{"_id":{"$oid":"613eb7df1c1df76a377d63c4"},"medal":"Gold","beer":"Keller Pils","brewery":"Summit Brewing Co.","city":"St. Paul","state":"MN","style":"Kellerbier or Zwickelbier","year":2018,"coords":[-93.104,44.9477],"lat":44.9477,"lng":-93.104,"comp":"GABF"},{"_id":{"$oid":"613eb7df1c1df76a377d63c5"},"medal":"Silver","beer":"STS Pils","brewery":"Russian River Brewing Co. - Production","city":"Santa Rosa","state":"CA","style":"Kellerbier or Zwickelbier","year":2018,"coords":[-122.7067,38.4458],"lat":38.4458,"lng":-122.7067,"comp":"GABF"},{"_id":{"$oid":"613eb7df1c1df76a377d63c6"},"medal":"Bronze","beer":"NashZwickel","brewery":"Nashville Brewing Co.","city":"Nashville","state":"TN","style":"Kellerbier or Zwickelbier","year":2018,"coords":[-86.7843,36.1715],"lat":36.1715,"lng":-86.7843,"comp":"GABF"},{"_id":{"$oid":"613eb7df1c1df76a377d63c7"},"medal":"Gold","beer":"Altitude Banquet","brewery":"Altitude Chophouse and Brewery","city":"Laramie","state":"WY","style":"Light Lager","year":2018,"coords":[-105.6085,41.3099],"lat":41.3099,"lng":-105.6085,"comp":"GABF"},{"_id":{"$oid":"613eb7df1c1df76a377d63c8"},"medal":"Silver","beer":"Awesome Beer Rice Lager","brewery":"State Room Brewery","city":"San Rafael","state":"CA","style":"Light Lager","year":2018,"coords":[-122.5222,37.9904],"lat":37.9904,"lng":-122.5222,"comp":"GABF"},{"_id":{"$oid":"613eb7df1c1df76a377d63c9"},"medal":"Bronze","beer":"Super Awesome Lager","brewery":"Austin Beerworks","city":"Austin","state":"TX","style":"Light Lager","year":2018,"coords":[-97.7517,30.3006],"lat":30.3006,"lng":-97.7517,"comp":"GABF"},{"_id":{"$oid":"613eb7df1c1df76a377d63ca"},"medal":"Gold","beer":"Druif","brewery":"pFriem Family Brewers","city":"Hood River","state":"OR","style":"Mixed-Culture Brett Beer","year":2018,"coords":[-121.5258,45.7092],"lat":45.7092,"lng":-121.5258,"comp":"GABF"},{"_id":{"$oid":"613eb7df1c1df76a377d63cb"},"medal":"Silver","beer":"Citra Dry Hopped Funk Yo Couch","brewery":"Wiley Roots Brewing Co.","city":"Greeley","state":"CO","style":"Mixed-Culture Brett Beer","year":2018,"coords":[-104.7705,40.4151],"lat":40.4151,"lng":-104.7705,"comp":"GABF"},{"_id":{"$oid":"613eb7df1c1df76a377d63cc"},"medal":"Bronze","beer":"Coming to Fruition: Cherry","brewery":"Oregon City Brewing Co.","city":"Oregon City","state":"OR","style":"Mixed-Culture Brett Beer","year":2018,"coords":[-122.5927,45.3414],"lat":45.3414,"lng":-122.5927,"comp":"GABF"},{"_id":{"$oid":"613eb7df1c1df76a377d63cd"},"medal":"Gold","beer":"Chuckanut Dunkel","brewery":"Chuckanut - South Nut","city":"Burlington","state":"WA","style":"Munich-Style Dunkel or European-Style Dark Lager","year":2018,"coords":[-122.3298,48.4677],"lat":48.4677,"lng":-122.3298,"comp":"GABF"},{"_id":{"$oid":"613eb7df1c1df76a377d63ce"},"medal":"Silver","beer":"Duck River Dunkel","brewery":"Goat Island Brewing","city":"Cullman","state":"AL","style":"Munich-Style Dunkel or European-Style Dark Lager","year":2018,"coords":[-86.8399,34.1777],"lat":34.1777,"lng":-86.8399,"comp":"GABF"},{"_id":{"$oid":"613eb7df1c1df76a377d63cf"},"medal":"Bronze","beer":"Babee Bock","brewery":"Brew Kettle - Production Works","city":"Strongsville","state":"OH","style":"Munich-Style Dunkel or European-Style Dark Lager","year":2018,"coords":[-81.8313,41.3128],"lat":41.3128,"lng":-81.8313,"comp":"GABF"},{"_id":{"$oid":"613eb7df1c1df76a377d63d0"},"medal":"Gold","beer":"Hell Yes","brewery":"The Austin Beer Garden Brewing Co.","city":"Austin","state":"TX","style":"Munich-Style Helles","year":2018,"coords":[-97.7517,30.3006],"lat":30.3006,"lng":-97.7517,"comp":"GABF"},{"_id":{"$oid":"613eb7df1c1df76a377d63d1"},"medal":"Silver","beer":"Chuckanut Helles","brewery":"Chuckanut Brewery - North Nut","city":"Bellingham","state":"WA","style":"Munich-Style Helles","year":2018,"coords":[-122.4687,48.7543],"lat":48.7543,"lng":-122.4687,"comp":"GABF"},{"_id":{"$oid":"613eb7df1c1df76a377d63d2"},"medal":"Bronze","beer":"House Lager","brewery":"Jack's Abby Brewing","city":"Framingham","state":"MA","style":"Munich-Style Helles","year":2018,"coords":[-71.4368,42.3085],"lat":42.3085,"lng":-71.4368,"comp":"GABF"},{"_id":{"$oid":"613eb7df1c1df76a377d63d3"},"medal":"Gold","beer":"Shoshone Stout","brewery":"Glenwood Canyon Brewing Co.","city":"Glenwood Springs","state":"CO","style":"Oatmeal Stout","year":2018,"coords":[-107.3347,39.5455],"lat":39.5455,"lng":-107.3347,"comp":"GABF"},{"_id":{"$oid":"613eb7df1c1df76a377d63d4"},"medal":"Silver","beer":"Oats","brewery":"Pizza Port Solana Beach","city":"Solana Beach","state":"CA","style":"Oatmeal Stout","year":2018,"coords":[-117.2575,32.9942],"lat":32.9942,"lng":-117.2575,"comp":"GABF"},{"_id":{"$oid":"613eb7df1c1df76a377d63d5"},"medal":"Bronze","beer":"Wall of Sound","brewery":"Stereo Brewing Co.","city":"Placentia","state":"CA","style":"Oatmeal Stout","year":2018,"coords":[-117.8553,33.8807],"lat":33.8807,"lng":-117.8553,"comp":"GABF"},{"_id":{"$oid":"613eb7df1c1df76a377d63d6"},"medal":"Gold","beer":"Drunkard's Cloak","brewery":"Banded Oak Brewing Co.","city":"Denver","state":"CO","style":"Old Ale or Strong Ale","year":2018,"coords":[-104.8759,39.7621],"lat":39.7621,"lng":-104.8759,"comp":"GABF"},{"_id":{"$oid":"613eb7df1c1df76a377d63d7"},"medal":"Silver","beer":"Old Scrooge","brewery":"Silver City Brewery","city":"Bremerton","state":"WA","style":"Old Ale or Strong Ale","year":2018,"coords":[-122.7121,47.5436],"lat":47.5436,"lng":-122.7121,"comp":"GABF"},{"_id":{"$oid":"613eb7df1c1df76a377d63d8"},"medal":"Bronze","beer":"Rail Gun Wee Heavy","brewery":"BNS Brewing & Distilling Co.","city":"Santee","state":"CA","style":"Old Ale or Strong Ale","year":2018,"coords":[-116.9851,32.8554],"lat":32.8554,"lng":-116.9851,"comp":"GABF"},{"_id":{"$oid":"613eb7df1c1df76a377d63d9"},"medal":"Gold","beer":"Sawtooth Ale","brewery":"Left Hand Brewing Co.","city":"Longmont","state":"CO","style":"Ordinary or Special Bitter","year":2018,"coords":[-105.0996,40.169],"lat":40.169,"lng":-105.0996,"comp":"GABF"},{"_id":{"$oid":"613eb7df1c1df76a377d63da"},"medal":"Silver","beer":"Copperline Amber Ale","brewery":"Carolina Brewery - Chapel Hill","city":"Pittsboro","state":"NC","style":"Ordinary or Special Bitter","year":2018,"coords":[-79.1732,35.7255],"lat":35.7255,"lng":-79.1732,"comp":"GABF"},{"_id":{"$oid":"613eb7df1c1df76a377d63db"},"medal":"Bronze","beer":"Saint Arnold Amber Ale","brewery":"Saint Arnold Brewing Co.","city":"Houston","state":"TX","style":"Ordinary or Special Bitter","year":2018,"coords":[-95.3905,29.7869],"lat":29.7869,"lng":-95.3905,"comp":"GABF"},{"_id":{"$oid":"613eb7df1c1df76a377d63dc"},"medal":"Gold","beer":"Pour le Mineur","brewery":"Corridor Brewery & Provisions","city":"Chicago","state":"IL","style":"Other Belgian-Style Ale","year":2018,"coords":[-87.6862,41.8373],"lat":41.8373,"lng":-87.6862,"comp":"GABF"},{"_id":{"$oid":"613eb7df1c1df76a377d63dd"},"medal":"Silver","beer":"Call of the Void","brewery":"Original Pattern Brewing Co.","city":"Oakland","state":"CA","style":"Other Belgian-Style Ale","year":2018,"coords":[-122.2165,37.7903],"lat":37.7903,"lng":-122.2165,"comp":"GABF"},{"_id":{"$oid":"613eb7df1c1df76a377d63de"},"medal":"Bronze","beer":"Red Devil","brewery":"Printer's Ale Manufacturing Co.","city":"Carrollton","state":"GA","style":"Other Belgian-Style Ale","year":2018,"coords":[-85.0837,33.5818],"lat":33.5818,"lng":-85.0837,"comp":"GABF"},{"_id":{"$oid":"613eb7df1c1df76a377d63df"},"medal":"Gold","beer":"Golden Prairie Doppel Alt","brewery":"Argus Brewery","city":"Chicago","state":"IL","style":"Other Strong Beer","year":2018,"coords":[-87.6862,41.8373],"lat":41.8373,"lng":-87.6862,"comp":"GABF"},{"_id":{"$oid":"613eb7df1c1df76a377d63e0"},"medal":"Silver","beer":"False Hope","brewery":"Spilled Grain Brewhouse","city":"Annandale","state":"MN","style":"Other Strong Beer","year":2018,"coords":[-94.1206,45.2598],"lat":45.2598,"lng":-94.1206,"comp":"GABF"},{"_id":{"$oid":"613eb7df1c1df76a377d63e1"},"medal":"Bronze","beer":"Lampshade Porter","brewery":"Starr Brothers Brewing Co.","city":"Albuquerque","state":"NM","style":"Other Strong Beer","year":2018,"coords":[-106.6464,35.1053],"lat":35.1053,"lng":-106.6464,"comp":"GABF"},{"_id":{"$oid":"613eb7df1c1df76a377d63e2"},"medal":"Gold","beer":"Gordgeous","brewery":"NoDa Brewing Co. - NE","city":"Charlotte","state":"NC","style":"Pumpkin\/Squash Beer or Pumpkin Spice Beer","year":2018,"coords":[-80.8304,35.2079],"lat":35.2079,"lng":-80.8304,"comp":"GABF"},{"_id":{"$oid":"613eb7df1c1df76a377d63e3"},"medal":"Silver","beer":"Whole Hog Pumpkin Ale","brewery":"Stevens Point Brewery","city":"Stevens Point","state":"WI","style":"Pumpkin\/Squash Beer or Pumpkin Spice Beer","year":2018,"coords":[-89.5508,44.5241],"lat":44.5241,"lng":-89.5508,"comp":"GABF"},{"_id":{"$oid":"613eb7df1c1df76a377d63e4"},"medal":"Bronze","beer":"5 Phantoms Pumpkin Spice Barleywine","brewery":"Philipsburg Brewing Co. - The Vault","city":"Philipsburg","state":"MT","style":"Pumpkin\/Squash Beer or Pumpkin Spice Beer","year":2018,"coords":[-113.296,46.3324],"lat":46.3324,"lng":-113.296,"comp":"GABF"},{"_id":{"$oid":"613eb7df1c1df76a377d63e5"},"medal":"Gold","beer":"Lomporter","brewery":"Lompoc Brewing - The 5th Quadrant","city":"Portland","state":"OR","style":"Robust Porter","year":2018,"coords":[-122.65,45.5371],"lat":45.5371,"lng":-122.65,"comp":"GABF"},{"_id":{"$oid":"613eb7df1c1df76a377d63e6"},"medal":"Silver","beer":"Porter","brewery":"Founders Brewing Co.","city":"Grand Rapids","state":"MI","style":"Robust Porter","year":2018,"coords":[-85.6557,42.9615],"lat":42.9615,"lng":-85.6557,"comp":"GABF"},{"_id":{"$oid":"613eb7df1c1df76a377d63e7"},"medal":"Bronze","beer":"Ghost Rider Porter","brewery":"Big Ugly Brewing Co.","city":"Chesapeake","state":"VA","style":"Robust Porter","year":2018,"coords":[-76.3024,36.6778],"lat":36.6778,"lng":-76.3024,"comp":"GABF"},{"_id":{"$oid":"613eb7df1c1df76a377d63e8"},"medal":"Gold","beer":"Rye Dawn","brewery":"Breakwater Brewing Co.","city":"Oceanside","state":"CA","style":"Rye Beer","year":2018,"coords":[-117.3083,33.2247],"lat":33.2247,"lng":-117.3083,"comp":"GABF"},{"_id":{"$oid":"613eb7df1c1df76a377d63e9"},"medal":"Silver","beer":"Unite the Clans","brewery":"Third Space Brewing","city":"Milwaukee","state":"WI","style":"Rye Beer","year":2018,"coords":[-87.9673,43.0642],"lat":43.0642,"lng":-87.9673,"comp":"GABF"},{"_id":{"$oid":"613eb7df1c1df76a377d63ea"},"medal":"Bronze","beer":"Rise Up Rye","brewery":"Gun Hill Brewing Co.","city":"Bronx","state":"NY","style":"Rye Beer","year":2018,"coords":[-73.8662,40.8501],"lat":40.8501,"lng":-73.8662,"comp":"GABF"},{"_id":{"$oid":"613eb7df1c1df76a377d63eb"},"medal":"Gold","beer":"Real Heavy","brewery":"Real Ale Brewing Co.","city":"Blanco","state":"TX","style":"Scotch Ale","year":2018,"coords":[-98.4169,30.0987],"lat":30.0987,"lng":-98.4169,"comp":"GABF"},{"_id":{"$oid":"613eb7df1c1df76a377d63ec"},"medal":"Silver","beer":"Skag","brewery":"6th and La Brea","city":"Los Angeles","state":"CA","style":"Scotch Ale","year":2018,"coords":[-118.4068,34.1139],"lat":34.1139,"lng":-118.4068,"comp":"GABF"},{"_id":{"$oid":"613eb7df1c1df76a377d63ed"},"medal":"Bronze","beer":"Kilt Switch","brewery":"903 Brewers","city":"Sherman","state":"TX","style":"Scotch Ale","year":2018,"coords":[-96.6195,33.6266],"lat":33.6266,"lng":-96.6195,"comp":"GABF"},{"_id":{"$oid":"613eb7df1c1df76a377d63ee"},"medal":"Gold","beer":"Taildragger Clan-Destine","brewery":"Saddle Mountain Brewing Co.","city":"Goodyear","state":"AZ","style":"Scottish-Style Ale","year":2018,"coords":[-112.3622,33.2614],"lat":33.2614,"lng":-112.3622,"comp":"GABF"},{"_id":{"$oid":"613eb7df1c1df76a377d63ef"},"medal":"Silver","beer":"Saint Arnold Oktoberfest","brewery":"Saint Arnold Brewing Co.","city":"Houston","state":"TX","style":"Scottish-Style Ale","year":2018,"coords":[-95.3905,29.7869],"lat":29.7869,"lng":-95.3905,"comp":"GABF"},{"_id":{"$oid":"613eb7df1c1df76a377d63f0"},"medal":"Bronze","beer":"It Takes a Tribe Red Ale","brewery":"Goat Patch Brewing Co.","city":"Colorado Springs","state":"CO","style":"Scottish-Style Ale","year":2018,"coords":[-104.7606,38.8674],"lat":38.8674,"lng":-104.7606,"comp":"GABF"},{"_id":{"$oid":"613eb7df1c1df76a377d63f1"},"medal":"Gold","beer":"Natural Bridge: Vienna Lager","brewery":"Eppig Brewing","city":"San Diego","state":"CA","style":"Session Beer","year":2018,"coords":[-117.1225,32.8312],"lat":32.8312,"lng":-117.1225,"comp":"GABF"},{"_id":{"$oid":"613eb7df1c1df76a377d63f2"},"medal":"Silver","beer":"Noble Miner","brewery":"Burgeon Beer Co.","city":"Carlsbad","state":"CA","style":"Session Beer","year":2018,"coords":[-117.2837,33.1247],"lat":33.1247,"lng":-117.2837,"comp":"GABF"},{"_id":{"$oid":"613eb7df1c1df76a377d63f3"},"medal":"Bronze","beer":"Stonefly Session Ale","brewery":"Three Creeks Production","city":"Sisters","state":"OR","style":"Session Beer","year":2018,"coords":[-121.5534,44.292],"lat":44.292,"lng":-121.5534,"comp":"GABF"},{"_id":{"$oid":"613eb7df1c1df76a377d63f4"},"medal":"Gold","beer":"The Coachman","brewery":"Societe Brewing Co.","city":"San Diego","state":"CA","style":"Session India Pale Ale","year":2018,"coords":[-117.1225,32.8312],"lat":32.8312,"lng":-117.1225,"comp":"GABF"},{"_id":{"$oid":"613eb7df1c1df76a377d63f5"},"medal":"Silver","beer":"Little Downtown Tom","brewery":"Three Mile Brewing Co.","city":"Davis","state":"CA","style":"Session India Pale Ale","year":2018,"coords":[-121.7365,38.5552],"lat":38.5552,"lng":-121.7365,"comp":"GABF"},{"_id":{"$oid":"613eb7df1c1df76a377d63f6"},"medal":"Bronze","beer":"Mosaic Reprise","brewery":"Little City Brewing Co.","city":"Raleigh","state":"NC","style":"Session India Pale Ale","year":2018,"coords":[-78.6438,35.8324],"lat":35.8324,"lng":-78.6438,"comp":"GABF"},{"_id":{"$oid":"613eb7df1c1df76a377d63f7"},"medal":"Gold","beer":"St. Chuck's Smoke","brewery":"Rogue Ales Issaquah Brewhouse","city":"Issaquah","state":"WA","style":"Smoke Beer","year":2018,"coords":[-122.0444,47.542],"lat":47.542,"lng":-122.0444,"comp":"GABF"},{"_id":{"$oid":"613eb7df1c1df76a377d63f8"},"medal":"Silver","beer":"Pro-Pro Porter","brewery":"Wormtown Brewery","city":"Worcester","state":"MA","style":"Smoke Beer","year":2018,"coords":[-71.8079,42.2705],"lat":42.2705,"lng":-71.8079,"comp":"GABF"},{"_id":{"$oid":"613eb7df1c1df76a377d63f9"},"medal":"Bronze","beer":"Raucher","brewery":"Wolverine State Brewing Co.","city":"Ann Arbor","state":"MI","style":"Smoke Beer","year":2018,"coords":[-83.7312,42.2755],"lat":42.2755,"lng":-83.7312,"comp":"GABF"},{"_id":{"$oid":"613eb7df1c1df76a377d63fa"},"medal":"Gold","beer":"Civil Rest","brewery":"Little Brother Brewing","city":"Greensboro","state":"NC","style":"South German-Style Hefeweizen","year":2018,"coords":[-79.8268,36.0956],"lat":36.0956,"lng":-79.8268,"comp":"GABF"},{"_id":{"$oid":"613eb7df1c1df76a377d63fb"},"medal":"Silver","beer":"Hoofer's Hef","brewery":"Bankhead Brewing Co.","city":"Rowlett","state":"TX","style":"South German-Style Hefeweizen","year":2018,"coords":[-96.5488,32.9157],"lat":32.9157,"lng":-96.5488,"comp":"GABF"},{"_id":{"$oid":"613eb7df1c1df76a377d63fc"},"medal":"Bronze","beer":"Hefeweizen","brewery":"Standard Deviant Brewing","city":"San Francisco","state":"CA","style":"South German-Style Hefeweizen","year":2018,"coords":[-122.443,37.7562],"lat":37.7562,"lng":-122.443,"comp":"GABF"},{"_id":{"$oid":"613eb7df1c1df76a377d63fd"},"medal":"Gold","beer":"Graham Cracker Porter","brewery":"Denver Beer Co. - Canworks","city":"Denver","state":"CO","style":"Specialty Beer","year":2018,"coords":[-104.8759,39.7621],"lat":39.7621,"lng":-104.8759,"comp":"GABF"},{"_id":{"$oid":"613eb7df1c1df76a377d63fe"},"medal":"Silver","beer":"Double Stack","brewery":"Great Notion Brewing","city":"Portland","state":"OR","style":"Specialty Beer","year":2018,"coords":[-122.65,45.5371],"lat":45.5371,"lng":-122.65,"comp":"GABF"},{"_id":{"$oid":"613eb7df1c1df76a377d63ff"},"medal":"Bronze","beer":"I Did It All For The Cookie","brewery":"FiftyFifty Brewing - Production Facility","city":"Truckee","state":"CA","style":"Specialty Beer","year":2018,"coords":[-120.1848,39.3454],"lat":39.3454,"lng":-120.1848,"comp":"GABF"},{"_id":{"$oid":"613eb7df1c1df76a377d6400"},"medal":"Gold","beer":"Apricot Saison","brewery":"105 West Brewing Co.","city":"Castle Rock","state":"CO","style":"Specialty Saison","year":2018,"coords":[-104.8535,39.3762],"lat":39.3762,"lng":-104.8535,"comp":"GABF"},{"_id":{"$oid":"613eb7df1c1df76a377d6401"},"medal":"Silver","beer":"Sunken City","brewery":"Insight Brewing Co.","city":"Minneapolis","state":"MN","style":"Specialty Saison","year":2018,"coords":[-93.2678,44.9635],"lat":44.9635,"lng":-93.2678,"comp":"GABF"},{"_id":{"$oid":"613eb7df1c1df76a377d6402"},"medal":"Bronze","beer":"Rustic Sunday","brewery":"Birds Fly South Ale Project","city":"Greenville","state":"SC","style":"Specialty Saison","year":2018,"coords":[-82.3649,34.8362],"lat":34.8362,"lng":-82.3649,"comp":"GABF"},{"_id":{"$oid":"613eb7df1c1df76a377d6403"},"medal":"Gold","beer":"Moozie","brewery":"Brink Brewing Co.","city":"Cincinnati","state":"OH","style":"Sweet Stout or Cream Stout","year":2018,"coords":[-84.506,39.1412],"lat":39.1412,"lng":-84.506,"comp":"GABF"},{"_id":{"$oid":"613eb7df1c1df76a377d6404"},"medal":"Silver","beer":"Udder Love","brewery":"Beachwood Brewing","city":"Huntington Beach","state":"CA","style":"Sweet Stout or Cream Stout","year":2018,"coords":[-118.0025,33.696],"lat":33.696,"lng":-118.0025,"comp":"GABF"},{"_id":{"$oid":"613eb7df1c1df76a377d6405"},"medal":"Bronze","beer":"Melk Stout","brewery":"Columbus Brewing Co.","city":"Columbus","state":"OH","style":"Sweet Stout or Cream Stout","year":2018,"coords":[-82.9851,39.986],"lat":39.986,"lng":-82.9851,"comp":"GABF"},{"_id":{"$oid":"613eb7df1c1df76a377d6406"},"medal":"Gold","beer":"Oktoberfest","brewery":"SKA Brewing","city":"Durango","state":"CO","style":"Vienna-Style Lager","year":2018,"coords":[-107.8703,37.2744],"lat":37.2744,"lng":-107.8703,"comp":"GABF"},{"_id":{"$oid":"613eb7df1c1df76a377d6407"},"medal":"Silver","beer":"13.Five Ofest","brewery":"Blue Mountain Barrel House and Organic Brewery","city":"Arrington","state":"VA","style":"Vienna-Style Lager","year":2018,"coords":[-78.8928,37.6744],"lat":37.6744,"lng":-78.8928,"comp":"GABF"},{"_id":{"$oid":"613eb7df1c1df76a377d6408"},"medal":"Bronze","beer":"Vienna Lager","brewery":"Grains of Wrath Brewing","city":"Camas","state":"WA","style":"Vienna-Style Lager","year":2018,"coords":[-122.4306,45.6003],"lat":45.6003,"lng":-122.4306,"comp":"GABF"},{"_id":{"$oid":"613eb7df1c1df76a377d6409"},"medal":"Gold","beer":"Barrel Aged Japance Off","brewery":"Denver Beer Co. - Olde Town Arvada","city":"Arvada","state":"CO","style":"Wood- and Barrel-Aged Beer","year":2018,"coords":[-105.1511,39.8321],"lat":39.8321,"lng":-105.1511,"comp":"GABF"},{"_id":{"$oid":"613eb7df1c1df76a377d640a"},"medal":"Silver","beer":"Redrum","brewery":"Duck Foot Brewing Co.","city":"San Diego","state":"CA","style":"Wood- and Barrel-Aged Beer","year":2018,"coords":[-117.1225,32.8312],"lat":32.8312,"lng":-117.1225,"comp":"GABF"},{"_id":{"$oid":"613eb7df1c1df76a377d640b"},"medal":"Bronze","beer":"beWILDering C","brewery":"Ten Pin Brewing Co.","city":"Moses Lake","state":"WA","style":"Wood- and Barrel-Aged Beer","year":2018,"coords":[-119.2741,47.1284],"lat":47.1284,"lng":-119.2741,"comp":"GABF"},{"_id":{"$oid":"613eb7df1c1df76a377d640c"},"medal":"Gold","beer":"3 Barrel Circus","brewery":"River Dog Brewing Co.","city":"Bluffton","state":"SC","style":"Wood- and Barrel-Aged Sour Beer","year":2018,"coords":[-80.9316,32.2135],"lat":32.2135,"lng":-80.9316,"comp":"GABF"},{"_id":{"$oid":"613eb7df1c1df76a377d640d"},"medal":"Silver","beer":"Duck Duck Gooze","brewery":"Port Brewing Co. \/ The Lost Abbey","city":"San Marcos","state":"CA","style":"Wood- and Barrel-Aged Sour Beer","year":2018,"coords":[-117.1743,33.135],"lat":33.135,"lng":-117.1743,"comp":"GABF"},{"_id":{"$oid":"613eb7df1c1df76a377d640e"},"medal":"Bronze","beer":"Oak-Aged Sour","brewery":"Propolis Brewing","city":"Port Townsend","state":"WA","style":"Wood- and Barrel-Aged Sour Beer","year":2018,"coords":[-122.7872,48.122],"lat":48.122,"lng":-122.7872,"comp":"GABF"},{"_id":{"$oid":"613eb7df1c1df76a377d640f"},"medal":"Gold","beer":"Santa's Brass","brewery":"Drake's Brewing Co.","city":"San Leandro","state":"CA","style":"Wood- and Barrel-Aged Strong Beer","year":2018,"coords":[-122.1601,37.7071],"lat":37.7071,"lng":-122.1601,"comp":"GABF"},{"_id":{"$oid":"613eb7df1c1df76a377d6410"},"medal":"Silver","beer":"Willett Barrel-Aged Ye Old Sprinklerhead Barleywine","brewery":"The Wrecking Bar Brewpub","city":"Atlanta","state":"GA","style":"Wood- and Barrel-Aged Strong Beer","year":2018,"coords":[-84.4225,33.7627],"lat":33.7627,"lng":-84.4225,"comp":"GABF"},{"_id":{"$oid":"613eb7df1c1df76a377d6411"},"medal":"Bronze","beer":"Straight Jacket","brewery":"Revolution Brewing","city":"Chicago","state":"IL","style":"Wood- and Barrel-Aged Strong Beer","year":2018,"coords":[-87.6862,41.8373],"lat":41.8373,"lng":-87.6862,"comp":"GABF"},{"_id":{"$oid":"613eb7df1c1df76a377d6412"},"medal":"Gold","beer":"70K Amburana","brewery":"Against the Grain Brewery","city":"Louisville","state":"KY","style":"Wood- and Barrel-Aged Strong Stout","year":2018,"coords":[-85.6485,38.1663],"lat":38.1663,"lng":-85.6485,"comp":"GABF"},{"_id":{"$oid":"613eb7df1c1df76a377d6413"},"medal":"Silver","beer":"A Night to End All Dawns","brewery":"Kane Brewing","city":"Ocean","state":"NJ","style":"Wood- and Barrel-Aged Strong Stout","year":2018,"coords":null,"lat":null,"lng":null,"comp":"GABF"},{"_id":{"$oid":"613eb7df1c1df76a377d6414"},"medal":"Bronze","beer":"Eclipse","brewery":"FiftyFifty Brewing Co.","city":"Truckee","state":"CA","style":"Wood- and Barrel-Aged Strong Stout","year":2018,"coords":[-120.1848,39.3454],"lat":39.3454,"lng":-120.1848,"comp":"GABF"},{"_id":{"$oid":"613eb7df1c1df76a377d6415"},"medal":"First Place","beer":"Samuel Adams Boston Lager","brewery":"Boston Beer Co.","city":"Boston","state":"MA","style":"Consumer Preference Poll","year":1985,"coords":[-71.0846,42.3188],"lat":42.3188,"lng":-71.0846,"comp":"GABF"},{"_id":{"$oid":"613eb7df1c1df76a377d6416"},"medal":"Second Place","beer":"Hibernia Dunkel Weizen","brewery":"Hibernia Brewing Co.","city":"Eau Claire","state":"WI","style":"Consumer Preference Poll","year":1985,"coords":[-91.4951,44.82],"lat":44.82,"lng":-91.4951,"comp":"GABF"},{"_id":{"$oid":"613eb7df1c1df76a377d6417"},