[{"_id":{"$oid":"670ea5543856496f95071c22"},"medal":"Gold","beer":"Samuel Adams Boston Stock Ale","brewery":"Boston Beer Co.","city":"Boston","state":"MA","style":"Alts","year":1989,"coords":[-71.0846,42.3188],"lat":42.3188,"lng":-71.0846,"comp":"GABF"},{"_id":{"$oid":"670ea5543856496f95071c23"},"medal":"Silver","beer":"Sun Valley White Cloud Ale","brewery":"Sun Valley Brewing Co.","city":"Hailey","state":"ID","style":"Alts","year":1989,"coords":[-114.3,43.5141],"lat":43.5141,"lng":-114.3,"comp":"GABF"},{"_id":{"$oid":"670ea5543856496f95071c24"},"medal":"Gold","beer":"Full Sail Amber Ale","brewery":"Full Sail Brewing Co.","city":"Hood River","state":"OR","style":"Amber Ales","year":1989,"coords":[-121.5258,45.7092],"lat":45.7092,"lng":-121.5258,"comp":"GABF"},{"_id":{"$oid":"670ea5543856496f95071c25"},"medal":"Silver","beer":"1989 Autumn Ale","brewery":"Alaskan Brewing and Bottling Co.","city":"Juneau","state":"AK","style":"Amber Ales","year":1989,"coords":[-134.1739,58.4546],"lat":58.4546,"lng":-134.1739,"comp":"GABF"},{"_id":{"$oid":"670ea5543856496f95071c26"},"medal":"Bronze","beer":"Hope Red Rooster Ale","brewery":"Hope Brewing Co.","city":"Providence","state":"RI","style":"Amber Ales","year":1989,"coords":[-71.4187,41.823],"lat":41.823,"lng":-71.4187,"comp":"GABF"},{"_id":{"$oid":"670ea5543856496f95071c27"},"medal":"Gold","beer":"Hudepohl 14-K","brewery":"Hudepohl-Schoenling Brewing Co.","city":"Cleveland","state":"OH","style":"American Light Pilsners","year":1989,"coords":[-81.6805,41.4767],"lat":41.4767,"lng":-81.6805,"comp":"GABF"},{"_id":{"$oid":"670ea5543856496f95071c28"},"medal":"Silver","beer":"Michelob Light","brewery":"Anheuser-Busch, Inc","city":"Saint Louis","state":"MO","style":"American Light Pilsners","year":1989,"coords":[-90.2451,38.6358],"lat":38.6358,"lng":-90.2451,"comp":"GABF"},{"_id":{"$oid":"670ea5543856496f95071c29"},"medal":"Bronze","beer":"Boston Lightship","brewery":"Boston Beer Co.","city":"Boston","state":"MA","style":"American Light Pilsners","year":1989,"coords":[-71.0846,42.3188],"lat":42.3188,"lng":-71.0846,"comp":"GABF"},{"_id":{"$oid":"670ea5543856496f95071c2a"},"medal":"Gold","beer":"Busch","brewery":"Anheuser-Busch, Inc","city":"Saint Louis","state":"MO","style":"American Pilsners","year":1989,"coords":[-90.2451,38.6358],"lat":38.6358,"lng":-90.2451,"comp":"GABF"},{"_id":{"$oid":"670ea5543856496f95071c2b"},"medal":"Silver","beer":"Miller High Life","brewery":"Miller Brewing Co.","city":"Milwaukee","state":"WI","style":"American Pilsners","year":1989,"coords":[-87.9673,43.0642],"lat":43.0642,"lng":-87.9673,"comp":"GABF"},{"_id":{"$oid":"670ea5543856496f95071c2c"},"medal":"Bronze","beer":"Budweiser","brewery":"Anheuser-Busch, Inc","city":"Saint Louis","state":"MO","style":"American Pilsners","year":1989,"coords":[-90.2451,38.6358],"lat":38.6358,"lng":-90.2451,"comp":"GABF"},{"_id":{"$oid":"670ea5543856496f95071c2d"},"medal":"Gold","beer":"Lowenbrau Dark Special","brewery":"Miller Brewing Co.","city":"Milwaukee","state":"WI","style":"American Premium Dark Pilsners","year":1989,"coords":[-87.9673,43.0642],"lat":43.0642,"lng":-87.9673,"comp":"GABF"},{"_id":{"$oid":"670ea5543856496f95071c2e"},"medal":"Silver","beer":"Michelob Classic Dark","brewery":"Anheuser-Busch, Inc","city":"Saint Louis","state":"MO","style":"American Premium Dark Pilsners","year":1989,"coords":[-90.2451,38.6358],"lat":38.6358,"lng":-90.2451,"comp":"GABF"},{"_id":{"$oid":"670ea5543856496f95071c2f"},"medal":"Bronze","beer":"Berghoff Dark","brewery":"Berghoff-Huber Brewing Co.","city":"Monroe","state":"WI","style":"American Premium Dark Pilsners","year":1989,"coords":[-89.6381,42.603],"lat":42.603,"lng":-89.6381,"comp":"GABF"},{"_id":{"$oid":"670ea5543856496f95071c30"},"medal":"Gold","beer":"Coors Extra Gold","brewery":"Coors Brewing Co.","city":"Golden","state":"CO","style":"American Premium Pilsners","year":1989,"coords":[-105.2118,39.7406],"lat":39.7406,"lng":-105.2118,"comp":"GABF"},{"_id":{"$oid":"670ea5543856496f95071c31"},"medal":"Silver","beer":"Coors","brewery":"Coors Brewing Co.","city":"Golden","state":"CO","style":"American Premium Pilsners","year":1989,"coords":[-105.2118,39.7406],"lat":39.7406,"lng":-105.2118,"comp":"GABF"},{"_id":{"$oid":"670ea5543856496f95071c32"},"medal":"Gold","beer":"Old Foghorn Barley Wine","brewery":"Anchor Brewing Co.","city":"San Francisco","state":"CA","style":"Barley Wines","year":1989,"coords":[-122.443,37.7562],"lat":37.7562,"lng":-122.443,"comp":"GABF"},{"_id":{"$oid":"670ea5543856496f95071c33"},"medal":"Silver","beer":"Old Dipsea Barley Wine","brewery":"Marin Brewing Co.","city":"Larkspur","state":"CA","style":"Barley Wines","year":1989,"coords":[-122.5313,37.9394],"lat":37.9394,"lng":-122.5313,"comp":"GABF"},{"_id":{"$oid":"670ea5543856496f95071c34"},"medal":"Gold","beer":"Catamount Gold","brewery":"Catamount Brewing Co.","city":"Windsor","state":"VT","style":"Blond\/Golden Ales","year":1989,"coords":null,"lat":null,"lng":null,"comp":"GABF"},{"_id":{"$oid":"670ea5543856496f95071c35"},"medal":"Silver","beer":"Oldenberg Blonde","brewery":"Oldenberg Brewery\/Drawbridge","city":"Fort Mitchell","state":"KY","style":"Blond\/Golden Ales","year":1989,"coords":[-84.5563,39.0459],"lat":39.0459,"lng":-84.5563,"comp":"GABF"},{"_id":{"$oid":"670ea5543856496f95071c36"},"medal":"Bronze","beer":"Summit Sparkling Ale","brewery":"Summit Brewing Co.","city":"Saint Paul","state":"MN","style":"Blond\/Golden Ales","year":1989,"coords":null,"lat":null,"lng":null,"comp":"GABF"},{"_id":{"$oid":"670ea5543856496f95071c37"},"medal":"Gold","beer":"Kessler Grand Teton Dopplebock","brewery":"Kessler Brewing Co.","city":"Helena","state":"MT","style":"Bock Beers","year":1989,"coords":[-112.0199,46.5965],"lat":46.5965,"lng":-112.0199,"comp":"GABF"},{"_id":{"$oid":"670ea5543856496f95071c38"},"medal":"Silver","beer":"Old German-Style Bock","brewery":"Frankenmuth Brewery Inc","city":"Frankenmuth","state":"MI","style":"Bock Beers","year":1989,"coords":[-83.7395,43.3321],"lat":43.3321,"lng":-83.7395,"comp":"GABF"},{"_id":{"$oid":"670ea5543856496f95071c39"},"medal":"Bronze","beer":"Dark Horse","brewery":"Virginia Brewing Co.","city":"Birmingham","state":"AL","style":"Bock Beers","year":1989,"coords":[-86.7987,33.5277],"lat":33.5277,"lng":-86.7987,"comp":"GABF"},{"_id":{"$oid":"670ea5543856496f95071c3a"},"medal":"Gold","beer":"Full Sail Brown Ale","brewery":"Full Sail Brewing Co.","city":"Hood River","state":"OR","style":"Brown Ales","year":1989,"coords":[-121.5258,45.7092],"lat":45.7092,"lng":-121.5258,"comp":"GABF"},{"_id":{"$oid":"670ea5543856496f95071c3b"},"medal":"Silver","beer":"Old Brown Dog Ale","brewery":"The Northampton Brewery","city":"Northamapton","state":"MA","style":"Brown Ales","year":1989,"coords":null,"lat":null,"lng":null,"comp":"GABF"},{"_id":{"$oid":"670ea5543856496f95071c3c"},"medal":"First Place","beer":"Samuel Adams Boston Lager","brewery":"Boston Beer Co.","city":"Boston","state":"MA","style":"Consumer Preference Poll","year":1989,"coords":[-71.0846,42.3188],"lat":42.3188,"lng":-71.0846,"comp":"GABF"},{"_id":{"$oid":"670ea5543856496f95071c3d"},"medal":"Gold","beer":"Little Kings Cream Ale","brewery":"Hudepohl-Schoenling Brewing Co.","city":"Cleveland","state":"OH","style":"Cream Ales","year":1989,"coords":[-81.6805,41.4767],"lat":41.4767,"lng":-81.6805,"comp":"GABF"},{"_id":{"$oid":"670ea5543856496f95071c3e"},"medal":"Silver","beer":"Sun Valley Cream Ale","brewery":"Sun Valley Brewing Co.","city":"Hailey","state":"ID","style":"Cream Ales","year":1989,"coords":[-114.3,43.5141],"lat":43.5141,"lng":-114.3,"comp":"GABF"},{"_id":{"$oid":"670ea5543856496f95071c3f"},"medal":"Gold","beer":"Bud Dry","brewery":"Anheuser-Busch, Inc","city":"Saint Louis","state":"MO","style":"Dry Beers","year":1989,"coords":[-90.2451,38.6358],"lat":38.6358,"lng":-90.2451,"comp":"GABF"},{"_id":{"$oid":"670ea5543856496f95071c40"},"medal":"Silver","beer":"Diamond Head Dry","brewery":"Honolulu Brewing Co.","city":"Honolulu","state":"HI","style":"Dry Beers","year":1989,"coords":[-157.846,21.3294],"lat":21.3294,"lng":-157.846,"comp":"GABF"},{"_id":{"$oid":"670ea5543856496f95071c41"},"medal":"Bronze","beer":"Esquire Extra Dry Beer","brewery":"Jones Brewing Co.","city":"Smithton","state":"PA","style":"Dry Beers","year":1989,"coords":[-79.7424,40.1538],"lat":40.1538,"lng":-79.7424,"comp":"GABF"},{"_id":{"$oid":"670ea5543856496f95071c42"},"medal":"Gold","beer":"Schildbrau","brewery":"Millstream Brewing Co.","city":"Amana","state":"IA","style":"European Ambers","year":1989,"coords":[-91.8741,41.8025],"lat":41.8025,"lng":-91.8741,"comp":"GABF"},{"_id":{"$oid":"670ea5543856496f95071c43"},"medal":"Silver","beer":"Erin Brew","brewery":"Cleveland Brewing Co.","city":"Cleveland","state":"OH","style":"European Ambers","year":1989,"coords":[-81.6805,41.4767],"lat":41.4767,"lng":-81.6805,"comp":"GABF"},{"_id":{"$oid":"670ea5543856496f95071c44"},"medal":"Bronze","beer":"Wild Boar Special Amber","brewery":"Wild Boar Brewing Co.","city":"Atlanta","state":"GA","style":"European Ambers","year":1989,"coords":[-84.4225,33.7627],"lat":33.7627,"lng":-84.4225,"comp":"GABF"},{"_id":{"$oid":"670ea5543856496f95071c45"},"medal":"Gold","beer":"Manhattan Gold Lager","brewery":"Mammoth Brewing","city":"New York","state":"NY","style":"European Pilsner","year":1989,"coords":[-73.9249,40.6943],"lat":40.6943,"lng":-73.9249,"comp":"GABF"},{"_id":{"$oid":"670ea5543856496f95071c46"},"medal":"Silver","beer":"D'Agostino Fresh","brewery":"Mammoth Brewing","city":"New York","state":"NY","style":"European Pilsner","year":1989,"coords":[-73.9249,40.6943],"lat":40.6943,"lng":-73.9249,"comp":"GABF"},{"_id":{"$oid":"670ea5543856496f95071c47"},"medal":"Bronze","beer":"Saranac 1888","brewery":"F.X. Matt Brewing Co.","city":"Utica","state":"NY","style":"European Pilsner","year":1989,"coords":[-75.226,43.0961],"lat":43.0961,"lng":-75.226,"comp":"GABF"},{"_id":{"$oid":"670ea5543856496f95071c48"},"medal":"Gold","beer":"Oldenberg Cherry Lager","brewery":"Oldenberg Brewery\/Drawbridge","city":"Fort Mitchell","state":"KY","style":"Fruit Beer","year":1989,"coords":[-84.5563,39.0459],"lat":39.0459,"lng":-84.5563,"comp":"GABF"},{"_id":{"$oid":"670ea5543856496f95071c49"},"medal":"Gold","beer":"Christmas Ale","brewery":"Anchor Brewing Co.","city":"San Francisco","state":"CA","style":"Fruit Beer","year":1989,"coords":[-122.443,37.7562],"lat":37.7562,"lng":-122.443,"comp":"GABF"},{"_id":{"$oid":"670ea5543856496f95071c4a"},"medal":"Silver","beer":"Tri-City Winter Warmer","brewery":"Tri-City Brewing Co.","city":"Bay City","state":"MI","style":"Fruit Beer","year":1989,"coords":[-83.8886,43.5903],"lat":43.5903,"lng":-83.8886,"comp":"GABF"},{"_id":{"$oid":"670ea5543856496f95071c4b"},"medal":"Gold","beer":"Rubicon India Pale Ale","brewery":"Rubicon Brewing Co.","city":"Sacramento","state":"CA","style":"India Pale Ales","year":1989,"coords":[-121.4683,38.5667],"lat":38.5667,"lng":-121.4683,"comp":"GABF"},{"_id":{"$oid":"670ea5543856496f95071c4c"},"medal":"Silver","beer":"Liberty Ale","brewery":"Anchor Brewing Co.","city":"San Francisco","state":"CA","style":"India Pale Ales","year":1989,"coords":[-122.443,37.7562],"lat":37.7562,"lng":-122.443,"comp":"GABF"},{"_id":{"$oid":"670ea5543856496f95071c4d"},"medal":"Gold","beer":"St. Ides Premium Malt Liquor","brewery":"McKenzie River Partners","city":"San Francisco","state":"CA","style":"Malt Liquor","year":1989,"coords":[-122.443,37.7562],"lat":37.7562,"lng":-122.443,"comp":"GABF"},{"_id":{"$oid":"670ea5543856496f95071c4e"},"medal":"Silver","beer":"Midnight Dragon Malt","brewery":"Hudepohl-Schoenling Brewing Co.","city":"Cleveland","state":"OH","style":"Malt Liquor","year":1989,"coords":[-81.6805,41.4767],"lat":41.4767,"lng":-81.6805,"comp":"GABF"},{"_id":{"$oid":"670ea5543856496f95071c4f"},"medal":"Bronze","beer":"King Cobra","brewery":"Anheuser-Busch, Inc","city":"Saint Louis","state":"MO","style":"Malt Liquor","year":1989,"coords":[-90.2451,38.6358],"lat":38.6358,"lng":-90.2451,"comp":"GABF"},{"_id":{"$oid":"670ea5543856496f95071c50"},"medal":"Gold","beer":"Old German Dark","brewery":"Frankenmuth Brewery Inc","city":"Frankenmuth","state":"MI","style":"Muenchers","year":1989,"coords":[-83.7395,43.3321],"lat":43.3321,"lng":-83.7395,"comp":"GABF"},{"_id":{"$oid":"670ea5543856496f95071c51"},"medal":"Silver","beer":"Helenbock Beer","brewery":"Friends Brewing Co.","city":"Kennesaw","state":"GA","style":"Muenchers","year":1989,"coords":[-84.6177,34.0262],"lat":34.0262,"lng":-84.6177,"comp":"GABF"},{"_id":{"$oid":"670ea5543856496f95071c52"},"medal":"Gold","beer":"Sierra Nevada Pale Ale","brewery":"Sierra Nevada Brewing Co.","city":"Chico","state":"CA","style":"Pale Ales","year":1989,"coords":[-121.8152,39.7575],"lat":39.7575,"lng":-121.8152,"comp":"GABF"},{"_id":{"$oid":"670ea5543856496f95071c53"},"medal":"Silver","beer":"Post Road Real Ale","brewery":"Old Marlborough Brewing Co.","city":"Framingham","state":"MA","style":"Pale Ales","year":1989,"coords":[-71.4368,42.3085],"lat":42.3085,"lng":-71.4368,"comp":"GABF"},{"_id":{"$oid":"670ea5543856496f95071c54"},"medal":"Bronze","beer":"Mount Tamalpais Ale","brewery":"Marin Brewing Co.","city":"Larkspur","state":"CA","style":"Pale Ales","year":1989,"coords":[-122.5313,37.9394],"lat":37.9394,"lng":-122.5313,"comp":"GABF"},{"_id":{"$oid":"670ea5543856496f95071c55"},"medal":"Gold","beer":"Tower Dark","brewery":"Butterfield Brewing Co.","city":"Fresno","state":"CA","style":"Porters","year":1989,"coords":[-119.7941,36.7831],"lat":36.7831,"lng":-119.7941,"comp":"GABF"},{"_id":{"$oid":"670ea5543856496f95071c56"},"medal":"Silver","beer":"George Washington Porter","brewery":"Boston Beer Co.","city":"Boston","state":"MA","style":"Porters","year":1989,"coords":[-71.0846,42.3188],"lat":42.3188,"lng":-71.0846,"comp":"GABF"},{"_id":{"$oid":"670ea5543856496f95071c57"},"medal":"Bronze","beer":"Anchor Porter","brewery":"Anchor Brewing Co.","city":"San Francisco","state":"CA","style":"Porters","year":1989,"coords":[-122.443,37.7562],"lat":37.7562,"lng":-122.443,"comp":"GABF"},{"_id":{"$oid":"670ea5543856496f95071c58"},"medal":"Gold","beer":"Sun Valley Our Holiday Ale","brewery":"Sun Valley Brewing Co.","city":"Hailey","state":"ID","style":"Scottish Ales","year":1989,"coords":[-114.3,43.5141],"lat":43.5141,"lng":-114.3,"comp":"GABF"},{"_id":{"$oid":"670ea5543856496f95071c59"},"medal":"Silver","beer":"Blue Whale Ale","brewery":"Pacific Coast Brewing Co.","city":"Oakland","state":"CA","style":"Scottish Ales","year":1989,"coords":[-122.2165,37.7903],"lat":37.7903,"lng":-122.2165,"comp":"GABF"},{"_id":{"$oid":"670ea5543856496f95071c5a"},"medal":"Gold","beer":"San Quentin Breakout Stout","brewery":"Marin Brewing Co.","city":"Larkspur","state":"CA","style":"Stouts","year":1989,"coords":[-122.5313,37.9394],"lat":37.9394,"lng":-122.5313,"comp":"GABF"},{"_id":{"$oid":"670ea5543856496f95071c5b"},"medal":"Silver","beer":"Sierra Nevada Stout","brewery":"Sierra Nevada Brewing Co.","city":"Chico","state":"CA","style":"Stouts","year":1989,"coords":[-121.8152,39.7575],"lat":39.7575,"lng":-121.8152,"comp":"GABF"},{"_id":{"$oid":"670ea5543856496f95071c5c"},"medal":"Bronze","beer":"Rubicon Stout","brewery":"Rubicon Brewing Co.","city":"Sacramento","state":"CA","style":"Stouts","year":1989,"coords":[-121.4683,38.5667],"lat":38.5667,"lng":-121.4683,"comp":"GABF"},{"_id":{"$oid":"670ea5543856496f95071c5d"},"medal":"Gold","beer":"Market Street Oktoberfest","brewery":"Bohannon Brewing Co.","city":"Nashville","state":"TN","style":"Vienna\/Marzen\/Octoberfest Beer","year":1989,"coords":[-86.7843,36.1715],"lat":36.1715,"lng":-86.7843,"comp":"GABF"},{"_id":{"$oid":"670ea5543856496f95071c5e"},"medal":"Silver","beer":"Gartenbrau Octoberfest","brewery":"Capital Brewery Co. Inc","city":"Middleton","state":"WI","style":"Vienna\/Marzen\/Octoberfest Beer","year":1989,"coords":[-89.5058,43.1064],"lat":43.1064,"lng":-89.5058,"comp":"GABF"},{"_id":{"$oid":"670ea5543856496f95071c5f"},"medal":"Bronze","beer":"Newman's Albany Amber","brewery":"William S Newman Brewing Co.","city":"Albany","state":"NY","style":"Vienna\/Marzen\/Octoberfest Beer","year":1989,"coords":[-73.7987,42.6664],"lat":42.6664,"lng":-73.7987,"comp":"GABF"},{"_id":{"$oid":"670ea5543856496f95071c60"},"medal":"Gold","beer":"Stoudt's Weizen","brewery":"Stoudt's Brewing Co.","city":"Adamstown","state":"PA","style":"Wheat Beers","year":1989,"coords":[-76.0608,40.2417],"lat":40.2417,"lng":-76.0608,"comp":"GABF"},{"_id":{"$oid":"670ea5543856496f95071c61"},"medal":"Silver","beer":"Chicago Vice Weizen","brewery":"Goose Island Beer Co.","city":"Chicago","state":"IL","style":"Wheat Beers","year":1989,"coords":[-87.6862,41.8373],"lat":41.8373,"lng":-87.6862,"comp":"GABF"},{"_id":{"$oid":"670ea5543856496f95071c62"},"medal":"Bronze","beer":"Marin Weiss","brewery":"Marin Brewing Co.","city":"Larkspur","state":"CA","style":"Wheat Beers","year":1989,"coords":[-122.5313,37.9394],"lat":37.9394,"lng":-122.5313,"comp":"GABF"},{"_id":{"$oid":"670ea5543856496f95071c63"},"medal":"Gold","beer":"Sonidero","brewery":"Windmills","city":"The Colony","state":"TX","style":"American Amber Lager","year":2022,"coords":[-96.8977,33.0927],"lat":33.0927,"lng":-96.8977,"comp":"GABF"},{"_id":{"$oid":"670ea5543856496f95071c64"},"medal":"Silver","beer":"Seductive Mullet Amber Ale","brewery":"Goose and the Monkey Brewhouse","city":"Lexington","state":"NC","style":"American Amber Lager","year":2022,"coords":[-80.2682,35.8017],"lat":35.8017,"lng":-80.2682,"comp":"GABF"},{"_id":{"$oid":"670ea5543856496f95071c65"},"medal":"Bronze","beer":"Amberama","brewery":"Elmhurst Brewing Co.","city":"Elmhurst","state":"IL","style":"American Amber Lager","year":2022,"coords":[-87.9432,41.8973],"lat":41.8973,"lng":-87.9432,"comp":"GABF"},{"_id":{"$oid":"670ea5543856496f95071c66"},"medal":"Gold","beer":"Argument Starter","brewery":"Wicked Barley Brewing Co.","city":"Jacksonville","state":"FL","style":"American Amber\/Red Ale","year":2022,"coords":[-81.6749,30.3322],"lat":30.3322,"lng":-81.6749,"comp":"GABF"},{"_id":{"$oid":"670ea5543856496f95071c67"},"medal":"Silver","beer":"Railsplitter","brewery":"Lincoln Beer Co.","city":"Burbank","state":"CA","style":"American Amber\/Red Ale","year":2022,"coords":[-118.3235,34.1879],"lat":34.1879,"lng":-118.3235,"comp":"GABF"},{"_id":{"$oid":"670ea5543856496f95071c68"},"medal":"Bronze","beer":"Frog King","brewery":"King\u2019s Court Brewing Co.","city":"Poughkeepsie","state":"NY","style":"American Amber\/Red Ale","year":2022,"coords":[-73.921,41.6949],"lat":41.6949,"lng":-73.921,"comp":"GABF"},{"_id":{"$oid":"670ea5543856496f95071c69"},"medal":"Gold","beer":"Hooked On Onyx","brewery":"Ten Mile Brewing Co.","city":"Signal Hill","state":"CA","style":"American Black Ale or American Stout","year":2022,"coords":[-118.1681,33.8029],"lat":33.8029,"lng":-118.1681,"comp":"GABF"},{"_id":{"$oid":"670ea5543856496f95071c6a"},"medal":"Silver","beer":"Stone Cimmerian Portal","brewery":"Stone Brewing World Bistro &amp; Gardens \u2013 Liberty Station","city":"San Diego","state":"CA","style":"American Black Ale or American Stout","year":2022,"coords":[-117.1225,32.8312],"lat":32.8312,"lng":-117.1225,"comp":"GABF"},{"_id":{"$oid":"670ea5543856496f95071c6b"},"medal":"Bronze","beer":"Black the Riipper","brewery":"Riip Beer Co.","city":"Huntington Beach","state":"CA","style":"American Black Ale or American Stout","year":2022,"coords":[-118.0025,33.696],"lat":33.696,"lng":-118.0025,"comp":"GABF"},{"_id":{"$oid":"670ea5543856496f95071c6c"},"medal":"Gold","beer":"1970s Lager","brewery":"Faction Brewing","city":"Alameda","state":"CA","style":"American Cream Ale","year":2022,"coords":[-122.2673,37.767],"lat":37.767,"lng":-122.2673,"comp":"GABF"},{"_id":{"$oid":"670ea5543856496f95071c6d"},"medal":"Silver","beer":"Carlos Danger","brewery":"Bearded Tang Brewing","city":"Stanton","state":"CA","style":"American Cream Ale","year":2022,"coords":[-117.9935,33.8002],"lat":33.8002,"lng":-117.9935,"comp":"GABF"},{"_id":{"$oid":"670ea5543856496f95071c6e"},"medal":"Bronze","beer":"Chanclaso","brewery":"Arrow Lodge Brewing","city":"Covina","state":"CA","style":"American Cream Ale","year":2022,"coords":[-117.8817,34.0903],"lat":34.0903,"lng":-117.8817,"comp":"GABF"},{"_id":{"$oid":"670ea5543856496f95071c6f"},"medal":"Gold","beer":"Berry, Berry, Quite Contrary","brewery":"Territorial Brewing Co.","city":"Springfield","state":"MI","style":"American Fruit Beer","year":2022,"coords":[-85.2371,42.3246],"lat":42.3246,"lng":-85.2371,"comp":"GABF"},{"_id":{"$oid":"670ea5543856496f95071c70"},"medal":"Silver","beer":"Black Razz Blonde","brewery":"Joyride Brewing Co.","city":"Edgewater","state":"CO","style":"American Fruit Beer","year":2022,"coords":[-105.0626,39.7507],"lat":39.7507,"lng":-105.0626,"comp":"GABF"},{"_id":{"$oid":"670ea5543856496f95071c71"},"medal":"Bronze","beer":"Raspberry Fields","brewery":"Maple Branch Craft Brewery","city":"Fort Worth","state":"TX","style":"American Fruit Beer","year":2022,"coords":[-97.3472,32.7812],"lat":32.7812,"lng":-97.3472,"comp":"GABF"},{"_id":{"$oid":"670ea5543856496f95071c72"},"medal":"Gold","beer":"Classic City Lager","brewery":"Creature Comforts Brewing Co. \u2013 Southern Mill","city":"Athens","state":"GA","style":"American Pilsener","year":2022,"coords":[-83.3689,33.9508],"lat":33.9508,"lng":-83.3689,"comp":"GABF"},{"_id":{"$oid":"670ea5543856496f95071c73"},"medal":"Silver","beer":"Lightning Will","brewery":"On Tour Brewing Co.","city":"Chicago","state":"IL","style":"American Pilsener","year":2022,"coords":[-87.6862,41.8373],"lat":41.8373,"lng":-87.6862,"comp":"GABF"},{"_id":{"$oid":"670ea5543856496f95071c74"},"medal":"Bronze","beer":"Bullpen","brewery":"Atlas Brew Works","city":"Washington","state":"DC","style":"American Pilsener","year":2022,"coords":[-77.0163,38.9047],"lat":38.9047,"lng":-77.0163,"comp":"GABF"},{"_id":{"$oid":"670ea5543856496f95071c75"},"medal":"Gold","beer":"Hot Break","brewery":"Little Beast Brewing","city":"Clackamas","state":"OR","style":"American Sour Ale","year":2022,"coords":null,"lat":null,"lng":null,"comp":"GABF"},{"_id":{"$oid":"670ea5543856496f95071c76"},"medal":"Silver","beer":"Mirage","brewery":"New Terrain Brewing Co.","city":"Golden","state":"CO","style":"American Sour Ale","year":2022,"coords":[-105.2118,39.7406],"lat":39.7406,"lng":-105.2118,"comp":"GABF"},{"_id":{"$oid":"670ea5543856496f95071c77"},"medal":"Bronze","beer":"Low pHunk","brewery":"MobCraft Beer","city":"Milwaukee","state":"WI","style":"American Sour Ale","year":2022,"coords":[-87.9673,43.0642],"lat":43.0642,"lng":-87.9673,"comp":"GABF"},{"_id":{"$oid":"670ea5543856496f95071c78"},"medal":"Gold","beer":"White Noise","brewery":"\u00dcberbrew","city":"Billings","state":"MT","style":"American Wheat Beer","year":2022,"coords":[-108.5509,45.7889],"lat":45.7889,"lng":-108.5509,"comp":"GABF"},{"_id":{"$oid":"670ea5543856496f95071c79"},"medal":"Silver","beer":"Sweet As! Pacific Ale","brewery":"GoodLife Brewing Co.","city":"Bend","state":"OR","style":"American Wheat Beer","year":2022,"coords":[-121.3087,44.0562],"lat":44.0562,"lng":-121.3087,"comp":"GABF"},{"_id":{"$oid":"670ea5543856496f95071c7a"},"medal":"Bronze","beer":"Agave Wheat","brewery":"Breckenridge Brewery","city":"Littleton","state":"CO","style":"American Wheat Beer","year":2022,"coords":[-105.0188,39.5915],"lat":39.5915,"lng":-105.0188,"comp":"GABF"},{"_id":{"$oid":"670ea5543856496f95071c7b"},"medal":"Gold","beer":"Bizarro","brewery":"Protagonist Beer \u2013 Southend Brewery","city":"Charlotte","state":"NC","style":"American-Belgo-Style Ale","year":2022,"coords":[-80.8304,35.2079],"lat":35.2079,"lng":-80.8304,"comp":"GABF"},{"_id":{"$oid":"670ea5543856496f95071c7c"},"medal":"Silver","beer":"Oscar\u2019s Pardon","brewery":"Haymarket Beer Co.","city":"Chicago","state":"IL","style":"American-Belgo-Style Ale","year":2022,"coords":[-87.6862,41.8373],"lat":41.8373,"lng":-87.6862,"comp":"GABF"},{"_id":{"$oid":"670ea5543856496f95071c7d"},"medal":"Bronze","beer":"La Maison","brewery":"Taxman Brewing Co.","city":"Bargersville","state":"IN","style":"American-Belgo-Style Ale","year":2022,"coords":[-86.2004,39.5412],"lat":39.5412,"lng":-86.2004,"comp":"GABF"},{"_id":{"$oid":"670ea5543856496f95071c7e"},"medal":"Gold","beer":"Three Bridges Brown","brewery":"Wild Fields Brewhouse","city":"Atascadero","state":"CA","style":"American-Style Brown Ale","year":2022,"coords":[-120.6858,35.4827],"lat":35.4827,"lng":-120.6858,"comp":"GABF"},{"_id":{"$oid":"670ea5543856496f95071c7f"},"medal":"Silver","beer":"Burnt Mountain Brown","brewery":"Zion Brewery","city":"Springdale","state":"UT","style":"American-Style Brown Ale","year":2022,"coords":[-113.0048,37.1816],"lat":37.1816,"lng":-113.0048,"comp":"GABF"},{"_id":{"$oid":"670ea5543856496f95071c80"},"medal":"Bronze","beer":"Brown Evolved","brewery":"COLD Coast Brewing Co.","city":"Lompoc","state":"CA","style":"American-Style Brown Ale","year":2022,"coords":[-120.4714,34.6618],"lat":34.6618,"lng":-120.4714,"comp":"GABF"},{"_id":{"$oid":"670ea5543856496f95071c81"},"medal":"Gold","beer":"More Dodge Less RAM","brewery":"Comrade Brewing Co.","city":"Denver","state":"CO","style":"American-Style India Pale Ale","year":2022,"coords":[-104.8759,39.7621],"lat":39.7621,"lng":-104.8759,"comp":"GABF"},{"_id":{"$oid":"670ea5543856496f95071c82"},"medal":"Silver","beer":"Dankster Squad","brewery":"Riip Beer Co.","city":"Huntington Beach","state":"CA","style":"American-Style India Pale Ale","year":2022,"coords":[-118.0025,33.696],"lat":33.696,"lng":-118.0025,"comp":"GABF"},{"_id":{"$oid":"670ea5543856496f95071c83"},"medal":"Bronze","beer":"Hop-Fu!","brewery":"North Park Beer Co.","city":"San Diego","state":"CA","style":"American-Style India Pale Ale","year":2022,"coords":[-117.1225,32.8312],"lat":32.8312,"lng":-117.1225,"comp":"GABF"},{"_id":{"$oid":"670ea5543856496f95071c84"},"medal":"Gold","beer":"Bridge","brewery":"Deadwords Brewing Co.","city":"Orlando","state":"FL","style":"American-Style Lager","year":2022,"coords":[-81.3369,28.4772],"lat":28.4772,"lng":-81.3369,"comp":"GABF"},{"_id":{"$oid":"670ea5543856496f95071c85"},"medal":"Silver","beer":"Mountain Marble","brewery":"Precarious Beer Project \u2013 Precarious Beer Hall","city":"Williamsburg","state":"VA","style":"American-Style Lager","year":2022,"coords":[-76.7076,37.2692],"lat":37.2692,"lng":-76.7076,"comp":"GABF"},{"_id":{"$oid":"670ea5543856496f95071c86"},"medal":"Bronze","beer":"Midwest Royalty","brewery":"Alarmist Brewing","city":"Chicago","state":"IL","style":"American-Style Lager","year":2022,"coords":[-87.6862,41.8373],"lat":41.8373,"lng":-87.6862,"comp":"GABF"},{"_id":{"$oid":"670ea5543856496f95071c87"},"medal":"Gold","beer":"Rippin","brewery":"Sunriver Brewing Co.","city":"Sunriver","state":"OR","style":"American-Style Pale Ale","year":2022,"coords":[-121.4368,43.8816],"lat":43.8816,"lng":-121.4368,"comp":"GABF"},{"_id":{"$oid":"670ea5543856496f95071c88"},"medal":"Silver","beer":"Breakside Woodlawn Pale Ale","brewery":"Breakside Brewery","city":"Portland","state":"OR","style":"American-Style Pale Ale","year":2022,"coords":[-122.65,45.5371],"lat":45.5371,"lng":-122.65,"comp":"GABF"},{"_id":{"$oid":"670ea5543856496f95071c89"},"medal":"Bronze","beer":"Pale From The Crypt","brewery":"Liquid Gravity Brewing Co.","city":"San Luis Obispo","state":"CA","style":"American-Style Pale Ale","year":2022,"coords":[-120.6689,35.267],"lat":35.267,"lng":-120.6689,"comp":"GABF"},{"_id":{"$oid":"670ea5543856496f95071c8a"},"medal":"Gold","beer":"Mordant","brewery":"Ghost Town Brewing","city":"Oakland","state":"CA","style":"American-Style Strong Pale Ale","year":2022,"coords":[-122.2165,37.7903],"lat":37.7903,"lng":-122.2165,"comp":"GABF"},{"_id":{"$oid":"670ea5543856496f95071c8b"},"medal":"Silver","beer":"Secret Beach","brewery":"Meanwhile Brewing Co.","city":"Austin","state":"TX","style":"American-Style Strong Pale Ale","year":2022,"coords":[-97.7517,30.3006],"lat":30.3006,"lng":-97.7517,"comp":"GABF"},{"_id":{"$oid":"670ea5543856496f95071c8c"},"medal":"Bronze","beer":"Eyes are Mosaic","brewery":"Casa Agria Specialty Ales","city":"Oxnard","state":"CA","style":"American-Style Strong Pale Ale","year":2022,"coords":[-119.1819,34.1962],"lat":34.1962,"lng":-119.1819,"comp":"GABF"},{"_id":{"$oid":"670ea5543856496f95071c8d"},"medal":"Gold","beer":"Mexican Lager","brewery":"pFriem Family Brewers","city":"Hood River","state":"OR","style":"Australasian, Latin American or Tropical Light Lager","year":2022,"coords":[-121.5258,45.7092],"lat":45.7092,"lng":-121.5258,"comp":"GABF"},{"_id":{"$oid":"670ea5543856496f95071c8e"},"medal":"Silver","beer":"ABQ Lucha Libre","brewery":"Flix Brewhouse \u2013 ABQ","city":"Albuquerque","state":"NM","style":"Australasian, Latin American or Tropical Light Lager","year":2022,"coords":[-106.6464,35.1053],"lat":35.1053,"lng":-106.6464,"comp":"GABF"},{"_id":{"$oid":"670ea5543856496f95071c8f"},"medal":"Bronze","beer":"Taco Tuesday","brewery":"Monday Night Brewing","city":"Atlanta","state":"GA","style":"Australasian, Latin American or Tropical Light Lager","year":2022,"coords":[-84.4225,33.7627],"lat":33.7627,"lng":-84.4225,"comp":"GABF"},{"_id":{"$oid":"670ea5543856496f95071c90"},"medal":"Gold","beer":"Grandissant \u2013 Montmorency Cherry","brewery":"Rowley Farmhouse Ales","city":"Santa Fe","state":"NM","style":"Belgian Fruit Beer","year":2022,"coords":[-105.9819,35.6619],"lat":35.6619,"lng":-105.9819,"comp":"GABF"},{"_id":{"$oid":"670ea5543856496f95071c91"},"medal":"Silver","beer":"Second Hand Lions","brewery":"Platform Beer Co. \u2013 Phunkenship","city":"Cleveland","state":"OH","style":"Belgian Fruit Beer","year":2022,"coords":[-81.6805,41.4767],"lat":41.4767,"lng":-81.6805,"comp":"GABF"},{"_id":{"$oid":"670ea5543856496f95071c92"},"medal":"Bronze","beer":"Atrial Rubicite","brewery":"Jester King Brewery","city":"Austin","state":"TX","style":"Belgian Fruit Beer","year":2022,"coords":[-97.7517,30.3006],"lat":30.3006,"lng":-97.7517,"comp":"GABF"},{"_id":{"$oid":"670ea5543856496f95071c93"},"medal":"Gold","beer":"Belgian Dubbel","brewery":"Skipping Rock Beer Co.","city":"Staunton","state":"VA","style":"Belgian-Style Abbey Ale","year":2022,"coords":[-79.0611,38.1593],"lat":38.1593,"lng":-79.0611,"comp":"GABF"},{"_id":{"$oid":"670ea5543856496f95071c94"},"medal":"Silver","beer":"Marvella","brewery":"Red Rock Brewing \u2013 Production","city":"Salt Lake City","state":"UT","style":"Belgian-Style Abbey Ale","year":2022,"coords":[-111.93,40.7774],"lat":40.7774,"lng":-111.93,"comp":"GABF"},{"_id":{"$oid":"670ea5543856496f95071c95"},"medal":"Bronze","beer":"Wild West Tripel","brewery":"Chicago Brewing Co. \u2013 NV","city":"Las Vegas","state":"NV","style":"Belgian-Style Abbey Ale","year":2022,"coords":[-115.2654,36.2333],"lat":36.2333,"lng":-115.2654,"comp":"GABF"},{"_id":{"$oid":"670ea5543856496f95071c96"},"medal":"Gold","beer":"DOMESTIQUE Blonde Ale","brewery":"Rouleur Brewing Co.","city":"Carlsbad","state":"CA","style":"Belgian-Style Ale or French-Style Ale","year":2022,"coords":[-117.2837,33.1247],"lat":33.1247,"lng":-117.2837,"comp":"GABF"},{"_id":{"$oid":"670ea5543856496f95071c97"},"medal":"Silver","beer":"Goin\u2019 Stag","brewery":"Cabin Boys Brewery","city":"Tulsa","state":"OK","style":"Belgian-Style Ale or French-Style Ale","year":2022,"coords":[-95.9043,36.1284],"lat":36.1284,"lng":-95.9043,"comp":"GABF"},{"_id":{"$oid":"670ea5543856496f95071c98"},"medal":"Bronze","beer":"Space Cadet","brewery":"Apogee Brewing Co.","city":"Grover Beach","state":"CA","style":"Belgian-Style Ale or French-Style Ale","year":2022,"coords":[-120.6199,35.1204],"lat":35.1204,"lng":-120.6199,"comp":"GABF"},{"_id":{"$oid":"670ea5543856496f95071c99"},"medal":"Gold","beer":"Stay The Funk In","brewery":"Crooked Stave","city":"Denver","state":"CO","style":"Belgian-Style Sour Ale","year":2022,"coords":[-104.8759,39.7621],"lat":39.7621,"lng":-104.8759,"comp":"GABF"},{"_id":{"$oid":"670ea5543856496f95071c9a"},"medal":"Silver","beer":"Foxy Lady","brewery":"Silver City Brewery","city":"Bremerton","state":"WA","style":"Belgian-Style Sour Ale","year":2022,"coords":[-122.7121,47.5436],"lat":47.5436,"lng":-122.7121,"comp":"GABF"},{"_id":{"$oid":"670ea5543856496f95071c9b"},"medal":"Bronze","beer":"Triad","brewery":"IMBIB Custom Brews","city":"Reno","state":"NV","style":"Belgian-Style Sour Ale","year":2022,"coords":[-119.8483,39.5497],"lat":39.5497,"lng":-119.8483,"comp":"GABF"},{"_id":{"$oid":"670ea5543856496f95071c9c"},"medal":"Gold","beer":"Colts Abbey","brewery":"Source Brewing","city":"Colts Neck","state":"NJ","style":"Belgian-Style Strong Specialty Ale","year":2022,"coords":null,"lat":null,"lng":null,"comp":"GABF"},{"_id":{"$oid":"670ea5543856496f95071c9d"},"medal":"Silver","beer":"Bishop\u2019s Pass Ale","brewery":"Great American Restaurants \u2013 Sweetwater Tavern Sterling","city":"Sterling","state":"VA","style":"Belgian-Style Strong Specialty Ale","year":2022,"coords":[-77.405,39.0052],"lat":39.0052,"lng":-77.405,"comp":"GABF"},{"_id":{"$oid":"670ea5543856496f95071c9e"},"medal":"Bronze","beer":"St. Vrain","brewery":"Left Hand Brewing Co.","city":"Longmont","state":"CO","style":"Belgian-Style Strong Specialty Ale","year":2022,"coords":[-105.0996,40.169],"lat":40.169,"lng":-105.0996,"comp":"GABF"},{"_id":{"$oid":"670ea5543856496f95071c9f"},"medal":"Gold","beer":"White","brewery":"Allagash Brewing Co.","city":"Portland","state":"ME","style":"Belgian-Style Witbier","year":2022,"coords":[-70.2715,43.6773],"lat":43.6773,"lng":-70.2715,"comp":"GABF"},{"_id":{"$oid":"670ea5543856496f95071ca0"},"medal":"Silver","beer":"Wit\u2019s End Ale","brewery":"Great American Restaurants \u2013 Sweetwater Tavern Centreville","city":"Centreville","state":"VA","style":"Belgian-Style Witbier","year":2022,"coords":[-77.4388,38.8391],"lat":38.8391,"lng":-77.4388,"comp":"GABF"},{"_id":{"$oid":"670ea5543856496f95071ca1"},"medal":"Bronze","beer":"Third Window White","brewery":"Third Window Brewing Co.","city":"Santa Barbara","state":"CA","style":"Belgian-Style Witbier","year":2022,"coords":[-119.7202,34.4285],"lat":34.4285,"lng":-119.7202,"comp":"GABF"},{"_id":{"$oid":"670ea5543856496f95071ca2"},"medal":"Gold","beer":"Blind Tiger Bock","brewery":"Blind Tiger Brewery &amp; Restaurant","city":"Topeka","state":"KS","style":"Bock","year":2022,"coords":[-95.6955,39.0346],"lat":39.0346,"lng":-95.6955,"comp":"GABF"},{"_id":{"$oid":"670ea5543856496f95071ca3"},"medal":"Silver","beer":"Bonspiel Bock","brewery":"Forgotten Star Brewing Co.","city":"Fridley","state":"MN","style":"Bock","year":2022,"coords":[-93.2595,45.0841],"lat":45.0841,"lng":-93.2595,"comp":"GABF"},{"_id":{"$oid":"670ea5543856496f95071ca4"},"medal":"Bronze","beer":"Big Bock Energy","brewery":"Morgan Territory Brewing","city":"Tracy","state":"CA","style":"Bock","year":2022,"coords":[-121.444,37.726],"lat":37.726,"lng":-121.444,"comp":"GABF"},{"_id":{"$oid":"670ea5543856496f95071ca5"},"medal":"Gold","beer":"The People\u2019s Pilsner","brewery":"Sudwerk Brewing Co.","city":"Davis","state":"CA","style":"Bohemian-Style Pilsener","year":2022,"coords":[-121.7365,38.5552],"lat":38.5552,"lng":-121.7365,"comp":"GABF"},{"_id":{"$oid":"670ea5543856496f95071ca6"},"medal":"Silver","beer":"Pohick Bay Pilsener","brewery":"Fair Winds Brewing Co.","city":"Lorton","state":"VA","style":"Bohemian-Style Pilsener","year":2022,"coords":[-77.2163,38.6984],"lat":38.6984,"lng":-77.2163,"comp":"GABF"},{"_id":{"$oid":"670ea5543856496f95071ca7"},"medal":"Bronze","beer":"Battlesnakes","brewery":"Brewery X","city":"Anaheim","state":"CA","style":"Bohemian-Style Pilsener","year":2022,"coords":[-117.8573,33.839],"lat":33.839,"lng":-117.8573,"comp":"GABF"},{"_id":{"$oid":"670ea5543856496f95071ca8"},"medal":"Gold","beer":"Trystero","brewery":"Our Mutual Friend Brewing Co.","city":"Denver","state":"CO","style":"Brett Beer","year":2022,"coords":[-104.8759,39.7621],"lat":39.7621,"lng":-104.8759,"comp":"GABF"},{"_id":{"$oid":"670ea5543856496f95071ca9"},"medal":"Silver","beer":"Saison","brewery":"Black Dog Brewing Co.","city":"Mooresville","state":"IN","style":"Brett Beer","year":2022,"coords":[-86.3674,39.6038],"lat":39.6038,"lng":-86.3674,"comp":"GABF"},{"_id":{"$oid":"670ea5543856496f95071caa"},"medal":"Bronze","beer":"Bretta Festbier","brewery":"Odd Breed Wild Ales","city":"Pompano Beach","state":"FL","style":"Brett Beer","year":2022,"coords":[-80.1312,26.2428],"lat":26.2428,"lng":-80.1312,"comp":"GABF"},{"_id":{"$oid":"670ea5543856496f95071cab"},"medal":"Gold","beer":"Transporter","brewery":"Kulshan Brewing Co.","city":"Bellingham","state":"WA","style":"Brown Porter","year":2022,"coords":[-122.4687,48.7543],"lat":48.7543,"lng":-122.4687,"comp":"GABF"},{"_id":{"$oid":"670ea5543856496f95071cac"},"medal":"Silver","beer":"Live! At the RYEman","brewery":"Orange Hat Brewing Co.","city":"Knoxville","state":"TN","style":"Brown Porter","year":2022,"coords":[-83.9496,35.9692],"lat":35.9692,"lng":-83.9496,"comp":"GABF"},{"_id":{"$oid":"670ea5543856496f95071cad"},"medal":"Bronze","beer":"Maduro Brown Ale","brewery":"Cigar City Brewing","city":"Tampa","state":"FL","style":"Brown Porter","year":2022,"coords":[-82.4451,27.9942],"lat":27.9942,"lng":-82.4451,"comp":"GABF"},{"_id":{"$oid":"670ea5543856496f95071cae"},"medal":"Gold","beer":"Paloma Persona","brewery":"Chicago Brewing Co. \u2013 NV","city":"Las Vegas","state":"NV","style":"Chili Beer","year":2022,"coords":[-115.2654,36.2333],"lat":36.2333,"lng":-115.2654,"comp":"GABF"},{"_id":{"$oid":"670ea5543856496f95071caf"},"medal":"Silver","beer":"Dosvidanya Mexican Chocolate","brewery":"DESTIHL Brewery","city":"Normal","state":"IL","style":"Chili Beer","year":2022,"coords":[-88.9877,40.522],"lat":40.522,"lng":-88.9877,"comp":"GABF"},{"_id":{"$oid":"670ea5543856496f95071cb0"},"medal":"Bronze","beer":"Fuego Reserva","brewery":"Cerebral Brewing \u2013 Florence St.","city":"Aurora","state":"CO","style":"Chili Beer","year":2022,"coords":[-104.7274,39.7084],"lat":39.7084,"lng":-104.7274,"comp":"GABF"},{"_id":{"$oid":"670ea5543856496f95071cb1"},"medal":"Gold","beer":"Chocolate Stout","brewery":"Fort Myers Brewing Co.","city":"Fort Myers","state":"FL","style":"Chocolate Beer","year":2022,"coords":[-81.8303,26.6195],"lat":26.6195,"lng":-81.8303,"comp":"GABF"},{"_id":{"$oid":"670ea5543856496f95071cb2"},"medal":"Silver","beer":"Devour Imperial Milk Stout: Mexican Chocolate","brewery":"3 Nations Brewing Co.","city":"Carrollton","state":"TX","style":"Chocolate Beer","year":2022,"coords":[-96.8999,32.989],"lat":32.989,"lng":-96.8999,"comp":"GABF"},{"_id":{"$oid":"670ea5543856496f95071cb3"},"medal":"Bronze","beer":"Thiccccest Nibs","brewery":"Moksa Brewing Co.","city":"Rocklin","state":"CA","style":"Chocolate Beer","year":2022,"coords":[-121.2488,38.8075],"lat":38.8075,"lng":-121.2488,"comp":"GABF"},{"_id":{"$oid":"670ea5543856496f95071cb4"},"medal":"Gold","beer":"Wee Nibble","brewery":"Moonlight Brewing Co.","city":"Santa Rosa","state":"CA","style":"Classic Saison","year":2022,"coords":[-122.7067,38.4458],"lat":38.4458,"lng":-122.7067,"comp":"GABF"},{"_id":{"$oid":"670ea5543856496f95071cb5"},"medal":"Silver","beer":"Saison","brewery":"Baere Brewing Co.","city":"Denver","state":"CO","style":"Classic Saison","year":2022,"coords":[-104.8759,39.7621],"lat":39.7621,"lng":-104.8759,"comp":"GABF"},{"_id":{"$oid":"670ea5543856496f95071cb6"},"medal":"Bronze","beer":"Soigne Saison","brewery":"Brewery at the Culinary Institute of America","city":"Hyde Park","state":"NY","style":"Classic Saison","year":2022,"coords":null,"lat":null,"lng":null,"comp":"GABF"},{"_id":{"$oid":"670ea5543856496f95071cb7"},"medal":"Gold","beer":"Cafe Oro","brewery":"Oro Brewing Co.","city":"Mesa","state":"AZ","style":"Coffee Beer","year":2022,"coords":[-111.7181,33.4017],"lat":33.4017,"lng":-111.7181,"comp":"GABF"},{"_id":{"$oid":"670ea5543856496f95071cb8"},"medal":"Silver","beer":"Kato","brewery":"Sonder Brewing","city":"Mason","state":"OH","style":"Coffee Beer","year":2022,"coords":[-84.3023,39.3571],"lat":39.3571,"lng":-84.3023,"comp":"GABF"},{"_id":{"$oid":"670ea5543856496f95071cb9"},"medal":"Bronze","beer":"Gusto Crema Coffee Ale","brewery":"Georgetown Brewing Co.","city":"Seattle","state":"WA","style":"Coffee Beer","year":2022,"coords":[-122.3244,47.6211],"lat":47.6211,"lng":-122.3244,"comp":"GABF"},{"_id":{"$oid":"670ea5543856496f95071cba"},"medal":"Gold","beer":"Super Tonic","brewery":"Docent Brewing","city":"San Juan Capistrano","state":"CA","style":"Coffee Stout or Porter","year":2022,"coords":[-117.6544,33.5009],"lat":33.5009,"lng":-117.6544,"comp":"GABF"},{"_id":{"$oid":"670ea5543856496f95071cbb"},"medal":"Silver","beer":"Zoomie","brewery":"Brink Brewing Co.","city":"Cincinnati","state":"OH","style":"Coffee Stout or Porter","year":2022,"coords":[-84.506,39.1412],"lat":39.1412,"lng":-84.506,"comp":"GABF"},{"_id":{"$oid":"670ea5543856496f95071cbc"},"medal":"Bronze","beer":"Speargun Coffee Stout","brewery":"Snake River Brewing Co.","city":"Jackson","state":"WY","style":"Coffee Stout or Porter","year":2022,"coords":[-110.7745,43.4721],"lat":43.4721,"lng":-110.7745,"comp":"GABF"},{"_id":{"$oid":"670ea5543856496f95071cbd"},"medal":"Gold","beer":"Blackberry Smoke Lager","brewery":"New Realm Brewing Co. \u2013 Atlanta","city":"Atlanta","state":"GA","style":"Contemporary American-Style Lager","year":2022,"coords":[-84.4225,33.7627],"lat":33.7627,"lng":-84.4225,"comp":"GABF"},{"_id":{"$oid":"670ea5543856496f95071cbe"},"medal":"Silver","beer":"Toro y Oso","brewery":"X\u00fcl Beer Co.","city":"Knoxville","state":"TN","style":"Contemporary American-Style Lager","year":2022,"coords":[-83.9496,35.9692],"lat":35.9692,"lng":-83.9496,"comp":"GABF"},{"_id":{"$oid":"670ea5543856496f95071cbf"},"medal":"Bronze","beer":"Las Vegas Lager","brewery":"Big Dog\u2019s Brewing Co.","city":"Las Vegas","state":"NV","style":"Contemporary American-Style Lager","year":2022,"coords":[-115.2654,36.2333],"lat":36.2333,"lng":-115.2654,"comp":"GABF"},{"_id":{"$oid":"670ea5543856496f95071cc0"},"medal":"Gold","beer":"Blackberry Gose","brewery":"Pilot Brewing","city":"Charlotte","state":"NC","style":"Contemporary Gose","year":2022,"coords":[-80.8304,35.2079],"lat":35.2079,"lng":-80.8304,"comp":"GABF"},{"_id":{"$oid":"670ea5543856496f95071cc1"},"medal":"Silver","beer":"POG Gose","brewery":"COVA Brewing Co.","city":"Norfolk","state":"VA","style":"Contemporary Gose","year":2022,"coords":[-76.259,36.8945],"lat":36.8945,"lng":-76.259,"comp":"GABF"},{"_id":{"$oid":"670ea5543856496f95071cc2"},"medal":"Bronze","beer":"Ginger Gose","brewery":"Red Rock Brewing \u2013 Production","city":"Salt Lake City","state":"UT","style":"Contemporary Gose","year":2022,"coords":[-111.93,40.7774],"lat":40.7774,"lng":-111.93,"comp":"GABF"},{"_id":{"$oid":"670ea5543856496f95071cc3"},"medal":"Gold","beer":"Festbier","brewery":"Wren House Brewing Co. \u2013 Production Facility","city":"Prescott","state":"AZ","style":"Dortmunder or German-Style Oktoberfest","year":2022,"coords":[-112.4475,34.585],"lat":34.585,"lng":-112.4475,"comp":"GABF"},{"_id":{"$oid":"670ea5543856496f95071cc4"},"medal":"Silver","beer":"Franz","brewery":"Protagonist Beer \u2013 Southend Brewery","city":"Charlotte","state":"NC","style":"Dortmunder or German-Style Oktoberfest","year":2022,"coords":[-80.8304,35.2079],"lat":35.2079,"lng":-80.8304,"comp":"GABF"},{"_id":{"$oid":"670ea5543856496f95071cc5"},"medal":"Bronze","beer":"Metalmark Marzen","brewery":"Morgan Territory Brewing","city":"Tracy","state":"CA","style":"Dortmunder or German-Style Oktoberfest","year":2022,"coords":[-121.444,37.726],"lat":37.726,"lng":-121.444,"comp":"GABF"},{"_id":{"$oid":"670ea5543856496f95071cc6"},"medal":"Gold","beer":"Level Line","brewery":"Topa Topa Brewing Co. \u2013 HQ","city":"Ventura","state":"CA","style":"English Ale","year":2022,"coords":null,"lat":null,"lng":null,"comp":"GABF"},{"_id":{"$oid":"670ea5543856496f95071cc7"},"medal":"Silver","beer":"Citronaut","brewery":"Launch Pad Brewery","city":"Aurora","state":"CO","style":"English Ale","year":2022,"coords":[-104.7274,39.7084],"lat":39.7084,"lng":-104.7274,"comp":"GABF"},{"_id":{"$oid":"670ea5543856496f95071cc8"},"medal":"Bronze","beer":"Otter Encounter","brewery":"Deschutes Brewery \u2013 Bend Brewery &amp; Public House","city":"Bend","state":"OR","style":"English Ale","year":2022,"coords":[-121.3087,44.0562],"lat":44.0562,"lng":-121.3087,"comp":"GABF"},{"_id":{"$oid":"670ea5543856496f95071cc9"},"medal":"Gold","beer":"NZ-Fu!","brewery":"North Park Beer Co.","city":"San Diego","state":"CA","style":"English India Pale Ale or New Zealand India Pale Ale","year":2022,"coords":[-117.1225,32.8312],"lat":32.8312,"lng":-117.1225,"comp":"GABF"},{"_id":{"$oid":"670ea5543856496f95071cca"},"medal":"Silver","beer":"Spirit of the West","brewery":"Westbound &amp; Down Brewing Co.","city":"Idaho Springs","state":"CO","style":"English India Pale Ale or New Zealand India Pale Ale","year":2022,"coords":[-105.5,39.7445],"lat":39.7445,"lng":-105.5,"comp":"GABF"},{"_id":{"$oid":"670ea5543856496f95071ccb"},"medal":"Bronze","beer":"Hoppy Poppy IPA","brewery":"Figueroa Mountain Brewing Co.","city":"Buellton","state":"CA","style":"English India Pale Ale or New Zealand India Pale Ale","year":2022,"coords":[-120.1943,34.6152],"lat":34.6152,"lng":-120.1943,"comp":"GABF"},{"_id":{"$oid":"670ea5543856496f95071ccc"},"medal":"Gold","beer":"Rockhill &amp; Locust","brewery":"BKS Artisan Ales","city":"Kansas City","state":"MO","style":"English Mild or Bitter","year":2022,"coords":[-94.5541,39.1239],"lat":39.1239,"lng":-94.5541,"comp":"GABF"},{"_id":{"$oid":"670ea5543856496f95071ccd"},"medal":"Silver","beer":"Brewer\u2019s Best","brewery":"Gravity Heights","city":"San Diego","state":"CA","style":"English Mild or Bitter","year":2022,"coords":[-117.1225,32.8312],"lat":32.8312,"lng":-117.1225,"comp":"GABF"},{"_id":{"$oid":"670ea5543856496f95071cce"},"medal":"Bronze","beer":"Every Hop Is Sacred","brewery":"Hop River Brewing Co.","city":"Fort Wayne","state":"IN","style":"English Mild or Bitter","year":2022,"coords":[-85.1436,41.0885],"lat":41.0885,"lng":-85.1436,"comp":"GABF"},{"_id":{"$oid":"670ea5543856496f95071ccf"},"medal":"Gold","beer":"Pine Mountain Monolith","brewery":"Wild Fields Brewhouse","city":"Atascadero","state":"CA","style":"English-Style Brown Ale","year":2022,"coords":[-120.6858,35.4827],"lat":35.4827,"lng":-120.6858,"comp":"GABF"},{"_id":{"$oid":"670ea5543856496f95071cd0"},"medal":"Silver","beer":"Three Beagles","brewery":"Bagby Beer Co.","city":"Oceanside","state":"CA","style":"English-Style Brown Ale","year":2022,"coords":[-117.3083,33.2247],"lat":33.2247,"lng":-117.3083,"comp":"GABF"},{"_id":{"$oid":"670ea5543856496f95071cd1"},"medal":"Bronze","beer":"Brown Ale","brewery":"Lowercase Brewing","city":"Seattle","state":"WA","style":"English-Style Brown Ale","year":2022,"coords":[-122.3244,47.6211],"lat":47.6211,"lng":-122.3244,"comp":"GABF"},{"_id":{"$oid":"670ea5543856496f95071cd2"},"medal":"Gold","beer":"Southern Tee","brewery":"New Realm Brewing \u2013 Charleston","city":"Charleston","state":"SC","style":"Experimental Beer","year":2022,"coords":[-79.963,32.8151],"lat":32.8151,"lng":-79.963,"comp":"GABF"},{"_id":{"$oid":"670ea5543856496f95071cd3"},"medal":"Silver","beer":"Edgefield Coolship no. 5","brewery":"McMenamins Breweries","city":"Portland","state":"OR","style":"Experimental Beer","year":2022,"coords":[-122.65,45.5371],"lat":45.5371,"lng":-122.65,"comp":"GABF"},{"_id":{"$oid":"670ea5543856496f95071cd4"},"medal":"Bronze","beer":"Great Wave Sake Lager","brewery":"MAP Brewing Co.","city":"Bozeman","state":"MT","style":"Experimental Beer","year":2022,"coords":[-111.0549,45.6828],"lat":45.6828,"lng":-111.0549,"comp":"GABF"},{"_id":{"$oid":"670ea5543856496f95071cd5"},"medal":"Gold","beer":"Polar Bears Toenails","brewery":"Precarious Beer Project \u2013 Precarious Beer Hall","city":"Williamsburg","state":"VA","style":"Experimental India Pale Ale","year":2022,"coords":[-76.7076,37.2692],"lat":37.2692,"lng":-76.7076,"comp":"GABF"},{"_id":{"$oid":"670ea5543856496f95071cd6"},"medal":"Silver","beer":"Vacation Sam Pina Colada IPA","brewery":"Boston Beer Co.","city":"Boston","state":"MA","style":"Experimental India Pale Ale","year":2022,"coords":[-71.0846,42.3188],"lat":42.3188,"lng":-71.0846,"comp":"GABF"},{"_id":{"$oid":"670ea5543856496f95071cd7"},"medal":"Bronze","beer":"SLURP","brewery":"NoDa Brewing Co. \u2013 OG","city":"Charlotte","state":"NC","style":"Experimental India Pale Ale","year":2022,"coords":[-80.8304,35.2079],"lat":35.2079,"lng":-80.8304,"comp":"GABF"},{"_id":{"$oid":"670ea5543856496f95071cd8"},"medal":"Gold","beer":"Sugar Moon","brewery":"Hobbs Tavern &amp; Brewing Co.","city":"Ossipee","state":"NH","style":"Experimental Wood-Aged Beer","year":2022,"coords":null,"lat":null,"lng":null,"comp":"GABF"},{"_id":{"$oid":"670ea5543856496f95071cd9"},"medal":"Silver","beer":"Soul Shakedown Party","brewery":"Sun King Brewing \u2013 Indianapolis","city":"Indianapolis","state":"IN","style":"Experimental Wood-Aged Beer","year":2022,"coords":[-86.1458,39.7771],"lat":39.7771,"lng":-86.1458,"comp":"GABF"},{"_id":{"$oid":"670ea5543856496f95071cda"},"medal":"Bronze","beer":"Shere Khan","brewery":"Olde Hickory Brewery","city":"Hickory","state":"NC","style":"Experimental Wood-Aged Beer","year":2022,"coords":[-81.323,35.7426],"lat":35.7426,"lng":-81.323,"comp":"GABF"},{"_id":{"$oid":"670ea5543856496f95071cdb"},"medal":"Gold","beer":"Happy Amber","brewery":"MadTree Brewing Co.","city":"Cincinnati","state":"OH","style":"Extra Special Bitter","year":2022,"coords":[-84.506,39.1412],"lat":39.1412,"lng":-84.506,"comp":"GABF"},{"_id":{"$oid":"670ea5543856496f95071cdc"},"medal":"Silver","beer":"Bitter Soul","brewery":"Mad Pecker Brewing Co.","city":"San Antonio","state":"TX","style":"Extra Special Bitter","year":2022,"coords":[-98.5254,29.4658],"lat":29.4658,"lng":-98.5254,"comp":"GABF"},{"_id":{"$oid":"670ea5543856496f95071cdd"},"medal":"Bronze","beer":"Whale\u2019s Tale Pale Ale","brewery":"Cisco Brewers Portsmouth","city":"Portsmouth","state":"NH","style":"Extra Special Bitter","year":2022,"coords":[-70.7826,43.058],"lat":43.058,"lng":-70.7826,"comp":"GABF"},{"_id":{"$oid":"670ea5543856496f95071cde"},"medal":"Gold","beer":"Coconut Pie Face","brewery":"Revision Brewing Co.","city":"Sparks","state":"NV","style":"Field Beer","year":2022,"coords":[-119.7157,39.5729],"lat":39.5729,"lng":-119.7157,"comp":"GABF"},{"_id":{"$oid":"670ea5543856496f95071cdf"},"medal":"Silver","beer":"Calypso","brewery":"Captain Fatty\u2019s Brewery","city":"Goleta","state":"CA","style":"Field Beer","year":2022,"coords":[-119.8595,34.436],"lat":34.436,"lng":-119.8595,"comp":"GABF"},{"_id":{"$oid":"670ea5543856496f95071ce0"},"medal":"Bronze","beer":"Rachelle","brewery":"Fair Isle Brewing","city":"Seattle","state":"WA","style":"Field Beer","year":2022,"coords":[-122.3244,47.6211],"lat":47.6211,"lng":-122.3244,"comp":"GABF"},{"_id":{"$oid":"670ea5543856496f95071ce1"},"medal":"Gold","beer":"Mistadobalina","brewery":"Perry Street Brewing","city":"Spokane","state":"WA","style":"Fresh Hop Beer","year":2022,"coords":[-117.433,47.6671],"lat":47.6671,"lng":-117.433,"comp":"GABF"},{"_id":{"$oid":"670ea5543856496f95071ce2"},"medal":"Silver","beer":"Hyperion","brewery":"Varietal Beer Co.","city":"Sunnyside","state":"WA","style":"Fresh Hop Beer","year":2022,"coords":[-120.0058,46.3159],"lat":46.3159,"lng":-120.0058,"comp":"GABF"},{"_id":{"$oid":"670ea5543856496f95071ce3"},"medal":"Bronze","beer":"Fresh Hop Training Bines","brewery":"Pinthouse Pizza North","city":"Austin","state":"TX","style":"Fresh Hop Beer","year":2022,"coords":[-97.7517,30.3006],"lat":30.3006,"lng":-97.7517,"comp":"GABF"},{"_id":{"$oid":"670ea5543856496f95071ce4"},"medal":"Gold","beer":"Tropical Vibes","brewery":"Swamp Head Brewery","city":"Gainesville","state":"FL","style":"Fruit Wheat Beer","year":2022,"coords":[-82.3458,29.6804],"lat":29.6804,"lng":-82.3458,"comp":"GABF"},{"_id":{"$oid":"670ea5543856496f95071ce5"},"medal":"Silver","beer":"Bear Bait","brewery":"Schussboom Brewing Co.","city":"Reno","state":"NV","style":"Fruit Wheat Beer","year":2022,"coords":[-119.8483,39.5497],"lat":39.5497,"lng":-119.8483,"comp":"GABF"},{"_id":{"$oid":"670ea5543856496f95071ce6"},"medal":"Bronze","beer":"Sunny Little Thing","brewery":"Sierra Nevada Brewing Co. \u2013 Mills River","city":"Mills River","state":"NC","style":"Fruit Wheat Beer","year":2022,"coords":[-82.5854,35.3853],"lat":35.3853,"lng":-82.5854,"comp":"GABF"},{"_id":{"$oid":"670ea5543856496f95071ce7"},"medal":"Gold","beer":"Razz Sour","brewery":"Revelation Craft Brewing Co.","city":"Rehoboth Beach","state":"DE","style":"Fruited American Sour Ale","year":2022,"coords":[-75.0843,38.7168],"lat":38.7168,"lng":-75.0843,"comp":"GABF"},{"_id":{"$oid":"670ea5543856496f95071ce8"},"medal":"Silver","beer":"Sour Guava Tangerine","brewery":"Edmund\u2019s Oast Brewing Co.","city":"North Charleston","state":"SC","style":"Fruited American Sour Ale","year":2022,"coords":[-80.0722,32.9067],"lat":32.9067,"lng":-80.0722,"comp":"GABF"},{"_id":{"$oid":"670ea5543856496f95071ce9"},"medal":"Bronze","beer":"Fight The Sour: Blackberry Cobbler","brewery":"NOBO Brewing Co.","city":"Boynton Beach","state":"FL","style":"Fruited American Sour Ale","year":2022,"coords":[-80.0811,26.5281],"lat":26.5281,"lng":-80.0811,"comp":"GABF"},{"_id":{"$oid":"670ea5543856496f95071cea"},"medal":"Gold","beer":"Plumonary Groove","brewery":"Lenny Boy Brewing Co.","city":"Charlotte","state":"NC","style":"Fruited Wood- and Barrel-Aged Sour Beer","year":2022,"coords":[-80.8304,35.2079],"lat":35.2079,"lng":-80.8304,"comp":"GABF"},{"_id":{"$oid":"670ea5543856496f95071ceb"},"medal":"Silver","beer":"Intinction \u2013 Sauvignon Blanc","brewery":"Russian River Brewing Co. \u2013 Santa Rosa","city":"Santa Rosa","state":"CA","style":"Fruited Wood- and Barrel-Aged Sour Beer","year":2022,"coords":[-122.7067,38.4458],"lat":38.4458,"lng":-122.7067,"comp":"GABF"},{"_id":{"$oid":"670ea5543856496f95071cec"},"medal":"Bronze","beer":"Peach Afternoon","brewery":"Port Brewing Co. \/ The Lost Abbey","city":"San Marcos","state":"CA","style":"Fruited Wood- and Barrel-Aged Sour Beer","year":2022,"coords":[-117.1743,33.135],"lat":33.135,"lng":-117.1743,"comp":"GABF"},{"_id":{"$oid":"670ea5543856496f95071ced"},"medal":"Gold","beer":"Bent Paddle Dunkel Lager","brewery":"Bent Paddle Brewing Co.","city":"Duluth","state":"MN","style":"German Dark Lager","year":2022,"coords":[-92.1392,46.7757],"lat":46.7757,"lng":-92.1392,"comp":"GABF"},{"_id":{"$oid":"670ea5543856496f95071cee"},"medal":"Silver","beer":"East Bay Nights Black Lager","brewery":"Oakland United Beerworks","city":"Oakland","state":"CA","style":"German Dark Lager","year":2022,"coords":[-122.2165,37.7903],"lat":37.7903,"lng":-122.2165,"comp":"GABF"},{"_id":{"$oid":"670ea5543856496f95071cef"},"medal":"Bronze","beer":"Schwarzbier","brewery":"Rainy Daze Brewing Co.","city":"Poulsbo","state":"WA","style":"German Dark Lager","year":2022,"coords":[-122.6408,47.7417],"lat":47.7417,"lng":-122.6408,"comp":"GABF"},{"_id":{"$oid":"670ea5543856496f95071cf0"},"medal":"Gold","beer":"Gose","brewery":"Kulshan Brewing Co. \u2013 Trackside","city":"Bellingham","state":"WA","style":"German Sour Ale","year":2022,"coords":[-122.4687,48.7543],"lat":48.7543,"lng":-122.4687,"comp":"GABF"},{"_id":{"$oid":"670ea5543856496f95071cf1"},"medal":"Silver","beer":"Champagne Toast","brewery":"Wander Brewing","city":"Bellingham","state":"WA","style":"German Sour Ale","year":2022,"coords":[-122.4687,48.7543],"lat":48.7543,"lng":-122.4687,"comp":"GABF"},{"_id":{"$oid":"670ea5543856496f95071cf2"},"medal":"Bronze","beer":"Riviera","brewery":"10 Barrel Brewing Co. \u2013 Bend Pub","city":"Bend","state":"OR","style":"German Sour Ale","year":2022,"coords":[-121.3087,44.0562],"lat":44.0562,"lng":-121.3087,"comp":"GABF"},{"_id":{"$oid":"670ea5543856496f95071cf3"},"medal":"Gold","beer":"Alpenglow","brewery":"Fat Head\u2019s Brewery &amp; Saloon","city":"North Olmsted","state":"OH","style":"German Wheat Ale","year":2022,"coords":[-81.919,41.415],"lat":41.415,"lng":-81.919,"comp":"GABF"},{"_id":{"$oid":"670ea5543856496f95071cf4"},"medal":"Silver","beer":"Kristal Weizen","brewery":"Bearded Tang Brewing","city":"Stanton","state":"CA","style":"German Wheat Ale","year":2022,"coords":[-117.9935,33.8002],"lat":33.8002,"lng":-117.9935,"comp":"GABF"},{"_id":{"$oid":"670ea5543856496f95071cf5"},"medal":"Bronze","beer":"Wild Pitch","brewery":"SandLot Brewery","city":"Denver","state":"CO","style":"German Wheat Ale","year":2022,"coords":[-104.8759,39.7621],"lat":39.7621,"lng":-104.8759,"comp":"GABF"},{"_id":{"$oid":"670ea5543856496f95071cf6"},"medal":"Gold","beer":"Lithium","brewery":"Resonate Brewery + Pizzeria","city":"Bellevue","state":"WA","style":"German-Style Altbier","year":2022,"coords":[-122.155,47.5953],"lat":47.5953,"lng":-122.155,"comp":"GABF"},{"_id":{"$oid":"670ea5543856496f95071cf7"},"medal":"Silver","beer":"Control ALT","brewery":"Devil\u2019s Logic Brewing","city":"Charlotte","state":"NC","style":"German-Style Altbier","year":2022,"coords":[-80.8304,35.2079],"lat":35.2079,"lng":-80.8304,"comp":"GABF"},{"_id":{"$oid":"670ea5543856496f95071cf8"},"medal":"Bronze","beer":"Road Devil Amber","brewery":"Pecan Street Brewing","city":"Johnson City","state":"TX","style":"German-Style Altbier","year":2022,"coords":[-98.4064,30.2743],"lat":30.2743,"lng":-98.4064,"comp":"GABF"},{"_id":{"$oid":"670ea5543856496f95071cf9"},"medal":"Gold","beer":"Klosterade","brewery":"Working Draft Beer Co.","city":"Madison","state":"WI","style":"German-Style Doppelbock or Eisbock","year":2022,"coords":[-89.3923,43.0827],"lat":43.0827,"lng":-89.3923,"comp":"GABF"},{"_id":{"$oid":"670ea5543856496f95071cfa"},"medal":"Silver","beer":"Execrator","brewery":"Resolute Brewing Co.","city":"Centennial","state":"CO","style":"German-Style Doppelbock or Eisbock","year":2022,"coords":[-104.8674,39.5926],"lat":39.5926,"lng":-104.8674,"comp":"GABF"},{"_id":{"$oid":"670ea5543856496f95071cfb"},"medal":"Bronze","beer":"Danny Br\u00e4u","brewery":"Danny Boy Beer Works","city":"Carmel","state":"IN","style":"German-Style Doppelbock or Eisbock","year":2022,"coords":[-86.1461,39.9658],"lat":39.9658,"lng":-86.1461,"comp":"GABF"},{"_id":{"$oid":"670ea5543856496f95071cfc"},"medal":"Gold","beer":"Northern Kolsch","brewery":"The Royal Oak Brewery","city":"Royal Oak","state":"MI","style":"German-Style Koelsch","year":2022,"coords":[-83.1539,42.5084],"lat":42.5084,"lng":-83.1539,"comp":"GABF"},{"_id":{"$oid":"670ea5543856496f95071cfd"},"medal":"Silver","beer":"Kold Shoulder","brewery":"Wooden Hill Brewing Co.","city":"Edina","state":"MN","style":"German-Style Koelsch","year":2022,"coords":[-93.3602,44.8914],"lat":44.8914,"lng":-93.3602,"comp":"GABF"},{"_id":{"$oid":"670ea5543856496f95071cfe"},"medal":"Bronze","beer":"Hunting River","brewery":"Bullfrog Creek Brewing Co.","city":"Valrico","state":"FL","style":"German-Style Koelsch","year":2022,"coords":[-82.2293,27.9193],"lat":27.9193,"lng":-82.2293,"comp":"GABF"},{"_id":{"$oid":"670ea5543856496f95071cff"},"medal":"Gold","beer":"Oktoberfest","brewery":"Mighty Squirrel Brewing Co.","city":"Waltham","state":"MA","style":"German-Style Maerzen","year":2022,"coords":[-71.2423,42.3889],"lat":42.3889,"lng":-71.2423,"comp":"GABF"},{"_id":{"$oid":"670ea5543856496f95071d00"},"medal":"Silver","beer":"Docktoberfest","brewery":"Dry Dock Brewing Co. \u2013 North Dock","city":"Aurora","state":"CO","style":"German-Style Maerzen","year":2022,"coords":[-104.7274,39.7084],"lat":39.7084,"lng":-104.7274,"comp":"GABF"},{"_id":{"$oid":"670ea5543856496f95071d01"},"medal":"Bronze","beer":"Great Dane Oktoberfest","brewery":"Great Dane Pub and Brewing Co. \u2013 Downtown","city":"Madison","state":"WI","style":"German-Style Maerzen","year":2022,"coords":[-89.3923,43.0827],"lat":43.0827,"lng":-89.3923,"comp":"GABF"},{"_id":{"$oid":"670ea5543856496f95071d02"},"medal":"Gold","beer":"Industry","brewery":"The Austin Beer Garden Brewing Co.","city":"Austin","state":"TX","style":"German-Style Pilsener","year":2022,"coords":[-97.7517,30.3006],"lat":30.3006,"lng":-97.7517,"comp":"GABF"},{"_id":{"$oid":"670ea5543856496f95071d03"},"medal":"Silver","beer":"Pils","brewery":"Von Ebert Brewing \u2013 Pearl","city":"Portland","state":"OR","style":"German-Style Pilsener","year":2022,"coords":[-122.65,45.5371],"lat":45.5371,"lng":-122.65,"comp":"GABF"},{"_id":{"$oid":"670ea5543856496f95071d04"},"medal":"Bronze","beer":"German Pilsner","brewery":"Shred Monk Brewery and Coffeehouse","city":"Bozeman","state":"MT","style":"German-Style Pilsener","year":2022,"coords":[-111.0549,45.6828],"lat":45.6828,"lng":-111.0549,"comp":"GABF"},{"_id":{"$oid":"670ea5543856496f95071d05"},"medal":"Gold","beer":"Alpenglow Hazy IPA","brewery":"Buck Wild Brewing","city":"Oakland","state":"CA","style":"Gluten-Free Beer","year":2022,"coords":[-122.2165,37.7903],"lat":37.7903,"lng":-122.2165,"comp":"GABF"},{"_id":{"$oid":"670ea5543856496f95071d06"},"medal":"Silver","beer":"BuckWit Belgian","brewery":"Holidaily Brewing Co. \u2013 Production Facility","city":"Golden","state":"CO","style":"Gluten-Free Beer","year":2022,"coords":[-105.2118,39.7406],"lat":39.7406,"lng":-105.2118,"comp":"GABF"},{"_id":{"$oid":"670ea5543856496f95071d07"},"medal":"Bronze","beer":"Gosefish Hibiscus-Cranberry Gose","brewery":"Ghostfish Brewing Co.","city":"Seattle","state":"WA","style":"Gluten-Free Beer","year":2022,"coords":[-122.3244,47.6211],"lat":47.6211,"lng":-122.3244,"comp":"GABF"},{"_id":{"$oid":"670ea5543856496f95071d08"},"medal":"Gold","beer":"Firemans #4","brewery":"Real Ale Brewing Co.","city":"Blanco","state":"TX","style":"Golden or Blonde Ale","year":2022,"coords":[-98.4169,30.0987],"lat":30.0987,"lng":-98.4169,"comp":"GABF"},{"_id":{"$oid":"670ea5543856496f95071d09"},"medal":"Silver","beer":"Blonde Ale","brewery":"Boundary Bay Brewery &amp; Bistro","city":"Bellingham","state":"WA","style":"Golden or Blonde Ale","year":2022,"coords":[-122.4687,48.7543],"lat":48.7543,"lng":-122.4687,"comp":"GABF"},{"_id":{"$oid":"670ea5543856496f95071d0a"},"medal":"Bronze","beer":"THE FULL LEMONTY","brewery":"Pollyanna Brewing Co.","city":"Lemont","state":"IL","style":"Golden or Blonde Ale","year":2022,"coords":[-87.9828,41.6697],"lat":41.6697,"lng":-87.9828,"comp":"GABF"},{"_id":{"$oid":"670ea5543856496f95071d0b"},"medal":"Gold","beer":"Black Pearl","brewery":"Lazarus Brewing Co.","city":"Austin","state":"TX","style":"Herb and Spice Beer","year":2022,"coords":[-97.7517,30.3006],"lat":30.3006,"lng":-97.7517,"comp":"GABF"},{"_id":{"$oid":"670ea5543856496f95071d0c"},"medal":"Silver","beer":"Peach Tea Blonde","brewery":"Beale\u2019s","city":"Petersburg","state":"VA","style":"Herb and Spice Beer","year":2022,"coords":[-77.3913,37.2043],"lat":37.2043,"lng":-77.3913,"comp":"GABF"},{"_id":{"$oid":"670ea5543856496f95071d0d"},"medal":"Bronze","beer":"Spruce Tip Pale Ale","brewery":"Matchwood Brewing Co.","city":"Sandpoint","state":"ID","style":"Herb and Spice Beer","year":2022,"coords":[-116.5613,48.2822],"lat":48.2822,"lng":-116.5613,"comp":"GABF"},{"_id":{"$oid":"670ea5543856496f95071d0e"},"medal":"Gold","beer":"Feniks","brewery":"Great Notion Brewing","city":"Portland","state":"OR","style":"Historical Beer","year":2022,"coords":[-122.65,45.5371],"lat":45.5371,"lng":-122.65,"comp":"GABF"},{"_id":{"$oid":"670ea5543856496f95071d0f"},"medal":"Silver","beer":"Vitkus #3","brewery":"Donner Creek Brewing Co.","city":"Truckee","state":"CA","style":"Historical Beer","year":2022,"coords":[-120.1848,39.3454],"lat":39.3454,"lng":-120.1848,"comp":"GABF"},{"_id":{"$oid":"670ea5543856496f95071d10"},"medal":"Bronze","beer":"Churchill Browns","brewery":"Flashpoint Brewing Co.","city":"Huntington Beach","state":"CA","style":"Historical Beer","year":2022,"coords":[-118.0025,33.696],"lat":33.696,"lng":-118.0025,"comp":"GABF"},{"_id":{"$oid":"670ea5543856496f95071d11"},"medal":"Gold","beer":"Hachimitsu Mai","brewery":"Deschutes Brewery \u2013 Portland Brewery &amp; Public House","city":"Portland","state":"OR","style":"Honey Beer","year":2022,"coords":[-122.65,45.5371],"lat":45.5371,"lng":-122.65,"comp":"GABF"},{"_id":{"$oid":"670ea5543856496f95071d12"},"medal":"Silver","beer":"The Beeginning","brewery":"The Austin Beer Garden Brewing Co.","city":"Austin","state":"TX","style":"Honey Beer","year":2022,"coords":[-97.7517,30.3006],"lat":30.3006,"lng":-97.7517,"comp":"GABF"},{"_id":{"$oid":"670ea5543856496f95071d13"},"medal":"Bronze","beer":"Happy Days","brewery":"Malibu Brewing Co.","city":"Malibu","state":"CA","style":"Honey Beer","year":2022,"coords":[-118.7845,34.0368],"lat":34.0368,"lng":-118.7845,"comp":"GABF"},{"_id":{"$oid":"670ea5543856496f95071d14"},"medal":"Gold","beer":"Nose Goblin","brewery":"Ghost Town Brewing","city":"Oakland","state":"CA","style":"Imperial India Pale Ale","year":2022,"coords":[-122.2165,37.7903],"lat":37.7903,"lng":-122.2165,"comp":"GABF"},{"_id":{"$oid":"670ea5543856496f95071d15"},"medal":"Silver","beer":"Hop Diggity","brewery":"Mother Earth Brew Co.","city":"Nampa","state":"ID","style":"Imperial India Pale Ale","year":2022,"coords":[-116.5628,43.5843],"lat":43.5843,"lng":-116.5628,"comp":"GABF"},{"_id":{"$oid":"670ea5543856496f95071d16"},"medal":"Bronze","beer":"Double-Fu!","brewery":"North Park Beer Co.","city":"San Diego","state":"CA","style":"Imperial India Pale Ale","year":2022,"coords":[-117.1225,32.8312],"lat":32.8312,"lng":-117.1225,"comp":"GABF"},{"_id":{"$oid":"670ea5543856496f95071d17"},"medal":"Gold","beer":"Big Deluxe","brewery":"Ritual Brewing Co.","city":"Redlands","state":"CA","style":"Imperial Stout","year":2022,"coords":[-117.1712,34.0511],"lat":34.0511,"lng":-117.1712,"comp":"GABF"},{"_id":{"$oid":"670ea5543856496f95071d18"},"medal":"Silver","beer":"Methuselah","brewery":"Eureka Brewing Co.","city":"Gardena","state":"CA","style":"Imperial Stout","year":2022,"coords":[-118.3073,33.8944],"lat":33.8944,"lng":-118.3073,"comp":"GABF"},{"_id":{"$oid":"670ea5543856496f95071d19"},"medal":"Bronze","beer":"Dark Helmet","brewery":"Odell Brewing \u2013 Sloan\u2019s Lake Brewhouse","city":"Denver","state":"CO","style":"Imperial Stout","year":2022,"coords":[-104.8759,39.7621],"lat":39.7621,"lng":-104.8759,"comp":"GABF"},{"_id":{"$oid":"670ea5543856496f95071d1a"},"medal":"Gold","beer":"Cold IPA","brewery":"Legion Brewing Co.","city":"Charlotte","state":"NC","style":"India Pale Lager","year":2022,"coords":[-80.8304,35.2079],"lat":35.2079,"lng":-80.8304,"comp":"GABF"},{"_id":{"$oid":"670ea5543856496f95071d1b"},"medal":"Silver","beer":"Cave Dweller","brewery":"Ghost Town Brewing","city":"Oakland","state":"CA","style":"India Pale Lager","year":2022,"coords":[-122.2165,37.7903],"lat":37.7903,"lng":-122.2165,"comp":"GABF"},{"_id":{"$oid":"670ea5543856496f95071d1c"},"medal":"Bronze","beer":"DDH Timbo","brewery":"Highland Park Brewery \u2013 Chinatown","city":"Los Angeles","state":"CA","style":"India Pale Lager","year":2022,"coords":[-118.4068,34.1139],"lat":34.1139,"lng":-118.4068,"comp":"GABF"},{"_id":{"$oid":"670ea5543856496f95071d1d"},"medal":"Gold","beer":"El Corn","brewery":"The Post Brewing Co.","city":"Lafayette","state":"CO","style":"International Dark Lager","year":2022,"coords":[-105.0997,39.9949],"lat":39.9949,"lng":-105.0997,"comp":"GABF"},{"_id":{"$oid":"670ea5543856496f95071d1e"},"medal":"Silver","beer":"Brother-Brother","brewery":"River Bluff Brewing","city":"St. Joseph","state":"MO","style":"International Dark Lager","year":2022,"coords":[-94.821,39.7598],"lat":39.7598,"lng":-94.821,"comp":"GABF"},{"_id":{"$oid":"670ea5543856496f95071d1f"},"medal":"Bronze","beer":"Bowie Bock","brewery":"Freetail Brewing Co.","city":"San Antonio","state":"TX","style":"International Dark Lager","year":2022,"coords":[-98.5254,29.4658],"lat":29.4658,"lng":-98.5254,"comp":"GABF"},{"_id":{"$oid":"670ea5543856496f95071d20"},"medal":"Gold","beer":"Nix","brewery":"Ogopogo Brewing","city":"San Gabriel","state":"CA","style":"International-Style Pale Ale","year":2022,"coords":[-118.099,34.0948],"lat":34.0948,"lng":-118.099,"comp":"GABF"},{"_id":{"$oid":"670ea5543856496f95071d21"},"medal":"Silver","beer":"New Cleveland","brewery":"Platform Beer Co. \u2013 Production Facility","city":"Cleveland","state":"OH","style":"International-Style Pale Ale","year":2022,"coords":[-81.6805,41.4767],"lat":41.4767,"lng":-81.6805,"comp":"GABF"},{"_id":{"$oid":"670ea5543856496f95071d22"},"medal":"Bronze","beer":"Pale 586","brewery":"Faction Brewing","city":"Alameda","state":"CA","style":"International-Style Pale Ale","year":2022,"coords":[-122.2673,37.767],"lat":37.767,"lng":-122.2673,"comp":"GABF"},{"_id":{"$oid":"670ea5543856496f95071d23"},"medal":"Gold","beer":"Alright, Alright, Alright","brewery":"Roadmap Brewing Co.","city":"San Antonio","state":"TX","style":"International-Style Pilsener","year":2022,"coords":[-98.5254,29.4658],"lat":29.4658,"lng":-98.5254,"comp":"GABF"},{"_id":{"$oid":"670ea5543856496f95071d24"},"medal":"Silver","beer":"Dos Topas","brewery":"Topa Topa Brewing Co. \u2013 HQ","city":"Ventura","state":"CA","style":"International-Style Pilsener","year":2022,"coords":null,"lat":null,"lng":null,"comp":"GABF"},{"_id":{"$oid":"670ea5543856496f95071d25"},"medal":"Bronze","beer":"Holy Ghost","brewery":"Laughing Monk Brewing","city":"San Francisco","state":"CA","style":"International-Style Pilsener","year":2022,"coords":[-122.443,37.7562],"lat":37.7562,"lng":-122.443,"comp":"GABF"},{"_id":{"$oid":"670ea5543856496f95071d26"},"medal":"Gold","beer":"Equanimity","brewery":"Ursa Minor Brewing","city":"Duluth","state":"MN","style":"Irish-Style Red Ale","year":2022,"coords":[-92.1392,46.7757],"lat":46.7757,"lng":-92.1392,"comp":"GABF"},{"_id":{"$oid":"670ea5543856496f95071d27"},"medal":"Silver","beer":"Rabbit Head Red","brewery":"Canyon Creek Brewing","city":"Billings","state":"MT","style":"Irish-Style Red Ale","year":2022,"coords":[-108.5509,45.7889],"lat":45.7889,"lng":-108.5509,"comp":"GABF"},{"_id":{"$oid":"670ea5543856496f95071d28"},"medal":"Bronze","beer":"Red Willie","brewery":"Tradition Brewing Co.","city":"Newport News","state":"VA","style":"Irish-Style Red Ale","year":2022,"coords":[-76.5185,37.1051],"lat":37.1051,"lng":-76.5185,"comp":"GABF"},{"_id":{"$oid":"670ea5543856496f95071d29"},"medal":"Gold","beer":"Pillow","brewery":"Highland Park Brewery \u2013 Chinatown","city":"Los Angeles","state":"CA","style":"Juicy or Hazy Imperial India Pale Ale","year":2022,"coords":[-118.4068,34.1139],"lat":34.1139,"lng":-118.4068,"comp":"GABF"},{"_id":{"$oid":"670ea5543856496f95071d2a"},"medal":"Silver","beer":"X-Raying Citra","brewery":"North Park Beer Co.","city":"San Diego","state":"CA","style":"Juicy or Hazy Imperial India Pale Ale","year":2022,"coords":[-117.1225,32.8312],"lat":32.8312,"lng":-117.1225,"comp":"GABF"},{"_id":{"$oid":"670ea5543856496f95071d2b"},"medal":"Bronze","beer":"Citra Soaker","brewery":"Corn Coast Brewing Co.","city":"Lincoln","state":"NE","style":"Juicy or Hazy Imperial India Pale Ale","year":2022,"coords":[-96.6796,40.8088],"lat":40.8088,"lng":-96.6796,"comp":"GABF"},{"_id":{"$oid":"670ea5543856496f95071d2c"},"medal":"Gold","beer":"Anhyzer Kush","brewery":"Flatland Brewing Co.","city":"Elk Grove","state":"CA","style":"Juicy or Hazy India Pale Ale","year":2022,"coords":[-121.384,38.416],"lat":38.416,"lng":-121.384,"comp":"GABF"},{"_id":{"$oid":"670ea5543856496f95071d2d"},"medal":"Silver","beer":"IPO IPA","brewery":"White Rock Alehouse &amp; Brewery","city":"Dallas","state":"TX","style":"Juicy or Hazy India Pale Ale","year":2022,"coords":[-96.7662,32.7936],"lat":32.7936,"lng":-96.7662,"comp":"GABF"},{"_id":{"$oid":"670ea5543856496f95071d2e"},"medal":"Bronze","beer":"RAD AF","brewery":"City Barrel Brewing Co.","city":"Kansas City","state":"MO","style":"Juicy or Hazy India Pale Ale","year":2022,"coords":[-94.5541,39.1239],"lat":39.1239,"lng":-94.5541,"comp":"GABF"},{"_id":{"$oid":"670ea5543856496f95071d2f"},"medal":"Gold","beer":"Luminous Beings","brewery":"Wye Hill Brewing","city":"Raleigh","state":"NC","style":"Juicy or Hazy Pale Ale","year":2022,"coords":[-78.6438,35.8324],"lat":35.8324,"lng":-78.6438,"comp":"GABF"},{"_id":{"$oid":"670ea5543856496f95071d30"},"medal":"Silver","beer":"Alpenhaze","brewery":"Icicle Brewing Co. \u2013 Production","city":"Leavenworth","state":"WA","style":"Juicy or Hazy Pale Ale","year":2022,"coords":[-120.6633,47.5948],"lat":47.5948,"lng":-120.6633,"comp":"GABF"},{"_id":{"$oid":"670ea5543856496f95071d31"},"medal":"Bronze","beer":"Diversey Station","brewery":"Ravinia Brewing Co.","city":"Chicago","state":"IL","style":"Juicy or Hazy Pale Ale","year":2022,"coords":[-87.6862,41.8373],"lat":41.8373,"lng":-87.6862,"comp":"GABF"},{"_id":{"$oid":"670ea5543856496f95071d32"},"medal":"Gold","beer":"Neon Lites","brewery":"Slice Beer Co.","city":"Lincoln","state":"CA","style":"Juicy or Hazy Strong Pale Ale","year":2022,"coords":[-121.2916,38.8759],"lat":38.8759,"lng":-121.2916,"comp":"GABF"},{"_id":{"$oid":"670ea5543856496f95071d33"},"medal":"Silver","beer":"So Into You","brewery":"Radiant Beer Co.","city":"Anaheim","state":"CA","style":"Juicy or Hazy Strong Pale Ale","year":2022,"coords":[-117.8573,33.839],"lat":33.839,"lng":-117.8573,"comp":"GABF"},{"_id":{"$oid":"670ea5543856496f95071d34"},"medal":"Bronze","beer":"Green New Zeal","brewery":"Armistice Brewing Co.","city":"Richmond","state":"CA","style":"Juicy or Hazy Strong Pale Ale","year":2022,"coords":[-122.339,37.9477],"lat":37.9477,"lng":-122.339,"comp":"GABF"},{"_id":{"$oid":"670ea5543856496f95071d35"},"medal":"Gold","beer":"Waxing and Waning","brewery":"MadeWest Brewing Co.","city":"Ventura","state":"CA","style":"Kellerbier or Zwickelbier","year":2022,"coords":null,"lat":null,"lng":null,"comp":"GABF"},{"_id":{"$oid":"670ea5543856496f95071d36"},"medal":"Silver","beer":"Templin Family Granary KellerBier","brewery":"Templin Family Brewing","city":"Salt Lake City","state":"UT","style":"Kellerbier or Zwickelbier","year":2022,"coords":[-111.93,40.7774],"lat":40.7774,"lng":-111.93,"comp":"GABF"},{"_id":{"$oid":"670ea5543856496f95071d37"},"medal":"Bronze","beer":"Keller Pils","brewery":"Triumph Brewing Co. \u2013 Red Bank","city":"Red Bank","state":"NJ","style":"Kellerbier or Zwickelbier","year":2022,"coords":[-74.0672,40.3481],"lat":40.3481,"lng":-74.0672,"comp":"GABF"},{"_id":{"$oid":"670ea5543856496f95071d38"},"medal":"Gold","beer":"Chuckanut Chuck Light","brewery":"Chuckanut Brewery","city":"Burlington","state":"WA","style":"Light Lager","year":2022,"coords":[-122.3298,48.4677],"lat":48.4677,"lng":-122.3298,"comp":"GABF"},{"_id":{"$oid":"670ea5543856496f95071d39"},"medal":"Silver","beer":"Heights Light Lager","brewery":"New Magnolia Brewing Co.","city":"Houston","state":"TX","style":"Light Lager","year":2022,"coords":[-95.3905,29.7869],"lat":29.7869,"lng":-95.3905,"comp":"GABF"},{"_id":{"$oid":"670ea5543856496f95071d3a"},"medal":"Bronze","beer":"Wrath Premium American Lager","brewery":"Grains of Wrath Brewing","city":"Camas","state":"WA","style":"Light Lager","year":2022,"coords":[-122.4306,45.6003],"lat":45.6003,"lng":-122.4306,"comp":"GABF"},{"_id":{"$oid":"670ea5543856496f95071d3b"},"medal":"Gold","beer":"Farmer\u2019s Reserve Plum","brewery":"Almanac Beer Co.","city":"Alameda","state":"CA","style":"Mixed-Culture Brett Beer","year":2022,"coords":[-122.2673,37.767],"lat":37.767,"lng":-122.2673,"comp":"GABF"},{"_id":{"$oid":"670ea5543856496f95071d3c"},"medal":"Silver","beer":"Biere Ovale","brewery":"Our Mutual Friend Brewing Co.","city":"Denver","state":"CO","style":"Mixed-Culture Brett Beer","year":2022,"coords":[-104.8759,39.7621],"lat":39.7621,"lng":-104.8759,"comp":"GABF"},{"_id":{"$oid":"670ea5543856496f95071d3d"},"medal":"Bronze","beer":"Oregon Sunrise","brewery":"Alesong Brewing &amp; Tasting Room","city":"Eugene","state":"OR","style":"Mixed-Culture Brett Beer","year":2022,"coords":[-123.1173,44.0563],"lat":44.0563,"lng":-123.1173,"comp":"GABF"},{"_id":{"$oid":"670ea5543856496f95071d3e"},"medal":"Gold","beer":"Altstadt Lager","brewery":"Altstadt Brewery","city":"Fredericksburg","state":"TX","style":"Munich-Style Helles","year":2022,"coords":[-98.8757,30.2671],"lat":30.2671,"lng":-98.8757,"comp":"GABF"},{"_id":{"$oid":"670ea5543856496f95071d3f"},"medal":"Silver","beer":"Helles Lager","brewery":"Double Clutch Brewing Co.","city":"Evanston","state":"IL","style":"Munich-Style Helles","year":2022,"coords":[-87.6942,42.0463],"lat":42.0463,"lng":-87.6942,"comp":"GABF"},{"_id":{"$oid":"670ea5543856496f95071d40"},"medal":"Bronze","beer":"Roxboro Gold","brewery":"New Ridge Brewing Co.","city":"Philadelphia","state":"PA","style":"Munich-Style Helles","year":2022,"coords":[-75.1339,40.0077],"lat":40.0077,"lng":-75.1339,"comp":"GABF"},{"_id":{"$oid":"670ea5543856496f95071d41"},"medal":"Gold","beer":"Just The Haze","brewery":"Boston Beer Co. \u2013 Samuel Adams Brewing Co.","city":"Cincinnati","state":"OH","style":"Non-Alcohol Beer","year":2022,"coords":[-84.506,39.1412],"lat":39.1412,"lng":-84.506,"comp":"GABF"},{"_id":{"$oid":"670ea5543856496f95071d42"},"medal":"Silver","beer":"Lemon Radler","brewery":"Athletic Brewing Co. \u2013 Production Facility","city":"San Diego","state":"CA","style":"Non-Alcohol Beer","year":2022,"coords":[-117.1225,32.8312],"lat":32.8312,"lng":-117.1225,"comp":"GABF"},{"_id":{"$oid":"670ea5543856496f95071d43"},"medal":"Bronze","beer":"Nada IPA","brewery":"Community Beer Co.","city":"Dallas","state":"TX","style":"Non-Alcohol Beer","year":2022,"coords":[-96.7662,32.7936],"lat":32.7936,"lng":-96.7662,"comp":"GABF"},{"_id":{"$oid":"670ea5543856496f95071d44"},"medal":"Gold","beer":"Fat Pug","brewery":"Maplewood Brewing Co.","city":"Chicago","state":"IL","style":"Oatmeal Stout","year":2022,"coords":[-87.6862,41.8373],"lat":41.8373,"lng":-87.6862,"comp":"GABF"},{"_id":{"$oid":"670ea5543856496f95071d45"},"medal":"Silver","beer":"Milk Stout","brewery":"Left Hand Brewing Co.","city":"Longmont","state":"CO","style":"Oatmeal Stout","year":2022,"coords":[-105.0996,40.169],"lat":40.169,"lng":-105.0996,"comp":"GABF"},{"_id":{"$oid":"670ea5543856496f95071d46"},"medal":"Bronze","beer":"Keil\u2019s Oatmeal Stout","brewery":"Hutton &amp; Smith Brewing Co. \u2013 M. L. King","city":"Chattanooga","state":"TN","style":"Oatmeal Stout","year":2022,"coords":[-85.2487,35.0657],"lat":35.0657,"lng":-85.2487,"comp":"GABF"},{"_id":{"$oid":"670ea5543856496f95071d47"},"medal":"Gold","beer":"Three Ryes Men","brewery":"Reuben\u2019s Brews \u2013 Production Brewery","city":"Seattle","state":"WA","style":"Old Ale or Strong Ale or Barley Wine","year":2022,"coords":[-122.3244,47.6211],"lat":47.6211,"lng":-122.3244,"comp":"GABF"},{"_id":{"$oid":"670ea5543856496f95071d48"},"medal":"Silver","beer":"Granny\u2019s Tipple","brewery":"Danville Brewing Co.","city":"Danville","state":"CA","style":"Old Ale or Strong Ale or Barley Wine","year":2022,"coords":[-121.9698,37.8121],"lat":37.8121,"lng":-121.9698,"comp":"GABF"},{"_id":{"$oid":"670ea5543856496f95071d49"},"medal":"Bronze","beer":"Hillcrest","brewery":"Olde Hickory Brewery","city":"Hickory","state":"NC","style":"Old Ale or Strong Ale or Barley Wine","year":2022,"coords":[-81.323,35.7426],"lat":35.7426,"lng":-81.323,"comp":"GABF"},{"_id":{"$oid":"670ea5543856496f95071d4a"},"medal":"Gold","beer":"Avant","brewery":"Insight Brewing","city":"Minneapolis","state":"MN","style":"Other Hoppy Lager","year":2022,"coords":[-93.2678,44.9635],"lat":44.9635,"lng":-93.2678,"comp":"GABF"},{"_id":{"$oid":"670ea5543856496f95071d4b"},"medal":"Silver","beer":"Crispy Boiz II Men","brewery":"Brieux Carr\u00e9 Brewing Co.","city":"New Orleans","state":"LA","style":"Other Hoppy Lager","year":2022,"coords":[-89.9288,30.0687],"lat":30.0687,"lng":-89.9288,"comp":"GABF"},{"_id":{"$oid":"670ea5543856496f95071d4c"},"medal":"Bronze","beer":"Day Donkey","brewery":"Tampa Bay Brewing Co. \u2013 Production Brewery","city":"Tampa","state":"FL","style":"Other Hoppy Lager","year":2022,"coords":[-82.4451,27.9942],"lat":27.9942,"lng":-82.4451,"comp":"GABF"},{"_id":{"$oid":"670ea5543856496f95071d4d"},"medal":"Gold","beer":"Dark Skies","brewery":"Forgotten Star Brewing Co.","city":"Fridley","state":"MN","style":"Other Strong Beer","year":2022,"coords":[-93.2595,45.0841],"lat":45.0841,"lng":-93.2595,"comp":"GABF"},{"_id":{"$oid":"670ea5543856496f95071d4e"},"medal":"Silver","beer":"Hello Darkness","brewery":"River North Brewery","city":"Denver","state":"CO","style":"Other Strong Beer","year":2022,"coords":[-104.8759,39.7621],"lat":39.7621,"lng":-104.8759,"comp":"GABF"},{"_id":{"$oid":"670ea5543856496f95071d4f"},"medal":"Bronze","beer":"Doppelsticke Altbier","brewery":"Giant Jones Brewing Co.","city":"Madison","state":"WI","style":"Other Strong Beer","year":2022,"coords":[-89.3923,43.0827],"lat":43.0827,"lng":-89.3923,"comp":"GABF"},{"_id":{"$oid":"670ea5543856496f95071d50"},"medal":"Gold","beer":"Night Owl","brewery":"Elysian Brewing Co.","city":"Seattle","state":"WA","style":"Pumpkin Beer","year":2022,"coords":[-122.3244,47.6211],"lat":47.6211,"lng":-122.3244,"comp":"GABF"},{"_id":{"$oid":"670ea5543856496f95071d51"},"medal":"Silver","beer":"5 Phantoms","brewery":"Philipsburg Brewing Co.","city":"Philipsburg","state":"MT","style":"Pumpkin Beer","year":2022,"coords":[-113.296,46.3324],"lat":46.3324,"lng":-113.296,"comp":"GABF"},{"_id":{"$oid":"670ea5543856496f95071d52"},"medal":"Bronze","beer":"Molasses Pumpkin M\u00e4rzen","brewery":"Whistle Hop Brewing Co.","city":"Fairview","state":"NC","style":"Pumpkin Beer","year":2022,"coords":[-80.5345,35.1545],"lat":35.1545,"lng":-80.5345,"comp":"GABF"},{"_id":{"$oid":"670ea5543856496f95071d53"},"medal":"Gold","beer":"Powell Street Porter","brewery":"Bartlett Hall","city":"San Francisco","state":"CA","style":"Robust Porter","year":2022,"coords":[-122.443,37.7562],"lat":37.7562,"lng":-122.443,"comp":"GABF"},{"_id":{"$oid":"670ea5543856496f95071d54"},"medal":"Silver","beer":"Porter","brewery":"Big Timber Brewing Co.","city":"Elkins","state":"WV","style":"Robust Porter","year":2022,"coords":[-79.8541,38.9237],"lat":38.9237,"lng":-79.8541,"comp":"GABF"},{"_id":{"$oid":"670ea5543856496f95071d55"},"medal":"Bronze","beer":"First of His Name","brewery":"Edgewise Eight Brewing","city":"Weatherford","state":"TX","style":"Robust Porter","year":2022,"coords":[-97.7724,32.7535],"lat":32.7535,"lng":-97.7724,"comp":"GABF"},{"_id":{"$oid":"670ea5543856496f95071d56"},"medal":"Gold","beer":"Pecan Street Rye Lager","brewery":"Pecan Street Brewing","city":"Johnson City","state":"TX","style":"Rye Beers","year":2022,"coords":[-98.4064,30.2743],"lat":30.2743,"lng":-98.4064,"comp":"GABF"},{"_id":{"$oid":"670ea5543856496f95071d57"},"medal":"Silver","beer":"Rockin\u2019 Roggen","brewery":"Twisted Pine Brewing Co.","city":"Boulder","state":"CO","style":"Rye Beers","year":2022,"coords":[-105.2523,40.0249],"lat":40.0249,"lng":-105.2523,"comp":"GABF"},{"_id":{"$oid":"670ea5543856496f95071d58"},"medal":"Bronze","beer":"The Old Man and Death","brewery":"Mad Fritz","city":"Saint Helena","state":"CA","style":"Rye Beers","year":2022,"coords":null,"lat":null,"lng":null,"comp":"GABF"},{"_id":{"$oid":"670ea5543856496f95071d59"},"medal":"Gold","beer":"Full Malted Jacket","brewery":"Beachwood BBQ &amp; Brewing","city":"Huntington Beach","state":"CA","style":"Scotch Ale","year":2022,"coords":[-118.0025,33.696],"lat":33.696,"lng":-118.0025,"comp":"GABF"},{"_id":{"$oid":"670ea5543856496f95071d5a"},"medal":"Silver","beer":"Sons of Scotland","brewery":"Ex Novo Brewing Co. \u2013 Corrales","city":"Corrales","state":"NM","style":"Scotch Ale","year":2022,"coords":[-106.6191,35.2366],"lat":35.2366,"lng":-106.6191,"comp":"GABF"},{"_id":{"$oid":"670ea5543856496f95071d5b"},"medal":"Bronze","beer":"Kill or be Kilt","brewery":"Quarter Celtic Brewpub","city":"Albuquerque","state":"NM","style":"Scotch Ale","year":2022,"coords":[-106.6464,35.1053],"lat":35.1053,"lng":-106.6464,"comp":"GABF"},{"_id":{"$oid":"670ea5543856496f95071d5c"},"medal":"Gold","beer":"Magic Swirling Sip","brewery":"Wild Fields Brewhouse","city":"Atascadero","state":"CA","style":"Scottish-Style Ale","year":2022,"coords":[-120.6858,35.4827],"lat":35.4827,"lng":-120.6858,"comp":"GABF"},{"_id":{"$oid":"670ea5543856496f95071d5d"},"medal":"Silver","beer":"Laughing Lab Scottish Ale","brewery":"Bristol Brewing Co.","city":"Colorado Springs","state":"CO","style":"Scottish-Style Ale","year":2022,"coords":[-104.7606,38.8674],"lat":38.8674,"lng":-104.7606,"comp":"GABF"},{"_id":{"$oid":"670ea5543856496f95071d5e"},"medal":"Bronze","beer":"Taildragger Clan-Destine","brewery":"Saddle Mountain Brewing Co.","city":"Goodyear","state":"AZ","style":"Scottish-Style Ale","year":2022,"coords":[-112.3622,33.2614],"lat":33.2614,"lng":-112.3622,"comp":"GABF"},{"_id":{"$oid":"670ea5543856496f95071d5f"},"medal":"Gold","beer":"Oblique and Bent","brewery":"The Big Friendly","city":"Oklahoma City","state":"OK","style":"Session Beer or Belgian-Style Table Beer","year":2022,"coords":[-97.5137,35.4676],"lat":35.4676,"lng":-97.5137,"comp":"GABF"},{"_id":{"$oid":"670ea5543856496f95071d60"},"medal":"Silver","beer":"Guillaume","brewery":"Pizza Port Ocean Beach","city":"San Diego","state":"CA","style":"Session Beer or Belgian-Style Table Beer","year":2022,"coords":[-117.1225,32.8312],"lat":32.8312,"lng":-117.1225,"comp":"GABF"},{"_id":{"$oid":"670ea5543856496f95071d61"},"medal":"Bronze","beer":"First To Fall","brewery":"The Good Society","city":"Seattle","state":"WA","style":"Session Beer or Belgian-Style Table Beer","year":2022,"coords":[-122.3244,47.6211],"lat":47.6211,"lng":-122.3244,"comp":"GABF"},{"_id":{"$oid":"670ea5543856496f95071d62"},"medal":"Gold","beer":"The Next Chapter","brewery":"Original Pattern Brewing Co.","city":"Oakland","state":"CA","style":"Session India Pale Ale","year":2022,"coords":[-122.2165,37.7903],"lat":37.7903,"lng":-122.2165,"comp":"GABF"},{"_id":{"$oid":"670ea5543856496f95071d63"},"medal":"Silver","beer":"The Coachman","brewery":"Societe Brewing Co.","city":"San Diego","state":"CA","style":"Session India Pale Ale","year":2022,"coords":[-117.1225,32.8312],"lat":32.8312,"lng":-117.1225,"comp":"GABF"},{"_id":{"$oid":"670ea5543856496f95071d64"},"medal":"Bronze","beer":"Tectonic Session IPA","brewery":"Hutton &amp; Smith Brewing Co.","city":"Chattanooga","state":"TN","style":"Session India Pale Ale","year":2022,"coords":[-85.2487,35.0657],"lat":35.0657,"lng":-85.2487,"comp":"GABF"},{"_id":{"$oid":"670ea5543856496f95071d65"},"medal":"Gold","beer":"Smoke Follows Beauty","brewery":"Blind Tiger Brewery &amp; Restaurant","city":"Topeka","state":"KS","style":"Smoke Beer","year":2022,"coords":[-95.6955,39.0346],"lat":39.0346,"lng":-95.6955,"comp":"GABF"},{"_id":{"$oid":"670ea5543856496f95071d66"},"medal":"Silver","beer":"Helles Rauchbier","brewery":"Double Clutch Brewing Co.","city":"Evanston","state":"IL","style":"Smoke Beer","year":2022,"coords":[-87.6942,42.0463],"lat":42.0463,"lng":-87.6942,"comp":"GABF"},{"_id":{"$oid":"670ea5543856496f95071d67"},"medal":"Bronze","beer":"Dreaming Of Bamberg","brewery":"Figueroa Mountain Brewing Co. \u2013 Westlake Village","city":"Westlake Village","state":"CA","style":"Smoke Beer","year":2022,"coords":[-118.8221,34.1369],"lat":34.1369,"lng":-118.8221,"comp":"GABF"},{"_id":{"$oid":"670ea5543856496f95071d68"},"medal":"Gold","beer":"Breakside I Purple You","brewery":"Breakside Brewery \u2013 NW Slabtown","city":"Portland","state":"OR","style":"Specialty Beer","year":2022,"coords":[-122.65,45.5371],"lat":45.5371,"lng":-122.65,"comp":"GABF"},{"_id":{"$oid":"670ea5543856496f95071d69"},"medal":"Silver","beer":"Maple Smoked Maibock","brewery":"Kilowatt Brewing","city":"San Diego","state":"CA","style":"Specialty Beer","year":2022,"coords":[-117.1225,32.8312],"lat":32.8312,"lng":-117.1225,"comp":"GABF"},{"_id":{"$oid":"670ea5543856496f95071d6a"},"medal":"Bronze","beer":"Peanut Butter Porter","brewery":"Lake Time Brewery","city":"Clear Lake","state":"IA","style":"Specialty Beer","year":2022,"coords":[-93.374,43.1346],"lat":43.1346,"lng":-93.374,"comp":"GABF"},{"_id":{"$oid":"670ea5543856496f95071d6b"},"medal":"Gold","beer":"Gindulgence","brewery":"10 Barrel Brewing Co. \u2013 Bend Pub","city":"Bend","state":"OR","style":"Specialty Berliner-Style Weisse","year":2022,"coords":[-121.3087,44.0562],"lat":44.0562,"lng":-121.3087,"comp":"GABF"},{"_id":{"$oid":"670ea5543856496f95071d6c"},"medal":"Silver","beer":"Breakside Passionfruit Sour Ale","brewery":"Breakside Brewery &amp; Taproom","city":"Milwaukie","state":"OR","style":"Specialty Berliner-Style Weisse","year":2022,"coords":[-122.6221,45.4447],"lat":45.4447,"lng":-122.6221,"comp":"GABF"},{"_id":{"$oid":"670ea5543856496f95071d6d"},"medal":"Bronze","beer":"Coming to Fruition: Cherry","brewery":"Oregon City Brewing Co.","city":"Oregon City","state":"OR","style":"Specialty Berliner-Style Weisse","year":2022,"coords":[-122.5927,45.3414],"lat":45.3414,"lng":-122.5927,"comp":"GABF"},{"_id":{"$oid":"670ea5543856496f95071d6e"},"medal":"Gold","beer":"Summer Saison","brewery":"Third Window Brewing Co.","city":"Santa Barbara","state":"CA","style":"Specialty Saison","year":2022,"coords":[-119.7202,34.4285],"lat":34.4285,"lng":-119.7202,"comp":"GABF"},{"_id":{"$oid":"670ea5543856496f95071d6f"},"medal":"Silver","beer":"Textured Fabric","brewery":"The Big Friendly","city":"Oklahoma City","state":"OK","style":"Specialty Saison","year":2022,"coords":[-97.5137,35.4676],"lat":35.4676,"lng":-97.5137,"comp":"GABF"},{"_id":{"$oid":"670ea5543856496f95071d70"},"medal":"Bronze","beer":"Rosemary Sourdough Saison","brewery":"Cannonball Creek Brewing Co.","city":"Golden","state":"CO","style":"Specialty Saison","year":2022,"coords":[-105.2118,39.7406],"lat":39.7406,"lng":-105.2118,"comp":"GABF"},{"_id":{"$oid":"670ea5543856496f95071d71"},"medal":"Gold","beer":"Blarney Sisters Dry Irish Stout","brewery":"Third Street Aleworks","city":"Santa Rosa","state":"CA","style":"Stout","year":2022,"coords":[-122.7067,38.4458],"lat":38.4458,"lng":-122.7067,"comp":"GABF"},{"_id":{"$oid":"670ea5543856496f95071d72"},"medal":"Silver","beer":"Big Bison","brewery":"Thirsty Street Brewing Co.","city":"Billings","state":"MT","style":"Stout","year":2022,"coords":[-108.5509,45.7889],"lat":45.7889,"lng":-108.5509,"comp":"GABF"},{"_id":{"$oid":"670ea5543856496f95071d73"},"medal":"Bronze","beer":"Inside the Moon","brewery":"Flix Brewhouse \u2013 Carmel","city":"Carmel","state":"IN","style":"Stout","year":2022,"coords":[-86.1461,39.9658],"lat":39.9658,"lng":-86.1461,"comp":"GABF"},{"_id":{"$oid":"670ea5543856496f95071d74"},"medal":"Gold","beer":"My Bloody Nightmare","brewery":"BNS Brewing &amp; Distilling Co.","city":"Santee","state":"CA","style":"Strong Red Ale","year":2022,"coords":[-116.9851,32.8554],"lat":32.8554,"lng":-116.9851,"comp":"GABF"},{"_id":{"$oid":"670ea5543856496f95071d75"},"medal":"Silver","beer":"Local Shred Red","brewery":"Alvarado Street Brewery &amp; Grill","city":"Monterey","state":"CA","style":"Strong Red Ale","year":2022,"coords":[-121.8807,36.5922],"lat":36.5922,"lng":-121.8807,"comp":"GABF"},{"_id":{"$oid":"670ea5543856496f95071d76"},"medal":"Bronze","beer":"Bone Head","brewery":"Fat Head\u2019s Brewery","city":"Middleburg Heights","state":"OH","style":"Strong Red Ale","year":2022,"coords":[-81.8151,41.3695],"lat":41.3695,"lng":-81.8151,"comp":"GABF"},{"_id":{"$oid":"670ea5543856496f95071d77"},"medal":"Gold","beer":"Winner\u2019s Milk Jug","brewery":"Guggman Haus Brewing Co.","city":"Indianapolis","state":"IN","style":"Sweet Stout or Cream Stout","year":2022,"coords":[-86.1458,39.7771],"lat":39.7771,"lng":-86.1458,"comp":"GABF"},{"_id":{"$oid":"670ea5543856496f95071d78"},"medal":"Silver","beer":"Drop Forge Milk Stout","brewery":"Pantown Brewing Co.","city":"Saint Cloud","state":"MN","style":"Sweet Stout or Cream Stout","year":2022,"coords":null,"lat":null,"lng":null,"comp":"GABF"},{"_id":{"$oid":"670ea5543856496f95071d79"},"medal":"Bronze","beer":"Volcano Mudslide","brewery":"Feather Falls Brewing Co.","city":"Oroville","state":"CA","style":"Sweet Stout or Cream Stout","year":2022,"coords":[-121.5634,39.4999],"lat":39.4999,"lng":-121.5634,"comp":"GABF"},{"_id":{"$oid":"670ea5543856496f95071d7a"},"medal":"Gold","beer":"Symphony","brewery":"Big Ash Brewing","city":"Cincinnati","state":"OH","style":"Vienna-Style Lager","year":2022,"coords":[-84.506,39.1412],"lat":39.1412,"lng":-84.506,"comp":"GABF"},{"_id":{"$oid":"670ea5543856496f95071d7b"},"medal":"Silver","beer":"Froh Hund","brewery":"Secret Trail Brewing Co.","city":"Chico","state":"CA","style":"Vienna-Style Lager","year":2022,"coords":[-121.8152,39.7575],"lat":39.7575,"lng":-121.8152,"comp":"GABF"},{"_id":{"$oid":"670ea5543856496f95071d7c"},"medal":"Bronze","beer":"Lore","brewery":"Gatlin Hall Brewing","city":"Orlando","state":"FL","style":"Vienna-Style Lager","year":2022,"coords":[-81.3369,28.4772],"lat":28.4772,"lng":-81.3369,"comp":"GABF"},{"_id":{"$oid":"670ea5543856496f95071d7d"},"medal":"Gold","beer":"Barrel-Aged Soft Skills","brewery":"Jessup Farm Barrel House","city":"Fort Collins","state":"CO","style":"Wood- and Barrel-Aged Beer","year":2022,"coords":[-105.0651,40.5475],"lat":40.5475,"lng":-105.0651,"comp":"GABF"},{"_id":{"$oid":"670ea5543856496f95071d7e"},"medal":"Silver","beer":"Sensationator","brewery":"Deschutes Brewery \u2013 Portland Brewery &amp; Public House","city":"Portland","state":"OR","style":"Wood- and Barrel-Aged Beer","year":2022,"coords":[-122.65,45.5371],"lat":45.5371,"lng":-122.65,"comp":"GABF"},{"_id":{"$oid":"670ea5543856496f95071d7f"},"medal":"Bronze","beer":"Hell Raiser Bourbon Barrel Brown","brewery":"Old 290 Brewery","city":"Johnson City","state":"TX","style":"Wood- and Barrel-Aged Beer","year":2022,"coords":[-98.4064,30.2743],"lat":30.2743,"lng":-98.4064,"comp":"GABF"},{"_id":{"$oid":"670ea5543856496f95071d80"},"medal":"Gold","beer":"Apple Brandy Barrel Maker of Things","brewery":"Little Fish Brewing Co.","city":"Athens","state":"OH","style":"Wood- and Barrel-Aged Sour Beer","year":2022,"coords":[-82.0987,39.3269],"lat":39.3269,"lng":-82.0987,"comp":"GABF"},{"_id":{"$oid":"670ea5543856496f95071d81"},"medal":"Silver","beer":"Geni\u00e8vre","brewery":"ColdFire Brewing Co.","city":"Eugene","state":"OR","style":"Wood- and Barrel-Aged Sour Beer","year":2022,"coords":[-123.1173,44.0563],"lat":44.0563,"lng":-123.1173,"comp":"GABF"},{"_id":{"$oid":"670ea5543856496f95071d82"},"medal":"Bronze","beer":"Tilling Time","brewery":"Odd Breed Wild Ales","city":"Pompano Beach","state":"FL","style":"Wood- and Barrel-Aged Sour Beer","year":2022,"coords":[-80.1312,26.2428],"lat":26.2428,"lng":-80.1312,"comp":"GABF"},{"_id":{"$oid":"670ea5543856496f95071d83"},"medal":"Gold","beer":"Flesh to Stone","brewery":"Bottle Logic Brewing","city":"Anaheim","state":"CA","style":"Wood- and Barrel-Aged Strong Beer","year":2022,"coords":[-117.8573,33.839],"lat":33.839,"lng":-117.8573,"comp":"GABF"},{"_id":{"$oid":"670ea5543856496f95071d84"},"medal":"Silver","beer":"Ivoire","brewery":"The Bruery","city":"Placentia","state":"CA","style":"Wood- and Barrel-Aged Strong Beer","year":2022,"coords":[-117.8553,33.8807],"lat":33.8807,"lng":-117.8553,"comp":"GABF"},{"_id":{"$oid":"670ea5543856496f95071d85"},"medal":"Bronze","beer":1314,"brewery":"Black Tooth Brewing Co.","city":"Sheridan","state":"WY","style":"Wood- and Barrel-Aged Strong Beer","year":2022,"coords":[-106.9643,44.7962],"lat":44.7962,"lng":-106.9643,"comp":"GABF"},{"_id":{"$oid":"670ea5543856496f95071d86"},"medal":"Gold","beer":"8th Anniversary Reserve","brewery":"Grist House Craft Brewery","city":"Pittsburgh","state":"PA","style":"Wood- and Barrel-Aged Strong Stout","year":2022,"coords":[-79.9763,40.4396],"lat":40.4396,"lng":-79.9763,"comp":"GABF"},{"_id":{"$oid":"670ea5543856496f95071d87"},"medal":"Silver","beer":"Barrel Aged Blindfolded Stoutosaurus","brewery":"de Bine Brewing Co.","city":"Palm Harbor","state":"FL","style":"Wood- and Barrel-Aged Strong Stout","year":2022,"coords":[-82.7481,28.0847],"lat":28.0847,"lng":-82.7481,"comp":"GABF"},{"_id":{"$oid":"670ea5543856496f95071d88"},"medal":"Bronze","beer":"Wooden Mayhem","brewery":"Rock Cut Brewing Co.","city":"Estes Park","state":"CO","style":"Wood- and Barrel-Aged Strong Stout","year":2022,"coords":[-105.5222,40.3703],"lat":40.3703,"lng":-105.5222,"comp":"GABF"},{"_id":{"$oid":"670ea5543856496f95071d89"},"medal":"Gold","beer":"Quadtum Leap","brewery":"Revelry Brewing Co.","city":"Charleston","state":"SC","style":"Aged Beer","year":2018,"coords":[-79.963,32.8151],"lat":32.8151,"lng":-79.963,"comp":"GABF"},{"_id":{"$oid":"670ea5543856496f95071d8a"},"medal":"Silver","beer":"Lock, Stock and Brandy Barrel","brewery":"Maize Valley Craft Brewery","city":"Hartville","state":"OH","style":"Aged Beer","year":2018,"coords":[-81.3349,40.9618],"lat":40.9618,"lng":-81.3349,"comp":"GABF"},{"_id":{"$oid":"670ea5543856496f95071d8b"},"medal":"Bronze","beer":"Solzhenitsyn","brewery":"Iron Hill Brewery & Restaurant - Media","city":"Media","state":"PA","style":"Aged Beer","year":2018,"coords":[-75.3888,39.9198],"lat":39.9198,"lng":-75.3888,"comp":"GABF"},{"_id":{"$oid":"670ea5543856496f95071d8c"},"medal":"Gold","beer":"Whitewall Wheat","brewery":"Crank Arm Brewing Co.","city":"Raleigh","state":"NC","style":"American-Belgo-Style Ale","year":2018,"coords":[-78.6438,35.8324],"lat":35.8324,"lng":-78.6438,"comp":"GABF"},{"_id":{"$oid":"670ea5543856496f95071d8d"},"medal":"Silver","beer":"#4.5 Dry Hopped Saison","brewery":"Brown Truck Brewery","city":"High Point","state":"NC","style":"American-Belgo-Style Ale","year":2018,"coords":[-79.9937,35.9905],"lat":35.9905,"lng":-79.9937,"comp":"GABF"},{"_id":{"$oid":"670ea5543856496f95071d8e"},"medal":"Bronze","beer":"Mischief","brewery":"The Bruery","city":"Placentia","state":"CA","style":"American-Belgo-Style Ale","year":2018,"coords":[-117.8553,33.8807],"lat":33.8807,"lng":-117.8553,"comp":"GABF"},{"_id":{"$oid":"670ea5543856496f95071d8f"},"medal":"Gold","beer":"Pecos Amber Lager","brewery":"Texas Beer Co.","city":"Taylor","state":"TX","style":"American-Style Amber Lager","year":2018,"coords":[-97.4233,30.5743],"lat":30.5743,"lng":-97.4233,"comp":"GABF"},{"_id":{"$oid":"670ea5543856496f95071d90"},"medal":"Silver","beer":"M\u00e4rzen","brewery":"Sudwerk Brewing Co.","city":"Davis","state":"CA","style":"American-Style Amber Lager","year":2018,"coords":[-121.7365,38.5552],"lat":38.5552,"lng":-121.7365,"comp":"GABF"},{"_id":{"$oid":"670ea5543856496f95071d91"},"medal":"Bronze","beer":"Oktoberfest","brewery":"Lager Heads Brewing Co.","city":"Medina","state":"OH","style":"American-Style Amber Lager","year":2018,"coords":[-81.8694,41.1358],"lat":41.1358,"lng":-81.8694,"comp":"GABF"},{"_id":{"$oid":"670ea5543856496f95071d92"},"medal":"Gold","beer":"West Coast Swing Amber","brewery":"The Mitten Brewing Co.","city":"Grand Rapids","state":"MI","style":"American-Style Amber\/Red Ale","year":2018,"coords":[-85.6557,42.9615],"lat":42.9615,"lng":-85.6557,"comp":"GABF"},{"_id":{"$oid":"670ea5543856496f95071d93"},"medal":"Silver","beer":"Sepia Amber","brewery":"Hopping Gnome Brewing Co.","city":"Wichita","state":"KS","style":"American-Style Amber\/Red Ale","year":2018,"coords":[-97.3441,37.6897],"lat":37.6897,"lng":-97.3441,"comp":"GABF"},{"_id":{"$oid":"670ea5543856496f95071d94"},"medal":"Bronze","beer":"Avalon Amber Ale","brewery":"Slack Tide Brewing Co.","city":"Cape May Court House","state":"NJ","style":"American-Style Amber\/Red Ale","year":2018,"coords":[-74.8209,39.079],"lat":39.079,"lng":-74.8209,"comp":"GABF"},{"_id":{"$oid":"670ea5543856496f95071d95"},"medal":"Gold","beer":"Alpha Force Double Tap","brewery":"Uberbrew","city":"Billings","state":"MT","style":"American-Style Black Ale","year":2018,"coords":[-108.5509,45.7889],"lat":45.7889,"lng":-108.5509,"comp":"GABF"},{"_id":{"$oid":"670ea5543856496f95071d96"},"medal":"Silver","beer":"Black the Riipper","brewery":"Riip Beer Co.","city":"Huntington Beach","state":"CA","style":"American-Style Black Ale","year":2018,"coords":[-118.0025,33.696],"lat":33.696,"lng":-118.0025,"comp":"GABF"},